Time	Aircraft Simulation Net Global Force X	Aircraft Simulation Net Global Force Y	Aircraft Simulation Net Global Force Z	Aircraft Simulation Net Global Moment X	Aircraft Simulation Net Global Moment Y	Aircraft Simulation Net Global Moment Z	Aircraft Simulation Net Local Force X	Aircraft Simulation Net Local Force Y	Aircraft Simulation Net Local Force Z	Aircraft Simulation Net Local Moment X	Aircraft Simulation Net Local Moment Y	Aircraft Simulation Net Local Moment Z	Aircraft Simulation Net Force	Aircraft Simulation Net Moment	Aircraft Simulation Roll Angle	Aircraft Simulation Pitch Angle	Aircraft Simulation Heading Angle	Aircraft Simulation Angle Of Attack_Deg	Aircraft Simulation Angle Of Sideslip_Deg	Aircraft Simulation Roll Rate	Aircraft Simulation Pitch Rate	Aircraft Simulation Yaw Rate	Aircraft Simulation Angular Velocity X	Aircraft Simulation Angular Velocity Y	Aircraft Simulation Angular Velocity Z	Aircraft Simulation Position X	Aircraft Simulation Position Y	Aircraft Simulation Position Z	Aircraft Simulation Global Velocity X	Aircraft Simulation Global Velocity Y	Aircraft Simulation Global Velocity Z	Aircraft Simulation Local Velocity X	Aircraft Simulation Local Velocity Y	Aircraft Simulation Local Velocity Z	Aircraft Simulation Airspeed	Aircraft Simulation Ground Speed	Aircraft Simulation Acceleration X	Aircraft Simulation Acceleration Y	Aircraft Simulation Acceleration Z	Aircraft Simulation Local Acceleration X	Aircraft Simulation Local Acceleration Y	Aircraft Simulation Local Acceleration Z	Aircraft Simulation Imu Acceleration X	Aircraft Simulation Imu Acceleration Y	Aircraft Simulation Imu Acceleration Z	Aircraft Simulation Altitude	Aircraft Simulation Time	D A Q Net Global Force X	D A Q Net Global Force Y	D A Q Net Global Force Z	D A Q Net Global Moment X	D A Q Net Global Moment Y	D A Q Net Global Moment Z	D A Q Net Local Force X	D A Q Net Local Force Y	D A Q Net Local Force Z	D A Q Net Local Moment X	D A Q Net Local Moment Y	D A Q Net Local Moment Z	D A Q Net Force	D A Q Net Moment	Electronic Speed Controller Input Value	Fin Input Value	Port Aileron Input Value	Port Flap Input Value	Propeller Total Thrust	Propeller Advance Ratio	Propeller Thrust Coefficient	Propeller Torque Coefficient	Propeller Propulsive Efficiency	Propeller Rps	Starboard Aileron Input Value	Starboard Flap Input Value	Tailplane Input Value	U I Net Global Force X	U I Net Global Force Y	U I Net Global Force Z	U I Net Global Moment X	U I Net Global Moment Y	U I Net Global Moment Z	U I Net Local Force X	U I Net Local Force Y	U I Net Local Force Z	U I Net Local Moment X	U I Net Local Moment Y	U I Net Local Moment Z	U I Net Force	U I Net Moment	Uniform Flow Net Global Force X	Uniform Flow Net Global Force Y	Uniform Flow Net Global Force Z	Uniform Flow Net Global Moment X	Uniform Flow Net Global Moment Y	Uniform Flow Net Global Moment Z	Uniform Flow Net Local Force X	Uniform Flow Net Local Force Y	Uniform Flow Net Local Force Z	Uniform Flow Net Local Moment X	Uniform Flow Net Local Moment Y	Uniform Flow Net Local Moment Z	Uniform Flow Net Force	Uniform Flow Net Moment
0.1	-0.001454974	-47.06495	-7.815841	6.662594E-05	-2.004896E-09	-3.306244E-10	-0.001454782	-47.06495	-7.815838	6.662594E-05	-2.004803E-09	-3.295539E-10	47.7095	6.662594E-05	8.004125E-08	-3.415095E-06	9.204745E-07	-20	0	0	0	0	0	0	0	2.621433E-09	50	1.490116E-06	0	0	0	0	0	0	15.03508	0	0	0	0	0	0	0	-1.370441E-08	9.81	-5.847216E-07	50	0.1	0	-9.81	0	0	0	0	0	-9.81	0	0	0	0	9.81	0	-1	0	0	-1	-1.142483	17.97195	-12.26043	0.582894	-60.16328	2.527503	0	-1	1	0	-9.81	0	0	0	0	0	-9.81	0	0	0	0	9.81	0	0	-9.81	0	0	0	0	0	-9.81	0	0	0	0	9.81	0
0.2	0.0002266416	-46.88731	-7.893777	0.0001362423	7.139844E-10	-3.292089E-10	0.0002268339	-46.88731	-7.893774	0.0001362423	7.141747E-10	-3.270201E-10	47.54715	0.0001362423	8.004125E-08	-3.415095E-06	9.204745E-07	-20	0	0	0	0	0	0	0	2.621433E-09	50	2.980232E-06	0	0	0	0	0	0	15.03508	0	0	0	0	0	0	0	-1.370441E-08	9.81	-5.847216E-07	50	0.2	0	-9.81	0	0	0	0	0	-9.81	0	0	0	0	9.81	0	-1	0	0	-1	-1.143763	18.50463	-13.01689	0.5972075	-64.19226	2.454335	0	-1	1	0	-9.81	0	0	0	0	0	-9.81	0	0	0	0	9.81	0	0	-9.81	0	0	0	0	0	-9.81	0	0	0	0	9.81	0
0.3	-0.001758514	-46.8649	-7.913568	0.0002060078	-7.674527E-09	-3.28848E-10	-0.001758322	-46.8649	-7.913566	0.0002060078	-7.674239E-09	-3.25538E-10	47.52834	0.0002060078	8.004125E-08	-3.415095E-06	9.204745E-07	-20	0	0	0	0	0	0	0	2.621433E-09	50	4.470348E-06	0	0	0	0	0	0	15.03508	0	0	0	0	0	0	0	-1.370441E-08	9.81	-5.847216E-07	50	0.3	0	-9.81	0	0	0	0	0	-9.81	0	0	0	0	9.81	0	-1	0	0	-1	-1.145878	17.93871	-12.25657	0.5815369	-60.17318	2.531654	0	-1	1	0	-9.81	0	0	0	0	0	-9.81	0	0	0	0	9.81	0	0	-9.81	0	0	0	0	0	-9.81	0	0	0	0	9.81	0
0.4	4.253963E-05	-46.85829	-7.905194	0.0002758024	3.058925E-10	-3.290215E-10	4.273209E-05	-46.85829	-7.905191	0.0002758024	3.062777E-10	-3.245907E-10	47.52043	0.0002758024	8.004125E-08	-3.415095E-06	9.204745E-07	-20	0	0	0	0	0	0	0	2.621433E-09	50	5.960464E-06	0	0	0	0	0	0	15.03508	0	0	0	0	0	0	0	-1.370441E-08	9.81	-5.847216E-07	50	0.4	0	-9.81	0	0	0	0	0	-9.81	0	0	0	0	9.81	0	-1	0	0	-1	-1.141205	18.55804	-13.06508	0.5991462	-64.40677	2.447064	0	-1	1	0	-9.81	0	0	0	0	0	-9.81	0	0	0	0	9.81	0	0	-9.81	0	0	0	0	0	-9.81	0	0	0	0	9.81	0
0.5	-0.002070396	-46.85762	-7.922413	0.0003456261	-1.521572E-08	-3.28848E-10	-0.002070203	-46.85762	-7.92241	0.0003456261	-1.521523E-08	-3.232945E-10	47.52264	0.0003456261	8.004125E-08	-3.415095E-06	9.204745E-07	-20	0	0	0	0	0	0	0	2.621433E-09	50	7.450581E-06	0	0	0	0	0	0	15.03508	0	0	0	0	0	0	0	-1.370441E-08	9.81	-5.847216E-07	50	0.5	0	-9.81	0	0	0	0	0	-9.81	0	0	0	0	9.81	0	-1	0	0	-1	-1.15001	17.89969	-12.24832	0.5798659	-60.17476	2.537068	0	-1	1	0	-9.81	0	0	0	0	0	-9.81	0	0	0	0	9.81	0	0	-9.81	0	0	0	0	0	-9.81	0	0	0	0	9.81	0
0.6	-0.0001170616	-46.85196	-7.906923	0.0004153989	-9.823738E-10	-3.289868E-10	-0.0001168691	-46.85196	-7.90692	0.0004153989	-9.817935E-10	-3.223132E-10	47.51447	0.0004153989	8.004125E-08	-3.415095E-06	9.204745E-07	-20	0	0	0	0	0	0	0	2.621433E-09	50	8.940697E-06	0	0	0	0	0	0	15.03508	0	0	0	0	0	0	0	-1.370441E-08	9.81	-5.847216E-07	50	0.6	0	-9.81	0	0	0	0	0	-9.81	0	0	0	0	9.81	0	-1	0	0	-1	-1.139203	18.60609	-13.1098	0.6008401	-64.6119	2.440743	0	-1	1	0	-9.81	0	0	0	0	0	-9.81	0	0	0	0	9.81	0	0	-9.81	0	0	0	0	0	-9.81	0	0	0	0	9.81	0
0.7	-0.002367247	-46.8584	-7.927999	0.0004852809	-2.446021E-08	-3.290701E-10	-0.002367054	-46.8584	-7.927997	0.0004852809	-2.445953E-08	-3.212724E-10	47.52434	0.0004852809	8.004125E-08	-3.415095E-06	9.204745E-07	-20	0	0	0	0	0	0	0	2.621433E-09	50	1.043081E-05	0	0	0	0	0	0	15.03508	0	0	0	0	0	0	0	-1.370441E-08	9.81	-5.847216E-07	50	0.7	0	-9.81	0	0	0	0	0	-9.81	0	0	0	0	9.81	0	-1	0	0	-1	-1.15513	17.87726	-12.27259	0.5785102	-60.35957	2.540194	0	-1	1	0	-9.81	0	0	0	0	0	-9.81	0	0	0	0	9.81	0	0	-9.81	0	0	0	0	0	-9.81	0	0	0	0	9.81	0
0.8	-0.0002508872	-46.85066	-7.905756	0.00055501	-2.916597E-09	-3.289591E-10	-0.0002506948	-46.85066	-7.905754	0.00055501	-2.915822E-09	-3.200425E-10	47.513	0.00055501	8.004125E-08	-3.415095E-06	9.204745E-07	-20	0	0	0	0	0	0	0	2.621433E-09	50	1.192093E-05	0	0	0	0	0	0	15.03508	0	0	0	0	0	0	0	-1.370441E-08	9.81	-5.847216E-07	50	0.8	0	-9.81	0	0	0	0	0	-9.81	0	0	0	0	9.81	0	-1	0	0	-1	-1.137566	18.64974	-13.15275	0.6023792	-64.80963	2.435003	0	-1	1	0	-9.81	0	0	0	0	0	-9.81	0	0	0	0	9.81	0	0	-9.81	0	0	0	0	0	-9.81	0	0	0	0	9.81	0
0.9	-0.002479225	-46.85672	-7.933649	0.0006249065	-3.300848E-08	-3.28848E-10	-0.002479032	-46.85672	-7.933646	0.0006249065	-3.300761E-08	-3.188067E-10	47.52362	0.0006249065	8.004125E-08	-3.415095E-06	9.204745E-07	-20	0	0	0	0	0	0	0	2.621433E-09	50	1.341105E-05	0	0	0	0	0	0	15.03508	0	0	0	0	0	0	0	-1.370441E-08	9.81	-5.847216E-07	50	0.9	0	-9.81	0	0	0	0	0	-9.81	0	0	0	0	9.81	0	-1	0	0	-1	-1.160642	17.87816	-12.33205	0.5776813	-60.74212	2.540101	0	-1	1	0	-9.81	0	0	0	0	0	-9.81	0	0	0	0	9.81	0	0	-9.81	0	0	0	0	0	-9.81	0	0	0	0	9.81	0
1	-0.0003627653	-46.85153	-7.903867	0.0006946502	-5.323089E-09	-3.289591E-10	-0.0003625728	-46.85153	-7.903864	0.0006946502	-5.322119E-09	-3.17799E-10	47.51355	0.0006946502	8.004125E-08	-3.415095E-06	9.204745E-07	-20	0	0	0	0	0	0	0	2.621433E-09	50	1.490116E-05	0	0	0	0	0	0	15.03508	0	0	0	0	0	0	0	-1.370441E-08	9.81	-5.847216E-07	50	1	0	-9.81	0	0	0	0	0	-9.81	0	0	0	0	9.81	0	-1	0	0	-1	-1.136227	18.68913	-13.19329	0.6037706	-64.99658	2.429827	0	-1	1	0	-9.81	0	0	0	0	0	-9.81	0	0	0	0	9.81	0	0	-9.81	0	0	0	0	0	-9.81	0	0	0	0	9.81	0
1.1	-0.002151926	-46.85624	-7.931138	0.0007645394	-3.505673E-08	-3.290701E-10	-0.002151733	-46.85624	-7.931135	0.0007645394	-3.505566E-08	-3.167854E-10	47.52274	0.0007645394	8.004125E-08	-3.415095E-06	9.204745E-07	-20	0	0	0	0	0	0	0	2.621433E-09	50	1.639128E-05	0	0	0	0	0	0	15.03508	0	0	0	0	0	0	0	-1.370441E-08	9.81	-5.847216E-07	50	1.1	0	-9.81	0	0	0	0	0	-9.81	0	0	0	0	9.81	0	-1	0	0	-1	-1.163841	17.91036	-12.41085	0.5778753	-61.21979	2.535512	0	-1	1	0	-9.81	0	0	0	0	0	-9.81	0	0	0	0	9.81	0	0	-9.81	0	0	0	0	0	-9.81	0	0	0	0	9.81	0
1.2	-0.0004555988	-46.84879	-7.904622	0.0008342285	-8.057304E-09	-3.289035E-10	-0.0004554063	-46.84879	-7.904619	0.0008342285	-8.056139E-09	-3.155009E-10	47.51097	0.0008342285	8.004125E-08	-3.415095E-06	9.204745E-07	-20	0	0	0	0	0	0	0	2.621433E-09	50	1.788139E-05	0	0	0	0	0	0	15.03508	0	0	0	0	0	0	0	-1.370441E-08	9.81	-5.847216E-07	50	1.2	0	-9.81	0	0	0	0	0	-9.81	0	0	0	0	9.81	0	-1	0	0	-1	-1.135205	18.72436	-13.23068	0.6049963	-65.17133	2.4253	0	-1	1	0	-9.81	0	0	0	0	0	-9.81	0	0	0	0	9.81	0	0	-9.81	0	0	0	0	0	-9.81	0	0	0	0	9.81	0
1.3	-0.001408649	-46.85564	-7.921173	0.0009041723	-2.712713E-08	-3.28848E-10	-0.001408456	-46.85564	-7.92117	0.0009041723	-2.712587E-08	-3.143206E-10	47.52048	0.0009041723	8.004125E-08	-3.415095E-06	9.204745E-07	-20	0	0	0	0	0	0	0	2.621433E-09	50	1.937151E-05	0	0	0	0	0	0	15.03508	0	0	0	0	0	0	0	-1.370441E-08	9.81	-5.847216E-07	50	1.3	0	-9.81	0	0	0	0	0	-9.81	0	0	0	0	9.81	0	-1	0	0	-1	-1.160565	17.97243	-12.46224	0.5795091	-61.51242	2.526714	0	-1	1	0	-9.81	0	0	0	0	0	-9.81	0	0	0	0	9.81	0	0	-9.81	0	0	0	0	0	-9.81	0	0	0	0	9.81	0
1.4	-0.0005329569	-46.84888	-7.903373	0.0009738505	-1.102313E-08	-3.289035E-10	-0.0005327644	-46.84888	-7.90337	0.0009738505	-1.102177E-08	-3.132577E-10	47.51085	0.0009738505	8.004125E-08	-3.415095E-06	9.204745E-07	-20	0	0	0	0	0	0	0	2.621433E-09	50	2.086163E-05	0	0	0	0	0	0	15.03508	0	0	0	0	0	0	0	-1.370441E-08	9.81	-5.847216E-07	50	1.4	0	-9.81	0	0	0	0	0	-9.81	0	0	0	0	9.81	0	-1	0	0	-1	-1.134319	18.75652	-13.26603	0.6061309	-65.33515	2.421122	0	-1	1	0	-9.81	0	0	0	0	0	-9.81	0	0	0	0	9.81	0	0	-9.81	0	0	0	0	0	-9.81	0	0	0	0	9.81	0
1.5	-0.0006370088	-46.85047	-7.911718	0.001043696	-1.413525E-08	-3.290146E-10	-0.0006368163	-46.85047	-7.911715	0.001043696	-1.413379E-08	-3.122464E-10	47.51381	0.001043696	8.004125E-08	-3.415095E-06	9.204745E-07	-20	0	0	0	0	0	0	0	2.621433E-09	50	2.235174E-05	0	0	0	0	0	0	15.03508	0	0	0	0	0	0	0	-1.370441E-08	9.81	-5.847216E-07	50	1.5	0	-9.81	0	0	0	0	0	-9.81	0	0	0	0	9.81	0	-1	0	0	-1	-1.150884	18.04628	-12.45956	0.5821795	-61.46865	2.516424	0	-1	1	0	-9.81	0	0	0	0	0	-9.81	0	0	0	0	9.81	0	0	-9.81	0	0	0	0	0	-9.81	0	0	0	0	9.81	0
1.6	-0.0005963319	-46.85034	-7.902053	0.001113509	-1.411779E-08	-3.290146E-10	-0.0005961395	-46.85034	-7.90205	0.001113509	-1.411623E-08	-3.111249E-10	47.51207	0.001113509	8.004125E-08	-3.415095E-06	9.204745E-07	-20	0	0	0	0	0	0	0	2.621433E-09	50	2.384186E-05	0	0	0	0	0	0	15.03508	0	0	0	0	0	0	0	-1.370441E-08	9.81	-5.847216E-07	50	1.6	0	-9.81	0	0	0	0	0	-9.81	0	0	0	0	9.81	0	-1	0	0	-1	-1.133572	18.78525	-13.29831	0.6071553	-65.48376	2.417385	0	-1	1	0	-9.81	0	0	0	0	0	-9.81	0	0	0	0	9.81	0	0	-9.81	0	0	0	0	0	-9.81	0	0	0	0	9.81	0
1.7	-9.230001E-05	-46.84911	-7.902353	0.001183289	-2.27578E-09	-3.289591E-10	-9.210761E-05	-46.84911	-7.90235	0.001183289	-2.274127E-09	-3.09949E-10	47.5109	0.001183289	8.004125E-08	-3.415095E-06	9.204745E-07	-20	0	0	0	0	0	0	0	2.621433E-09	50	2.533197E-05	0	0	0	0	0	0	15.03508	0	0	0	0	0	0	0	-1.370441E-08	9.81	-5.847216E-07	50	1.7	0	-9.81	0	0	0	0	0	-9.81	0	0	0	0	9.81	0	-1	0	0	-1	-1.140067	18.10881	-12.42833	0.5847977	-61.25156	2.507716	0	-1	1	0	-9.81	0	0	0	0	0	-9.81	0	0	0	0	9.81	0	0	-9.81	0	0	0	0	0	-9.81	0	0	0	0	9.81	0
1.8	-0.0006480875	-46.84789	-7.902787	0.001253069	-1.727929E-08	-3.289035E-10	-0.000647895	-46.84789	-7.902784	0.001253069	-1.727754E-08	-3.087716E-10	47.50977	0.001253069	8.004125E-08	-3.415095E-06	9.204745E-07	-20	0	0	0	0	0	0	0	2.621433E-09	50	2.682209E-05	0	0	0	0	0	0	15.03508	0	0	0	0	0	0	0	-1.370441E-08	9.81	-5.847216E-07	50	1.8	0	-9.81	0	0	0	0	0	-9.81	0	0	0	0	9.81	0	-1	0	0	-1	-1.133018	18.81103	-13.3278	0.6080591	-65.62139	2.414119	0	-1	1	0	-9.81	0	0	0	0	0	-9.81	0	0	0	0	9.81	0	0	-9.81	0	0	0	0	0	-9.81	0	0	0	0	9.81	0
1.9	0.0002253198	-46.84822	-7.896804	0.001322885	6.417949E-09	-3.289591E-10	0.0002255121	-46.84822	-7.896801	0.001322885	6.419797E-09	-3.077069E-10	47.50911	0.001322885	8.004125E-08	-3.415095E-06	9.204745E-07	-20	0	0	0	0	0	0	0	2.621433E-09	50	2.831221E-05	0	0	0	0	0	0	15.03508	0	0	0	0	0	0	0	-1.370441E-08	9.81	-5.847216E-07	50	1.9	0	-9.81	0	0	0	0	0	-9.81	0	0	0	0	9.81	0	-1	0	0	-1	-1.131849	18.1496	-12.39451	0.5866377	-61.03044	2.502068	0	-1	1	0	-9.81	0	0	0	0	0	-9.81	0	0	0	0	9.81	0	0	-9.81	0	0	0	0	0	-9.81	0	0	0	0	9.81	0
2	-0.0006886302	-46.84858	-7.901533	0.001392705	-2.041603E-08	-3.290701E-10	-0.0006884378	-46.84858	-7.90153	0.001392705	-2.041408E-08	-3.066946E-10	47.51025	0.001392705	8.004125E-08	-3.415095E-06	9.204745E-07	-20	0	0	0	0	0	0	0	2.621433E-09	50	2.980232E-05	0	0	0	0	0	0	15.03508	0	0	0	0	0	0	0	-1.370441E-08	9.81	-5.847216E-07	50	2	0	-9.81	0	0	0	0	0	-9.81	0	0	0	0	9.81	0	-1	0	0	-1	-1.132502	18.83403	-13.35455	0.6088881	-65.74385	2.41115	0	-1	1	0	-9.81	0	0	0	0	0	-9.81	0	0	0	0	9.81	0	0	-9.81	0	0	0	0	0	-9.81	0	0	0	0	9.81	0
2.1	0.0003898056	-46.84634	-7.893713	0.001462446	1.222436E-08	-3.289035E-10	0.0003899978	-46.84634	-7.893711	0.001462446	1.22264E-08	-3.054096E-10	47.50674	0.001462446	8.004125E-08	-3.415095E-06	9.204745E-07	-20	0	0	0	0	0	0	0	2.621433E-09	50	3.129244E-05	0	0	0	0	0	0	15.03508	0	0	0	0	0	0	0	-1.370441E-08	9.81	-5.847216E-07	50	2.1	0	-9.81	0	0	0	0	0	-9.81	0	0	0	0	9.81	0	-1	0	0	-1	-1.126521	18.17282	-12.36748	0.5877273	-60.86219	2.498899	0	-1	1	0	-9.81	0	0	0	0	0	-9.81	0	0	0	0	9.81	0	0	-9.81	0	0	0	0	0	-9.81	0	0	0	0	9.81	0
2.2	-0.0007201203	-46.84747	-7.90217	0.001532287	-2.349829E-08	-3.290701E-10	-0.0007199279	-46.84747	-7.902167	0.001532287	-2.349615E-08	-3.04452E-10	47.50926	0.001532287	8.004125E-08	-3.415095E-06	9.204745E-07	-20	0	0	0	0	0	0	0	2.621433E-09	50	3.278255E-05	0	0	0	0	0	0	15.03508	0	0	0	0	0	0	0	-1.370441E-08	9.81	-5.847216E-07	50	2.2	0	-9.81	0	0	0	0	0	-9.81	0	0	0	0	9.81	0	-1	0	0	-1	-1.132111	18.85377	-13.3776	0.6095979	-65.8496	2.408657	0	-1	1	0	-9.81	0	0	0	0	0	-9.81	0	0	0	0	9.81	0	0	-9.81	0	0	0	0	0	-9.81	0	0	0	0	9.81	0
2.3	0.0004619021	-46.84694	-7.890618	0.001602078	1.58516E-08	-3.289591E-10	0.0004620943	-46.84694	-7.890615	0.001602078	1.585384E-08	-3.032221E-10	47.50682	0.001602078	8.004125E-08	-3.415095E-06	9.204745E-07	-20	0	0	0	0	0	0	0	2.621433E-09	50	3.427267E-05	0	0	0	0	0	0	15.03508	0	0	0	0	0	0	0	-1.370441E-08	9.81	-5.847216E-07	50	2.3	0	-9.81	0	0	0	0	0	-9.81	0	0	0	0	9.81	0	-1	0	0	-1	-1.123188	18.18398	-12.34627	0.5883026	-60.73568	2.497341	0	-1	1	0	-9.81	0	0	0	0	0	-9.81	0	0	0	0	9.81	0	0	-9.81	0	0	0	0	0	-9.81	0	0	0	0	9.81	0
2.4	-0.0007429612	-46.84748	-7.901559	0.001671906	-2.645955E-08	-3.290701E-10	-0.0007427689	-46.84748	-7.901556	0.001671906	-2.645722E-08	-3.022088E-10	47.50917	0.001671906	8.004125E-08	-3.415095E-06	9.204745E-07	-20	0	0	0	0	0	0	0	2.621433E-09	50	3.576279E-05	0	0	0	0	0	0	15.03508	0	0	0	0	0	0	0	-1.370441E-08	9.81	-5.847216E-07	50	2.4	0	-9.81	0	0	0	0	0	-9.81	0	0	0	0	9.81	0	-1	0	0	-1	-1.131749	18.87099	-13.39791	0.6102373	-65.94063	2.406445	0	-1	1	0	-9.81	0	0	0	0	0	-9.81	0	0	0	0	9.81	0	0	-9.81	0	0	0	0	0	-9.81	0	0	0	0	9.81	0
2.5	0.0004800945	-46.84557	-7.890398	0.001741642	1.790454E-08	-3.289591E-10	0.0004802867	-46.84557	-7.890395	0.001741642	1.790697E-08	-3.009801E-10	47.50542	0.001741642	8.004125E-08	-3.415095E-06	9.204745E-07	-20	0	0	0	0	0	0	0	2.621433E-09	50	3.72529E-05	0	0	0	0	0	0	15.03508	0	0	0	0	0	0	0	-1.370441E-08	9.81	-5.847216E-07	50	2.5	0	-9.81	0	0	0	0	0	-9.81	0	0	0	0	9.81	0	-1	0	0	-1	-1.121186	18.18747	-12.32865	0.5885241	-60.63781	2.496897	0	-1	1	0	-9.81	0	0	0	0	0	-9.81	0	0	0	0	9.81	0	0	-9.81	0	0	0	0	0	-9.81	0	0	0	0	9.81	0
2.6	-0.0007579238	-46.84865	-7.900281	0.001811568	-2.925235E-08	-3.289591E-10	-0.0007577314	-46.84865	-7.900279	0.001811568	-2.924982E-08	-2.998539E-10	47.51011	0.001811568	8.004125E-08	-3.415095E-06	9.204745E-07	-20	0	0	0	0	0	0	0	2.621433E-09	50	3.874302E-05	0	0	0	0	0	0	15.03508	0	0	0	0	0	0	0	-1.370441E-08	9.81	-5.847216E-07	50	2.6	0	-9.81	0	0	0	0	0	-9.81	0	0	0	0	9.81	0	-1	0	0	-1	-1.131428	18.88547	-13.41498	0.6107907	-66.01546	2.404573	0	-1	1	0	-9.81	0	0	0	0	0	-9.81	0	0	0	0	9.81	0	0	-9.81	0	0	0	0	0	-9.81	0	0	0	0	9.81	0
2.7	0.0004657987	-46.84564	-7.889225	0.001881257	1.876124E-08	-3.289591E-10	0.0004659909	-46.84564	-7.889222	0.001881257	1.876387E-08	-2.987372E-10	47.50531	0.001881257	8.004125E-08	-3.415095E-06	9.204745E-07	-20	0	0	0	0	0	0	0	2.621433E-09	50	4.023314E-05	0	0	0	0	0	0	15.03508	0	0	0	0	0	0	0	-1.370441E-08	9.81	-5.847216E-07	50	2.7	0	-9.81	0	0	0	0	0	-9.81	0	0	0	0	9.81	0	-1	0	0	-1	-1.119917	18.18727	-12.31456	0.5885811	-60.56202	2.49691	0	-1	1	0	-9.81	0	0	0	0	0	-9.81	0	0	0	0	9.81	0	0	-9.81	0	0	0	0	0	-9.81	0	0	0	0	9.81	0
2.8	-0.0007666597	-46.84714	-7.901317	0.001951121	-3.187494E-08	-3.290701E-10	-0.0007664674	-46.84714	-7.901314	0.001951121	-3.187222E-08	-2.977228E-10	47.50879	0.001951121	8.004125E-08	-3.415095E-06	9.204745E-07	-20	0	0	0	0	0	0	0	2.621433E-09	50	4.172325E-05	0	0	0	0	0	0	15.03508	0	0	0	0	0	0	0	-1.370441E-08	9.81	-5.847216E-07	50	2.8	0	-9.81	0	0	0	0	0	-9.81	0	0	0	0	9.81	0	-1	0	0	-1	-1.131212	18.89673	-13.42798	0.6112238	-66.07197	2.403179	0	-1	1	0	-9.81	0	0	0	0	0	-9.81	0	0	0	0	9.81	0	0	-9.81	0	0	0	0	0	-9.81	0	0	0	0	9.81	0
2.9	0.0004313736	-46.84718	-7.887586	0.00202093	1.866433E-08	-3.289591E-10	0.0004315658	-46.84718	-7.887583	0.00202093	1.866715E-08	-2.964933E-10	47.50655	0.00202093	8.004125E-08	-3.415095E-06	9.204745E-07	-20	0	0	0	0	0	0	0	2.621433E-09	50	4.321337E-05	0	0	0	0	0	0	15.03508	0	0	0	0	0	0	0	-1.370441E-08	9.81	-5.847216E-07	50	2.9	0	-9.81	0	0	0	0	0	-9.81	0	0	0	0	9.81	0	-1	0	0	-1	-1.119107	18.18513	-12.30307	0.5885452	-60.50206	2.497173	0	-1	1	0	-9.81	0	0	0	0	0	-9.81	0	0	0	0	9.81	0	0	-9.81	0	0	0	0	0	-9.81	0	0	0	0	9.81	0
3	-0.0007688274	-46.84727	-7.900747	0.002090743	-3.425651E-08	-3.289591E-10	-0.0007686351	-46.84727	-7.900744	0.002090743	-3.425359E-08	-2.953686E-10	47.50882	0.002090743	8.004125E-08	-3.415095E-06	9.204745E-07	-20	0	0	0	0	0	0	0	2.621433E-09	50	4.470348E-05	0	0	0	0	0	0	15.03508	0	0	0	0	0	0	0	-1.370441E-08	9.81	-5.847216E-07	50	3	0	-9.81	0	0	0	0	0	-9.81	0	0	0	0	9.81	0	-1	0	0	-1	-1.130989	18.90551	-13.43799	0.6115909	-66.11221	2.402048	0	-1	1	0	-9.81	0	0	0	0	0	-9.81	0	0	0	0	9.81	0	0	-9.81	0	0	0	0	0	-9.81	0	0	0	0	9.81	0
3.1	0.0003851184	-46.84547	-7.888621	0.002160472	1.781669E-08	-3.289035E-10	0.0003853106	-46.84547	-7.888618	0.002160472	1.781971E-08	-2.941959E-10	47.50504	0.002160472	8.004125E-08	-3.415095E-06	9.204745E-07	-20	0	0	0	0	0	0	0	2.621433E-09	50	4.61936E-05	0	0	0	0	0	0	15.03508	0	0	0	0	0	0	0	-1.370441E-08	9.81	-5.847216E-07	50	3.1	0	-9.81	0	0	0	0	0	-9.81	0	0	0	0	9.81	0	-1	0	0	-1	-1.118655	18.18164	-12.29295	0.5884283	-60.45268	2.497696	0	-1	1	0	-9.81	0	0	0	0	0	-9.81	0	0	0	0	9.81	0	0	-9.81	0	0	0	0	0	-9.81	0	0	0	0	9.81	0
3.2	-0.0007663692	-46.84903	-7.899443	0.002230445	-3.643077E-08	-3.289591E-10	-0.0007661768	-46.84903	-7.89944	0.002230445	-3.642766E-08	-2.931241E-10	47.51034	0.002230445	8.004125E-08	-3.415095E-06	9.204745E-07	-20	0	0	0	0	0	0	0	2.621433E-09	50	4.768372E-05	0	0	0	0	0	0	15.03508	0	0	0	0	0	0	0	-1.370441E-08	9.81	-5.847216E-07	50	3.2	0	-9.81	0	0	0	0	0	-9.81	0	0	0	0	9.81	0	-1	0	0	-1	-1.130783	18.91161	-13.4446	0.6118754	-66.1353	2.401239	0	-1	1	0	-9.81	0	0	0	0	0	-9.81	0	0	0	0	9.81	0	0	-9.81	0	0	0	0	0	-9.81	0	0	0	0	9.81	0
3.3	0.0003301634	-46.84578	-7.887988	0.002300094	1.626621E-08	-3.289035E-10	0.0003303555	-46.84578	-7.887985	0.002300094	1.626942E-08	-2.919528E-10	47.50523	0.002300094	8.004125E-08	-3.415095E-06	9.204745E-07	-20	0	0	0	0	0	0	0	2.621433E-09	50	4.917383E-05	0	0	0	0	0	0	15.03508	0	0	0	0	0	0	0	-1.370441E-08	9.81	-5.847216E-07	50	3.3	0	-9.81	0	0	0	0	0	-9.81	0	0	0	0	9.81	0	-1	0	0	-1	-1.118335	18.17832	-12.28512	0.5883203	-60.41426	2.498134	0	-1	1	0	-9.81	0	0	0	0	0	-9.81	0	0	0	0	9.81	0	0	-9.81	0	0	0	0	0	-9.81	0	0	0	0	9.81	0
3.4	-0.0007588721	-46.84693	-7.900762	0.002369958	-3.833547E-08	-3.289591E-10	-0.0007586798	-46.84693	-7.900759	0.002369958	-3.833216E-08	-2.908827E-10	47.5085	0.002369958	8.004125E-08	-3.415095E-06	9.204745E-07	-20	0	0	0	0	0	0	0	2.621433E-09	50	5.066395E-05	0	0	0	0	0	0	15.03508	0	0	0	0	0	0	0	-1.370441E-08	9.81	-5.847216E-07	50	3.4	0	-9.81	0	0	0	0	0	-9.81	0	0	0	0	9.81	0	-1	0	0	-1	-1.130679	18.91434	-13.44672	0.6120313	-66.13847	2.400939	0	-1	1	0	-9.81	0	0	0	0	0	-9.81	0	0	0	0	9.81	0	0	-9.81	0	0	0	0	0	-9.81	0	0	0	0	9.81	0
3.5	0.0002694504	-46.8478	-7.886807	0.002439814	1.408824E-08	-3.289313E-10	0.0002696425	-46.8478	-7.886804	0.002439814	1.409165E-08	-2.897358E-10	47.50703	0.002439814	8.004125E-08	-3.415095E-06	9.204745E-07	-20	0	0	0	0	0	0	0	2.621433E-09	50	5.215406E-05	0	0	0	0	0	0	15.03508	0	0	0	0	0	0	0	-1.370441E-08	9.81	-5.847216E-07	50	3.5	0	-9.81	0	0	0	0	0	-9.81	0	0	0	0	9.81	0	-1	0	0	-1	-1.118115	18.17521	-12.27887	0.5882198	-60.3835	2.498524	0	-1	1	0	-9.81	0	0	0	0	0	-9.81	0	0	0	0	9.81	0	0	-9.81	0	0	0	0	0	-9.81	0	0	0	0	9.81	0
3.6	-0.0007474063	-46.84725	-7.900166	0.00250959	-3.998285E-08	-3.289591E-10	-0.000747214	-46.84725	-7.900163	0.00250959	-3.997934E-08	-2.886393E-10	47.50871	0.00250959	8.004125E-08	-3.415095E-06	9.204745E-07	-20	0	0	0	0	0	0	0	2.621433E-09	50	5.364418E-05	0	0	0	0	0	0	15.03508	0	0	0	0	0	0	0	-1.370441E-08	9.81	-5.847216E-07	50	3.6	0	-9.81	0	0	0	0	0	-9.81	0	0	0	0	9.81	0	-1	0	0	-1	-1.130544	18.91471	-13.44584	0.6121271	-66.12506	2.400874	0	-1	1	0	-9.81	0	0	0	0	0	-9.81	0	0	0	0	9.81	0	0	-9.81	0	0	0	0	0	-9.81	0	0	0	0	9.81	0
3.7	0.000204473	-46.84541	-7.888264	0.002579298	1.131363E-08	-3.289591E-10	0.0002046651	-46.84541	-7.888261	0.002579298	1.131723E-08	-2.875225E-10	47.50491	0.002579298	8.004125E-08	-3.415095E-06	9.204745E-07	-20	0	0	0	0	0	0	0	2.621433E-09	50	5.51343E-05	0	0	0	0	0	0	15.03508	0	0	0	0	0	0	0	-1.370441E-08	9.81	-5.847216E-07	50	3.7	0	-9.81	0	0	0	0	0	-9.81	0	0	0	0	9.81	0	-1	0	0	-1	-1.118047	18.17209	-12.27342	0.5880967	-60.35898	2.499003	0	-1	1	0	-9.81	0	0	0	0	0	-9.81	0	0	0	0	9.81	0	0	-9.81	0	0	0	0	0	-9.81	0	0	0	0	9.81	0
3.8	-0.0007326334	-46.84897	-7.899313	0.002649303	-4.13749E-08	-3.289591E-10	-0.000732441	-46.84897	-7.89931	0.002649303	-4.13712E-08	-2.863947E-10	47.51026	0.002649303	8.004125E-08	-3.415095E-06	9.204745E-07	-20	0	0	0	0	0	0	0	2.621433E-09	50	5.662441E-05	0	0	0	0	0	0	15.03508	0	0	0	0	0	0	0	-1.370441E-08	9.81	-5.847216E-07	50	3.8	0	-9.81	0	0	0	0	0	-9.81	0	0	0	0	9.81	0	-1	0	0	-1	-1.130418	18.912	-13.44088	0.6121292	-66.09101	2.401182	0	-1	1	0	-9.81	0	0	0	0	0	-9.81	0	0	0	0	9.81	0	0	-9.81	0	0	0	0	0	-9.81	0	0	0	0	9.81	0
3.9	0.0001373987	-46.84618	-7.887515	0.002718952	8.030007E-09	-3.289313E-10	0.0001375909	-46.84618	-7.887512	0.002718952	8.033806E-09	-2.85251E-10	47.50555	0.002718952	8.004125E-08	-3.415095E-06	9.204745E-07	-20	0	0	0	0	0	0	0	2.621433E-09	50	5.811453E-05	0	0	0	0	0	0	15.03508	0	0	0	0	0	0	0	-1.370441E-08	9.81	-5.847216E-07	50	3.9	0	-9.81	0	0	0	0	0	-9.81	0	0	0	0	9.81	0	-1	0	0	-1	-1.117968	18.16969	-12.26951	0.5880156	-60.3401	2.499313	0	-1	1	0	-9.81	0	0	0	0	0	-9.81	0	0	0	0	9.81	0	0	-9.81	0	0	0	0	0	-9.81	0	0	0	0	9.81	0
4	-0.0007147499	-46.84663	-7.900546	0.002788787	-4.24937E-08	-3.289591E-10	-0.0007145575	-46.84663	-7.900543	0.002788787	-4.24898E-08	-2.841538E-10	47.50816	0.002788787	8.004125E-08	-3.415095E-06	9.204745E-07	-20	0	0	0	0	0	0	0	2.621433E-09	50	5.960464E-05	0	0	0	0	0	0	15.03508	0	0	0	0	0	0	0	-1.370441E-08	9.81	-5.847216E-07	50	4	0	-9.81	0	0	0	0	0	-9.81	0	0	0	0	9.81	0	-1	0	0	-1	-1.130387	18.90643	-13.43207	0.6120145	-66.04057	2.401938	0	-1	1	0	-9.81	0	0	0	0	0	-9.81	0	0	0	0	9.81	0	0	-9.81	0	0	0	0	0	-9.81	0	0	0	0	9.81	0
4.1	6.786737E-05	-46.84698	-7.887455	0.002858615	4.19666E-09	-3.289452E-10	6.805953E-05	-46.84698	-7.887452	0.002858615	4.200653E-09	-2.830209E-10	47.50634	0.002858615	8.004125E-08	-3.415095E-06	9.204745E-07	-20	0	0	0	0	0	0	0	2.621433E-09	50	6.109476E-05	0	0	0	0	0	0	15.03508	0	0	0	0	0	0	0	-1.370441E-08	9.81	-5.847216E-07	50	4.1	0	-9.81	0	0	0	0	0	-9.81	0	0	0	0	9.81	0	-1	0	0	-1	-1.117922	18.16713	-12.26572	0.5879361	-60.32111	2.499647	0	-1	1	0	-9.81	0	0	0	0	0	-9.81	0	0	0	0	9.81	0	0	-9.81	0	0	0	0	0	-9.81	0	0	0	0	9.81	0
4.2	-0.0006955741	-46.84742	-7.899711	0.002928449	-4.342515E-08	-3.289591E-10	-0.0006953817	-46.84742	-7.899708	0.002928449	-4.342106E-08	-2.8191E-10	47.5088	0.002928449	8.004125E-08	-3.415095E-06	9.204745E-07	-20	0	0	0	0	0	0	0	2.621433E-09	50	6.258488E-05	0	0	0	0	0	0	15.03508	0	0	0	0	0	0	0	-1.370441E-08	9.81	-5.847216E-07	50	4.2	0	-9.81	0	0	0	0	0	-9.81	0	0	0	0	9.81	0	-1	0	0	-1	-1.130316	18.89829	-13.41988	0.6118363	-65.97144	2.402952	0	-1	1	0	-9.81	0	0	0	0	0	-9.81	0	0	0	0	9.81	0	0	-9.81	0	0	0	0	0	-9.81	0	0	0	0	9.81	0
4.3	-2.866259E-06	-46.84562	-7.888111	0.002998138	-1.280552E-10	-3.289296E-10	-2.674091E-06	-46.84562	-7.888108	0.002998138	-1.238669E-10	-2.807636E-10	47.50509	0.002998138	8.004125E-08	-3.415095E-06	9.204745E-07	-20	0	0	0	0	0	0	0	2.621433E-09	50	6.407499E-05	0	0	0	0	0	0	15.03508	0	0	0	0	0	0	0	-1.370441E-08	9.81	-5.847216E-07	50	4.3	0	-9.81	0	0	0	0	0	-9.81	0	0	0	0	9.81	0	-1	0	0	-1	-1.117945	18.16514	-12.26294	0.5878643	-60.30817	2.499956	0	-1	1	0	-9.81	0	0	0	0	0	-9.81	0	0	0	0	9.81	0	0	-9.81	0	0	0	0	0	-9.81	0	0	0	0	9.81	0
4.4	-0.0006745245	-46.84653	-7.900658	0.003068009	-4.411957E-08	-3.289591E-10	-0.0006743321	-46.84653	-7.900655	0.003068009	-4.411528E-08	-2.796679E-10	47.50808	0.003068009	8.004125E-08	-3.415095E-06	9.204745E-07	-20	0	0	0	0	0	0	0	2.621433E-09	50	6.556511E-05	0	0	0	0	0	0	15.03508	0	0	0	0	0	0	0	-1.370441E-08	9.81	-5.847216E-07	50	4.4	0	-9.81	0	0	0	0	0	-9.81	0	0	0	0	9.81	0	-1	0	0	-1	-1.130309	18.88685	-13.40322	0.6115374	-65.88185	2.404438	0	-1	1	0	-9.81	0	0	0	0	0	-9.81	0	0	0	0	9.81	0	0	-9.81	0	0	0	0	0	-9.81	0	0	0	0	9.81	0
4.5	-7.535292E-05	-46.84667	-7.887194	0.003137822	-4.991812E-09	-3.289382E-10	-7.516077E-05	-46.84667	-7.887191	0.003137822	-4.987429E-09	-2.785278E-10	47.50598	0.003137822	8.004125E-08	-3.415095E-06	9.204745E-07	-20	0	0	0	0	0	0	0	2.621433E-09	50	6.705523E-05	0	0	0	0	0	0	15.03508	0	0	0	0	0	0	0	-1.370441E-08	9.81	-5.847216E-07	50	4.5	0	-9.81	0	0	0	0	0	-9.81	0	0	0	0	9.81	0	-1	0	0	-1	-1.117929	18.16301	-12.26013	0.5878128	-60.29261	2.500225	0	-1	1	0	-9.81	0	0	0	0	0	-9.81	0	0	0	0	9.81	0	0	-9.81	0	0	0	0	0	-9.81	0	0	0	0	9.81	0
4.6	-0.0006526275	-46.84667	-7.900352	0.003207631	-4.463049E-08	-3.289591E-10	-0.0006524351	-46.84667	-7.900349	0.003207631	-4.462601E-08	-2.774248E-10	47.50817	0.003207631	8.004125E-08	-3.415095E-06	9.204745E-07	-20	0	0	0	0	0	0	0	2.621433E-09	50	6.854534E-05	0	0	0	0	0	0	15.03508	0	0	0	0	0	0	0	-1.370441E-08	9.81	-5.847216E-07	50	4.6	0	-9.81	0	0	0	0	0	-9.81	0	0	0	0	9.81	0	-1	0	0	-1	-1.130283	18.87295	-13.38333	0.6111698	-65.77518	2.406196	0	-1	1	0	-9.81	0	0	0	0	0	-9.81	0	0	0	0	9.81	0	0	-9.81	0	0	0	0	0	-9.81	0	0	0	0	9.81	0
4.7	-0.0001493604	-46.84559	-7.888305	0.00327736	-1.0394E-08	-3.289313E-10	-0.0001491682	-46.84559	-7.888302	0.00327736	-1.038943E-08	-2.762789E-10	47.5051	0.00327736	8.004125E-08	-3.415095E-06	9.204745E-07	-20	0	0	0	0	0	0	0	2.621433E-09	50	7.003546E-05	0	0	0	0	0	0	15.03508	0	0	0	0	0	0	0	-1.370441E-08	9.81	-5.847216E-07	50	4.7	0	-9.81	0	0	0	0	0	-9.81	0	0	0	0	9.81	0	-1	0	0	-1	-1.117952	18.16003	-12.25601	0.5877341	-60.27052	2.500671	0	-1	1	0	-9.81	0	0	0	0	0	-9.81	0	0	0	0	9.81	0	0	-9.81	0	0	0	0	0	-9.81	0	0	0	0	9.81	0
4.8	-0.000630734	-46.84791	-7.899391	0.003347333	-4.501116E-08	-3.289035E-10	-0.0006305416	-46.84791	-7.899388	0.003347333	-4.500648E-08	-2.751249E-10	47.50923	0.003347333	8.004125E-08	-3.415095E-06	9.204745E-07	-20	0	0	0	0	0	0	0	2.621433E-09	50	7.152557E-05	0	0	0	0	0	0	15.03508	0	0	0	0	0	0	0	-1.370441E-08	9.81	-5.847216E-07	50	4.8	0	-9.81	0	0	0	0	0	-9.81	0	0	0	0	9.81	0	-1	0	0	-1	-1.130263	18.85626	-13.35973	0.6107162	-65.64988	2.408299	0	-1	1	0	-9.81	0	0	0	0	0	-9.81	0	0	0	0	9.81	0	0	-9.81	0	0	0	0	0	-9.81	0	0	0	0	9.81	0
4.9	-0.0002252951	-46.84578	-7.888014	0.003416986	-1.63779E-08	-3.289313E-10	-0.0002251029	-46.84578	-7.888011	0.003416986	-1.637313E-08	-2.740354E-10	47.50524	0.003416986	8.004125E-08	-3.415095E-06	9.204745E-07	-20	0	0	0	0	0	0	0	2.621433E-09	50	7.301569E-05	0	0	0	0	0	0	15.03508	0	0	0	0	0	0	0	-1.370441E-08	9.81	-5.847216E-07	50	4.9	0	-9.81	0	0	0	0	0	-9.81	0	0	0	0	9.81	0	-1	0	0	-1	-1.117948	18.15641	-12.25123	0.5876591	-60.24271	2.501154	0	-1	1	0	-9.81	0	0	0	0	0	-9.81	0	0	0	0	9.81	0	0	-9.81	0	0	0	0	0	-9.81	0	0	0	0	9.81	0
5	-0.0006089588	-46.84659	-7.900672	0.00348685	-4.527014E-08	-3.289591E-10	-0.0006087664	-46.84659	-7.90067	0.00348685	-4.526527E-08	-2.72939E-10	47.50814	0.00348685	8.004125E-08	-3.415095E-06	9.204745E-07	-20	0	0	0	0	0	0	0	2.621433E-09	50	7.450581E-05	0	0	0	0	0	0	15.03508	0	0	0	0	0	0	0	-1.370441E-08	9.81	-5.847216E-07	50	5	0	-9.81	0	0	0	0	0	-9.81	0	0	0	0	9.81	0	-1	0	0	-1	-1.130319	18.83635	-13.33178	0.6101408	-65.50509	2.410882	0	-1	1	0	-9.81	0	0	0	0	0	-9.81	0	0	0	0	9.81	0	0	-9.81	0	0	0	0	0	-9.81	0	0	0	0	9.81	0
5.1	-0.0003017403	-46.84732	-7.886926	0.003556713	-2.285318E-08	-3.289313E-10	-0.0003015482	-46.84732	-7.886923	0.003556713	-2.284821E-08	-2.717902E-10	47.50658	0.003556713	8.004125E-08	-3.415095E-06	9.204745E-07	-20	0	0	0	0	0	0	0	2.621433E-09	50	7.599592E-05	0	0	0	0	0	0	15.03508	0	0	0	0	0	0	0	-1.370441E-08	9.81	-5.847216E-07	50	5.1	0	-9.81	0	0	0	0	0	-9.81	0	0	0	0	9.81	0	-1	0	0	-1	-1.117953	18.15149	-12.24495	0.5875603	-60.20558	2.501801	0	-1	1	0	-9.81	0	0	0	0	0	-9.81	0	0	0	0	9.81	0	0	-9.81	0	0	0	0	0	-9.81	0	0	0	0	9.81	0
5.2	-0.0005884719	-46.84684	-7.900337	0.003626486	-4.549905E-08	-3.289591E-10	-0.0005882796	-46.84684	-7.900334	0.003626486	-4.549398E-08	-2.706957E-10	47.50834	0.003626486	8.004125E-08	-3.415095E-06	9.204745E-07	-20	0	0	0	0	0	0	0	2.621433E-09	50	7.748604E-05	0	0	0	0	0	0	15.03508	0	0	0	0	0	0	0	-1.370441E-08	9.81	-5.847216E-07	50	5.2	0	-9.81	0	0	0	0	0	-9.81	0	0	0	0	9.81	0	-1	0	0	-1	-1.130349	18.81393	-13.30059	0.6094975	-65.34296	2.413739	0	-1	1	0	-9.81	0	0	0	0	0	-9.81	0	0	0	0	9.81	0	0	-9.81	0	0	0	0	0	-9.81	0	0	0	0	9.81	0
5.3	-0.0003774153	-46.8457	-7.888394	0.003696204	-2.97233E-08	-3.289591E-10	-0.0003772232	-46.8457	-7.888391	0.003696204	-2.971814E-08	-2.695766E-10	47.50522	0.003696204	8.004125E-08	-3.415095E-06	9.204745E-07	-20	0	0	0	0	0	0	0	2.621433E-09	50	7.897615E-05	0	0	0	0	0	0	15.03508	0	0	0	0	0	0	0	-1.370441E-08	9.81	-5.847216E-07	50	5.3	0	-9.81	0	0	0	0	0	-9.81	0	0	0	0	9.81	0	-1	0	0	-1	-1.118055	18.14412	-12.2357	0.5873823	-60.15396	2.50286	0	-1	1	0	-9.81	0	0	0	0	0	-9.81	0	0	0	0	9.81	0	0	-9.81	0	0	0	0	0	-9.81	0	0	0	0	9.81	0
5.4	-0.0005696723	-46.8487	-7.899264	0.003766246	-4.574149E-08	-3.289035E-10	-0.0005694799	-46.8487	-7.899261	0.003766246	-4.573623E-08	-2.683949E-10	47.50999	0.003766246	8.004125E-08	-3.415095E-06	9.204745E-07	-20	0	0	0	0	0	0	0	2.621433E-09	50	8.046627E-05	0	0	0	0	0	0	15.03508	0	0	0	0	0	0	0	-1.370441E-08	9.81	-5.847216E-07	50	5.4	0	-9.81	0	0	0	0	0	-9.81	0	0	0	0	9.81	0	-1	0	0	-1	-1.130383	18.78891	-13.266	0.6087729	-65.16379	2.416921	0	-1	1	0	-9.81	0	0	0	0	0	-9.81	0	0	0	0	9.81	0	0	-9.81	0	0	0	0	0	-9.81	0	0	0	0	9.81	0
5.5	-0.0004494652	-46.84599	-7.888163	0.003835837	-3.674766E-08	-3.289035E-10	-0.000449273	-46.84599	-7.88816	0.003835837	-3.67423E-08	-2.672774E-10	47.50547	0.003835837	8.004125E-08	-3.415095E-06	9.204745E-07	-20	0	0	0	0	0	0	0	2.621433E-09	50	8.195639E-05	0	0	0	0	0	0	15.03508	0	0	0	0	0	0	0	-1.370441E-08	9.81	-5.847216E-07	50	5.5	0	-9.81	0	0	0	0	0	-9.81	0	0	0	0	9.81	0	-1	0	0	-1	-1.118157	18.1346	-12.22416	0.5871662	-60.08778	2.504157	0	-1	1	0	-9.81	0	0	0	0	0	-9.81	0	0	0	0	9.81	0	0	-9.81	0	0	0	0	0	-9.81	0	0	0	0	9.81	0
5.6	-0.0005531219	-46.84678	-7.900814	0.003905708	-4.605941E-08	-3.289591E-10	-0.0005529295	-46.84678	-7.900811	0.003905708	-4.605395E-08	-2.662099E-10	47.50836	0.003905708	8.004125E-08	-3.415095E-06	9.204745E-07	-20	0	0	0	0	0	0	0	2.621433E-09	50	8.34465E-05	0	0	0	0	0	0	15.03508	0	0	0	0	0	0	0	-1.370441E-08	9.81	-5.847216E-07	50	5.6	0	-9.81	0	0	0	0	0	-9.81	0	0	0	0	9.81	0	-1	0	0	-1	-1.130511	18.76059	-13.22702	0.6079223	-64.96514	2.420617	0	-1	1	0	-9.81	0	0	0	0	0	-9.81	0	0	0	0	9.81	0	0	-9.81	0	0	0	0	0	-9.81	0	0	0	0	9.81	0
5.7	-0.0005158875	-46.84802	-7.887381	0.003975623	-4.372396E-08	-3.289591E-10	-0.0005156954	-46.84802	-7.887378	0.003975623	-4.371841E-08	-2.650868E-10	47.50734	0.003975623	8.004125E-08	-3.415095E-06	9.204745E-07	-20	0	0	0	0	0	0	0	2.621433E-09	50	8.493662E-05	0	0	0	0	0	0	15.03508	0	0	0	0	0	0	0	-1.370441E-08	9.81	-5.847216E-07	50	5.7	0	-9.81	0	0	0	0	0	-9.81	0	0	0	0	9.81	0	-1	0	0	-1	-1.118325	18.12192	-12.20926	0.5868711	-60.00271	2.505872	0	-1	1	0	-9.81	0	0	0	0	0	-9.81	0	0	0	0	9.81	0	0	-9.81	0	0	0	0	0	-9.81	0	0	0	0	9.81	0
5.8	-0.0005398193	-46.8472	-7.900442	0.004045359	-4.655914E-08	-3.289591E-10	-0.0005396269	-46.8472	-7.900439	0.004045359	-4.655349E-08	-2.639663E-10	47.50871	0.004045359	8.004125E-08	-3.415095E-06	9.204745E-07	-20	0	0	0	0	0	0	0	2.621433E-09	50	8.642673E-05	0	0	0	0	0	0	15.03508	0	0	0	0	0	0	0	-1.370441E-08	9.81	-5.847216E-07	50	5.8	0	-9.81	0	0	0	0	0	-9.81	0	0	0	0	9.81	0	-1	0	0	-1	-1.130607	18.72986	-13.18505	0.6070089	-64.75025	2.424568	0	-1	1	0	-9.81	0	0	0	0	0	-9.81	0	0	0	0	9.81	0	0	-9.81	0	0	0	0	0	-9.81	0	0	0	0	9.81	0
5.9	-0.0005708284	-46.84569	-7.88943	0.004115034	-5.008751E-08	-3.289591E-10	-0.0005706362	-46.84569	-7.889427	0.004115034	-5.008177E-08	-2.628467E-10	47.50539	0.004115034	8.004125E-08	-3.415095E-06	9.204745E-07	-20	0	0	0	0	0	0	0	2.621433E-09	50	8.791685E-05	0	0	0	0	0	0	15.03508	0	0	0	0	0	0	0	-1.370441E-08	9.81	-5.847216E-07	50	5.9	0	-9.81	0	0	0	0	0	-9.81	0	0	0	0	9.81	0	-1	0	0	-1	-1.118704	18.10498	-12.19009	0.5864323	-59.89728	2.508266	0	-1	1	0	-9.81	0	0	0	0	0	-9.81	0	0	0	0	9.81	0	0	-9.81	0	0	0	0	0	-9.81	0	0	0	0	9.81	0
6	-0.0005298819	-46.84912	-7.899786	0.004185145	-4.728021E-08	-3.289591E-10	-0.0005296895	-46.84912	-7.899783	0.004185145	-4.727436E-08	-2.617206E-10	47.51049	0.004185145	8.004125E-08	-3.415095E-06	9.204745E-07	-20	0	0	0	0	0	0	0	2.621433E-09	50	8.940697E-05	0	0	0	0	0	0	15.03508	0	0	0	0	0	0	0	-1.370441E-08	9.81	-5.847216E-07	50	6	0	-9.81	0	0	0	0	0	-9.81	0	0	0	0	9.81	0	-1	0	0	-1	-1.130716	18.69641	-13.13964	0.6060126	-64.51788	2.428872	0	-1	1	0	-9.81	0	0	0	0	0	-9.81	0	0	0	0	9.81	0	0	-9.81	0	0	0	0	0	-9.81	0	0	0	0	9.81	0
6.1	-0.0006061826	-46.84654	-7.889608	0.004254718	-5.499967E-08	-3.289035E-10	-0.0006059904	-46.84654	-7.889606	0.004254718	-5.499372E-08	-2.605469E-10	47.50625	0.004254718	8.004125E-08	-3.415095E-06	9.204745E-07	-20	0	0	0	0	0	0	0	2.621433E-09	50	9.089708E-05	0	0	0	0	0	0	15.03508	0	0	0	0	0	0	0	-1.370441E-08	9.81	-5.847216E-07	50	6.1	0	-9.81	0	0	0	0	0	-9.81	0	0	0	0	9.81	0	-1	0	0	-1	-1.119244	18.08405	-12.16798	0.5858887	-59.77497	2.511149	0	-1	1	0	-9.81	0	0	0	0	0	-9.81	0	0	0	0	9.81	0	0	-9.81	0	0	0	0	0	-9.81	0	0	0	0	9.81	0
6.2	-0.000524589	-46.84686	-7.901343	0.00432456	-4.837078E-08	-3.289591E-10	-0.0005243967	-46.84686	-7.90134	0.00432456	-4.836474E-08	-2.594808E-10	47.50852	0.00432456	8.004125E-08	-3.415095E-06	9.204745E-07	-20	0	0	0	0	0	0	0	2.621433E-09	50	9.23872E-05	0	0	0	0	0	0	15.03508	0	0	0	0	0	0	0	-1.370441E-08	9.81	-5.847216E-07	50	6.2	0	-9.81	0	0	0	0	0	-9.81	0	0	0	0	9.81	0	-1	0	0	-1	-1.130932	18.66002	-13.09053	0.6048977	-64.26987	2.433656	0	-1	1	0	-9.81	0	0	0	0	0	-9.81	0	0	0	0	9.81	0	0	-9.81	0	0	0	0	0	-9.81	0	0	0	0	9.81	0
6.3	-0.0006071717	-46.84786	-7.890823	0.004394456	-5.689904E-08	-3.290146E-10	-0.0006069795	-46.84786	-7.89082	0.004394456	-5.68929E-08	-2.584129E-10	47.50776	0.004394456	8.004125E-08	-3.415095E-06	9.204745E-07	-20	0	0	0	0	0	0	0	2.621433E-09	50	9.387732E-05	0	0	0	0	0	0	15.03508	0	0	0	0	0	0	0	-1.370441E-08	9.81	-5.847216E-07	50	6.3	0	-9.81	0	0	0	0	0	-9.81	0	0	0	0	9.81	0	-1	0	0	-1	-1.120146	18.05816	-12.14316	0.5851789	-59.63986	2.514728	0	-1	1	0	-9.81	0	0	0	0	0	-9.81	0	0	0	0	9.81	0	0	-9.81	0	0	0	0	0	-9.81	0	0	0	0	9.81	0
6.4	-0.0005248159	-46.84779	-7.900777	0.004464265	-4.995579E-08	-3.289591E-10	-0.0005246235	-46.84779	-7.900774	0.004464265	-4.994955E-08	-2.572363E-10	47.50934	0.004464265	8.004125E-08	-3.415095E-06	9.204745E-07	-20	0	0	0	0	0	0	0	2.621433E-09	50	9.536743E-05	0	0	0	0	0	0	15.03508	0	0	0	0	0	0	0	-1.370441E-08	9.81	-5.847216E-07	50	6.4	0	-9.81	0	0	0	0	0	-9.81	0	0	0	0	9.81	0	-1	0	0	-1	-1.131124	18.62125	-13.03861	0.6037216	-64.00643	2.438703	0	-1	1	0	-9.81	0	0	0	0	0	-9.81	0	0	0	0	9.81	0	0	-9.81	0	0	0	0	0	-9.81	0	0	0	0	9.81	0
6.5	-0.0005474862	-46.84679	-7.894049	0.004533973	-5.293196E-08	-3.289591E-10	-0.0005472939	-46.84679	-7.894046	0.004533973	-5.292563E-08	-2.561162E-10	47.50724	0.004533973	8.004125E-08	-3.415095E-06	9.204745E-07	-20	0	0	0	0	0	0	0	2.621433E-09	50	9.685755E-05	0	0	0	0	0	0	15.03508	0	0	0	0	0	0	0	-1.370441E-08	9.81	-5.847216E-07	50	6.5	0	-9.81	0	0	0	0	0	-9.81	0	0	0	0	9.81	0	-1	0	0	-1	-1.12173	18.02837	-12.11987	0.5842863	-59.51804	2.518922	0	-1	1	0	-9.81	0	0	0	0	0	-9.81	0	0	0	0	9.81	0	0	-9.81	0	0	0	0	0	-9.81	0	0	0	0	9.81	0
6.6	-0.0005313332	-46.84705	-7.902021	0.004603807	-5.216036E-08	-3.289591E-10	-0.0005311408	-46.84705	-7.902018	0.004603807	-5.215393E-08	-2.549944E-10	47.50882	0.004603807	8.004125E-08	-3.415095E-06	9.204745E-07	-20	0	0	0	0	0	0	0	2.621433E-09	50	9.834766E-05	0	0	0	0	0	0	15.03508	0	0	0	0	0	0	0	-1.370441E-08	9.81	-5.847216E-07	50	6.6	0	-9.81	0	0	0	0	0	-9.81	0	0	0	0	9.81	0	-1	0	0	-1	-1.131433	18.57992	-12.98332	0.6024314	-63.72972	2.444224	0	-1	1	0	-9.81	0	0	0	0	0	-9.81	0	0	0	0	9.81	0	0	-9.81	0	0	0	0	0	-9.81	0	0	0	0	9.81	0
6.7	-0.0003824113	-46.84873	-7.897223	0.00467378	-3.809515E-08	-3.289035E-10	-0.0003822189	-46.84873	-7.89722	0.00467378	-3.808862E-08	-2.538155E-10	47.50968	0.00467378	8.004125E-08	-3.415095E-06	9.204745E-07	-20	0	0	0	0	0	0	0	2.621433E-09	50	9.983778E-05	0	0	0	0	0	0	15.03508	0	0	0	0	0	0	0	-1.370441E-08	9.81	-5.847216E-07	50	6.7	0	-9.81	0	0	0	0	0	-9.81	0	0	0	0	9.81	0	-1	0	0	-1	-1.124317	17.99585	-12.10427	0.5832291	-59.44176	2.52345	0	-1	1	0	-9.81	0	0	0	0	0	-9.81	0	0	0	0	9.81	0	0	-9.81	0	0	0	0	0	-9.81	0	0	0	0	9.81	0
6.8	-0.0005448264	-46.84733	-7.902111	0.004743451	-5.511005E-08	-3.289591E-10	-0.0005446341	-46.84733	-7.902108	0.004743451	-5.510343E-08	-2.527508E-10	47.50911	0.004743451	8.004125E-08	-3.415095E-06	9.204745E-07	-20	0	0	0	0	0	0	0	2.621433E-09	50	0.0001013279	0	0	0	0	0	0	15.03508	0	0	0	0	0	0	0	-1.370441E-08	9.81	-5.847216E-07	50	6.8	0	-9.81	0	0	0	0	0	-9.81	0	0	0	0	9.81	0	-1	0	0	-1	-1.131695	18.53531	-12.92488	0.601082	-63.43262	2.450027	0	-1	1	0	-9.81	0	0	0	0	0	-9.81	0	0	0	0	9.81	0	0	-9.81	0	0	0	0	0	-9.81	0	0	0	0	9.81	0
6.9	-5.094431E-05	-46.84924	-7.9048	0.004813453	-5.178692E-09	-3.289521E-10	-5.075187E-05	-46.84924	-7.904797	0.004813453	-5.171968E-09	-2.516222E-10	47.51144	0.004813453	8.004125E-08	-3.415095E-06	9.204745E-07	-20	0	0	0	0	0	0	0	2.621433E-09	50	0.000102818	0	0	0	0	0	0	15.03508	0	0	0	0	0	0	0	-1.370441E-08	9.81	-5.847216E-07	50	6.9	0	-9.81	0	0	0	0	0	-9.81	0	0	0	0	9.81	0	-1	0	0	-1	-1.128696	17.96373	-12.10774	0.5819923	-59.47884	2.527997	0	-1	1	0	-9.81	0	0	0	0	0	-9.81	0	0	0	0	9.81	0	0	-9.81	0	0	0	0	0	-9.81	0	0	0	0	9.81	0
7	-0.0005664383	-46.84873	-7.901544	0.004883212	-5.898648E-08	-3.289591E-10	-0.0005662459	-46.84873	-7.901541	0.004883212	-5.897966E-08	-2.505052E-10	47.5104	0.004883212	8.004125E-08	-3.415095E-06	9.204745E-07	-20	0	0	0	0	0	0	0	2.621433E-09	50	0.0001043081	0	0	0	0	0	0	15.03508	0	0	0	0	0	0	0	-1.370441E-08	9.81	-5.847216E-07	50	7	0	-9.81	0	0	0	0	0	-9.81	0	0	0	0	9.81	0	-1	0	0	-1	-1.132036	18.48876	-12.86419	0.5996522	-63.12639	2.45617	0	-1	1	0	-9.81	0	0	0	0	0	-9.81	0	0	0	0	9.81	0	0	-9.81	0	0	0	0	0	-9.81	0	0	0	0	9.81	0
7.1	0.0004895304	-46.85171	-7.913726	0.004953337	5.181054E-08	-3.289591E-10	0.0004897231	-46.85171	-7.913723	0.004953337	5.181746E-08	-2.493852E-10	47.51536	0.004953337	8.004125E-08	-3.415095E-06	9.204745E-07	-20	0	0	0	0	0	0	0	2.621433E-09	50	0.0001057982	0	0	0	0	0	0	15.03508	0	0	0	0	0	0	0	-1.370441E-08	9.81	-5.847216E-07	50	7.1	0	-9.81	0	0	0	0	0	-9.81	0	0	0	0	9.81	0	-1	0	0	-1	-1.13558	17.93921	-12.14849	0.5807259	-59.72754	2.531438	0	-1	1	0	-9.81	0	0	0	0	0	-9.81	0	0	0	0	9.81	0	0	-9.81	0	0	0	0	0	-9.81	0	0	0	0	9.81	0
7.2	-0.0005973795	-46.84762	-7.903235	0.005022713	-6.399186E-08	-3.289591E-10	-0.0005971871	-46.84762	-7.903233	0.005022713	-6.398484E-08	-2.482638E-10	47.50958	0.005022713	8.004125E-08	-3.415095E-06	9.204745E-07	-20	0	0	0	0	0	0	0	2.621433E-09	50	0.0001072884	0	0	0	0	0	0	15.03508	0	0	0	0	0	0	0	-1.370441E-08	9.81	-5.847216E-07	50	7.2	0	-9.81	0	0	0	0	0	-9.81	0	0	0	0	9.81	0	-1	0	0	-1	-1.132506	18.43927	-12.80033	0.5981083	-62.80661	2.4628	0	-1	1	0	-9.81	0	0	0	0	0	-9.81	0	0	0	0	9.81	0	0	-9.81	0	0	0	0	0	-9.81	0	0	0	0	9.81	0
7.3	0.001156364	-46.85581	-7.923002	0.00509341	1.25757E-07	-3.289591E-10	0.001156557	-46.85581	-7.922999	0.00509341	1.257641E-07	-2.471393E-10	47.52095	0.00509341	8.004125E-08	-3.415095E-06	9.204745E-07	-20	0	0	0	0	0	0	0	2.621433E-09	50	0.0001087785	0	0	0	0	0	0	15.03508	0	0	0	0	0	0	0	-1.370441E-08	9.81	-5.847216E-07	50	7.3	0	-9.81	0	0	0	0	0	-9.81	0	0	0	0	9.81	0	-1	0	0	-1	-1.145115	17.93274	-12.24196	0.5797164	-60.27013	2.53232	0	-1	1	0	-9.81	0	0	0	0	0	-9.81	0	0	0	0	9.81	0	0	-9.81	0	0	0	0	0	-9.81	0	0	0	0	9.81	0
7.4	-0.0006394419	-46.84806	-7.903504	0.005162379	-7.040723E-08	-3.289591E-10	-0.0006392495	-46.84806	-7.903501	0.005162379	-7.040002E-08	-2.460196E-10	47.51007	0.005162379	8.004125E-08	-3.415095E-06	9.204745E-07	-20	0	0	0	0	0	0	0	2.621433E-09	50	0.0001102686	0	0	0	0	0	0	15.03508	0	0	0	0	0	0	0	-1.370441E-08	9.81	-5.847216E-07	50	7.4	0	-9.81	0	0	0	0	0	-9.81	0	0	0	0	9.81	0	-1	0	0	-1	-1.133022	18.38772	-12.73483	0.5965072	-62.47776	2.469688	0	-1	1	0	-9.81	0	0	0	0	0	-9.81	0	0	0	0	9.81	0	0	-9.81	0	0	0	0	0	-9.81	0	0	0	0	9.81	0
7.5	0.001699391	-46.8562	-7.93195	0.005233098	1.898509E-07	-3.290701E-10	0.001699584	-46.8562	-7.931947	0.005233098	1.898582E-07	-2.450101E-10	47.52283	0.005233098	8.004125E-08	-3.415095E-06	9.204745E-07	-20	0	0	0	0	0	0	0	2.621433E-09	50	0.0001117587	0	0	0	0	0	0	15.03508	0	0	0	0	0	0	0	-1.370441E-08	9.81	-5.847216E-07	50	7.5	0	-9.81	0	0	0	0	0	-9.81	0	0	0	0	9.81	0	-1	0	0	-1	-1.155386	17.95545	-12.38265	0.5794718	-61.06573	2.52916	0	-1	1	0	-9.81	0	0	0	0	0	-9.81	0	0	0	0	9.81	0	0	-9.81	0	0	0	0	0	-9.81	0	0	0	0	9.81	0
7.6	-0.0006942672	-46.85009	-7.903101	0.00530223	-7.851774E-08	-3.289591E-10	-0.0006940747	-46.85009	-7.903099	0.00530223	-7.851034E-08	-2.437724E-10	47.512	0.00530223	8.004125E-08	-3.415095E-06	9.204745E-07	-20	0	0	0	0	0	0	0	2.621433E-09	50	0.0001132488	0	0	0	0	0	0	15.03508	0	0	0	0	0	0	0	-1.370441E-08	9.81	-5.847216E-07	50	7.6	0	-9.81	0	0	0	0	0	-9.81	0	0	0	0	9.81	0	-1	0	0	-1	-1.133631	18.33408	-12.66778	0.5948349	-62.14173	2.476881	0	-1	1	0	-9.81	0	0	0	0	0	-9.81	0	0	0	0	9.81	0	0	-9.81	0	0	0	0	0	-9.81	0	0	0	0	9.81	0
7.7	0.001896324	-46.8571	-7.933693	0.005372843	2.174967E-07	-3.290701E-10	0.001896517	-46.8571	-7.933691	0.005372843	2.175042E-07	-2.427666E-10	47.52401	0.005372843	8.004125E-08	-3.415095E-06	9.204745E-07	-20	0	0	0	0	0	0	0	2.621433E-09	50	0.0001147389	0	0	0	0	0	0	15.03508	0	0	0	0	0	0	0	-1.370441E-08	9.81	-5.847216E-07	50	7.7	0	-9.81	0	0	0	0	0	-9.81	0	0	0	0	9.81	0	-1	0	0	-1	-1.162329	18.01313	-12.5374	0.5805852	-61.90858	2.521044	0	-1	1	0	-9.81	0	0	0	0	0	-9.81	0	0	0	0	9.81	0	0	-9.81	0	0	0	0	0	-9.81	0	0	0	0	9.81	0
7.8	-0.0007638339	-46.84849	-7.905456	0.005441663	-8.866729E-08	-3.289591E-10	-0.0007636415	-46.84849	-7.905453	0.005441663	-8.865969E-08	-2.415318E-10	47.51081	0.005441663	8.004125E-08	-3.415095E-06	9.204745E-07	-20	0	0	0	0	0	0	0	2.621433E-09	50	0.0001162291	0	0	0	0	0	0	15.03508	0	0	0	0	0	0	0	-1.370441E-08	9.81	-5.847216E-07	50	7.8	0	-9.81	0	0	0	0	0	-9.81	0	0	0	0	9.81	0	-1	0	0	-1	-1.134449	18.27801	-12.59902	0.5930539	-61.80046	2.484526	0	-1	1	0	-9.81	0	0	0	0	0	-9.81	0	0	0	0	9.81	0	0	-9.81	0	0	0	0	0	-9.81	0	0	0	0	9.81	0
7.9	0.001762549	-46.85849	-7.930088	0.005512651	2.074102E-07	-3.28848E-10	0.001762741	-46.85849	-7.930085	0.005512651	2.074179E-07	-2.402979E-10	47.52477	0.005512651	8.004125E-08	-3.415095E-06	9.204745E-07	-20	0	0	0	0	0	0	0	2.621433E-09	50	0.0001177192	0	0	0	0	0	0	15.03508	0	0	0	0	0	0	0	-1.370441E-08	9.81	-5.847216E-07	50	7.9	0	-9.81	0	0	0	0	0	-9.81	0	0	0	0	9.81	0	-1	0	0	-1	-1.163684	18.09704	-12.6696	0.5830063	-62.59181	2.509317	0	-1	1	0	-9.81	0	0	0	0	0	-9.81	0	0	0	0	9.81	0	0	-9.81	0	0	0	0	0	-9.81	0	0	0	0	9.81	0
8	-0.0008514016	-46.8492	-7.906141	0.005581365	-1.01376E-07	-3.290701E-10	-0.0008512092	-46.8492	-7.906138	0.005581365	-1.013682E-07	-2.393977E-10	47.51162	0.005581365	8.004125E-08	-3.415095E-06	9.204745E-07	-20	0	0	0	0	0	0	0	2.621433E-09	50	0.0001192093	0	0	0	0	0	0	15.03508	0	0	0	0	0	0	0	-1.370441E-08	9.81	-5.847216E-07	50	8	0	-9.81	0	0	0	0	0	-9.81	0	0	0	0	9.81	0	-1	0	0	-1	-1.13539	18.22073	-12.53076	0.5912357	-61.46139	2.492318	0	-1	1	0	-9.81	0	0	0	0	0	-9.81	0	0	0	0	9.81	0	0	-9.81	0	0	0	0	0	-9.81	0	0	0	0	9.81	0
8.1	0.001454272	-46.85493	-7.927092	0.005651873	1.754771E-07	-3.290701E-10	0.001454465	-46.85493	-7.927089	0.005651873	1.75485E-07	-2.382815E-10	47.52077	0.005651873	8.004125E-08	-3.415095E-06	9.204745E-07	-20	0	0	0	0	0	0	0	2.621433E-09	50	0.0001206994	0	0	0	0	0	0	15.03508	0	0	0	0	0	0	0	-1.370441E-08	9.81	-5.847216E-07	50	8.1	0	-9.81	0	0	0	0	0	-9.81	0	0	0	0	9.81	0	-1	0	0	-1	-1.160803	18.1906	-12.76872	0.5860961	-63.07331	2.496463	0	-1	1	0	-9.81	0	0	0	0	0	-9.81	0	0	0	0	9.81	0	0	-9.81	0	0	0	0	0	-9.81	0	0	0	0	9.81	0
8.2	-0.0009614021	-46.85151	-7.906693	0.005721271	-1.173462E-07	-3.290701E-10	-0.0009612096	-46.85151	-7.90669	0.005721271	-1.173382E-07	-2.371491E-10	47.514	0.005721271	8.004125E-08	-3.415095E-06	9.204745E-07	-20	0	0	0	0	0	0	0	2.621433E-09	50	0.0001221895	0	0	0	0	0	0	15.03508	0	0	0	0	0	0	0	-1.370441E-08	9.81	-5.847216E-07	50	8.2	0	-9.81	0	0	0	0	0	-9.81	0	0	0	0	9.81	0	-1	0	0	-1	-1.136542	18.16236	-12.4636	0.5893639	-61.12969	2.500291	0	-1	1	0	-9.81	0	0	0	0	0	-9.81	0	0	0	0	9.81	0	0	-9.81	0	0	0	0	0	-9.81	0	0	0	0	9.81	0
8.3	0.001105339	-46.85439	-7.921653	0.00579144	1.366812E-07	-3.290701E-10	0.001105532	-46.85439	-7.92165	0.00579144	1.366893E-07	-2.36037E-10	47.51933	0.00579144	8.004125E-08	-3.415095E-06	9.204745E-07	-20	0	0	0	0	0	0	0	2.621433E-09	50	0.0001236796	0	0	0	0	0	0	15.03508	0	0	0	0	0	0	0	-1.370441E-08	9.81	-5.847216E-07	50	8.3	0	-9.81	0	0	0	0	0	-9.81	0	0	0	0	9.81	0	-1	0	0	-1	-1.156128	18.28115	-12.84443	0.5892764	-63.41897	2.484077	0	-1	1	0	-9.81	0	0	0	0	0	-9.81	0	0	0	0	9.81	0	0	-9.81	0	0	0	0	0	-9.81	0	0	0	0	9.81	0
8.4	-0.001097373	-46.84966	-7.909882	0.005860671	-1.372206E-07	-3.28848E-10	-0.001097181	-46.84966	-7.909879	0.005860671	-1.372124E-07	-2.346864E-10	47.5127	0.005860671	8.004125E-08	-3.415095E-06	9.204745E-07	-20	0	0	0	0	0	0	0	2.621433E-09	50	0.0001251698	0	0	0	0	0	0	15.03508	0	0	0	0	0	0	0	-1.370441E-08	9.81	-5.847216E-07	50	8.4	0	-9.81	0	0	0	0	0	-9.81	0	0	0	0	9.81	0	-1	0	0	-1	-1.138068	18.10364	-12.39927	0.587425	-60.81765	2.508451	0	-1	1	0	-9.81	0	0	0	0	0	-9.81	0	0	0	0	9.81	0	0	-9.81	0	0	0	0	0	-9.81	0	0	0	0	9.81	0
8.5	0.000780232	-46.8545	-7.917168	0.005931095	9.882156E-08	-3.289591E-10	0.0007804246	-46.8545	-7.917165	0.005931095	9.882984E-08	-2.3368E-10	47.51868	0.005931095	8.004125E-08	-3.415095E-06	9.204745E-07	-20	0	0	0	0	0	0	0	2.621433E-09	50	0.0001266599	0	0	0	0	0	0	15.03508	0	0	0	0	0	0	0	-1.370441E-08	9.81	-5.847216E-07	50	8.5	0	-9.81	0	0	0	0	0	-9.81	0	0	0	0	9.81	0	-1	0	0	-1	-1.151415	18.3623	-12.90617	0.592187	-63.69211	2.473072	0	-1	1	0	-9.81	0	0	0	0	0	-9.81	0	0	0	0	9.81	0	0	-9.81	0	0	0	0	0	-9.81	0	0	0	0	9.81	0
8.6	-0.001267174	-46.85112	-7.911461	0.006000482	-1.622384E-07	-3.290701E-10	-0.001266982	-46.85112	-7.911458	0.006000482	-1.622301E-07	-2.326608E-10	47.5144	0.006000482	8.004125E-08	-3.415095E-06	9.204745E-07	-20	0	0	0	0	0	0	0	2.621433E-09	50	0.00012815	0	0	0	0	0	0	15.03508	0	0	0	0	0	0	0	-1.370441E-08	9.81	-5.847216E-07	50	8.6	0	-9.81	0	0	0	0	0	-9.81	0	0	0	0	9.81	0	-1	0	0	-1	-1.139932	18.04621	-12.3411	0.5854948	-60.53923	2.516413	0	-1	1	0	-9.81	0	0	0	0	0	-9.81	0	0	0	0	9.81	0	0	-9.81	0	0	0	0	0	-9.81	0	0	0	0	9.81	0
8.7	0.0004982665	-46.85176	-7.91471	0.006070375	6.461376E-08	-3.290146E-10	0.0004984592	-46.85176	-7.914707	0.006070375	6.462223E-08	-2.31496E-10	47.51558	0.006070375	8.004125E-08	-3.415095E-06	9.204745E-07	-20	0	0	0	0	0	0	0	2.621433E-09	50	0.0001296401	0	0	0	0	0	0	15.03508	0	0	0	0	0	0	0	-1.370441E-08	9.81	-5.847216E-07	50	8.7	0	-9.81	0	0	0	0	0	-9.81	0	0	0	0	9.81	0	-1	0	0	-1	-1.147401	18.43393	-12.96127	0.5947409	-63.93781	2.463504	0	-1	1	0	-9.81	0	0	0	0	0	-9.81	0	0	0	0	9.81	0	0	-9.81	0	0	0	0	0	-9.81	0	0	0	0	9.81	0
8.8	-0.001473265	-46.85353	-7.913517	0.006140424	-1.930242E-07	-3.290701E-10	-0.001473072	-46.85353	-7.913515	0.006140424	-1.930157E-07	-2.304108E-10	47.51712	0.006140424	8.004125E-08	-3.415095E-06	9.204745E-07	-20	0	0	0	0	0	0	0	2.621433E-09	50	0.0001311302	0	0	0	0	0	0	15.03508	0	0	0	0	0	0	0	-1.370441E-08	9.81	-5.847216E-07	50	8.8	0	-9.81	0	0	0	0	0	-9.81	0	0	0	0	9.81	0	-1	0	0	-1	-1.142366	17.99145	-12.29224	0.5835668	-60.31519	2.5241	0	-1	1	0	-9.81	0	0	0	0	0	-9.81	0	0	0	0	9.81	0	0	-9.81	0	0	0	0	0	-9.81	0	0	0	0	9.81	0
8.9	0.0002616062	-46.85197	-7.911133	0.006210033	3.473037E-08	-3.289868E-10	0.0002617988	-46.85197	-7.91113	0.006210033	3.473905E-08	-2.292228E-10	47.51519	0.006210033	8.004125E-08	-3.415095E-06	9.204745E-07	-20	0	0	0	0	0	0	0	2.621433E-09	50	0.0001326203	0	0	0	0	0	0	15.03508	0	0	0	0	0	0	0	-1.370441E-08	9.81	-5.847216E-07	50	8.9	0	-9.81	0	0	0	0	0	-9.81	0	0	0	0	9.81	0	-1	0	0	-1	-1.144086	18.4967	-13.01224	0.596985	-64.16571	2.455121	0	-1	1	0	-9.81	0	0	0	0	0	-9.81	0	0	0	0	9.81	0	0	-9.81	0	0	0	0	0	-9.81	0	0	0	0	9.81	0
9	-0.00173697	-46.85229	-7.919045	0.006279886	-2.327607E-07	-3.290701E-10	-0.001736777	-46.85229	-7.919043	0.006279886	-2.327519E-07	-2.281679E-10	47.51683	0.006279886	8.004125E-08	-3.415095E-06	9.204745E-07	-20	0	0	0	0	0	0	0	2.621433E-09	50	0.0001341105	0	0	0	0	0	0	15.03508	0	0	0	0	0	0	0	-1.370441E-08	9.81	-5.847216E-07	50	9	0	-9.81	0	0	0	0	0	-9.81	0	0	0	0	9.81	0	-1	0	0	-1	-1.145483	17.94229	-12.25862	0.5817211	-60.1762	2.531005	0	-1	1	0	-9.81	0	0	0	0	0	-9.81	0	0	0	0	9.81	0	0	-9.81	0	0	0	0	0	-9.81	0	0	0	0	9.81	0
9.1	6.435601E-05	-46.85032	-7.91003	0.00634944	8.777459E-09	-3.289591E-10	6.454853E-05	-46.85032	-7.910028	0.00634944	8.786329E-09	-2.269538E-10	47.51338	0.00634944	8.004125E-08	-3.415095E-06	9.204745E-07	-20	0	0	0	0	0	0	0	2.621433E-09	50	0.0001356006	0	0	0	0	0	0	15.03508	0	0	0	0	0	0	0	-1.370441E-08	9.81	-5.847216E-07	50	9.1	0	-9.81	0	0	0	0	0	-9.81	0	0	0	0	9.81	0	-1	0	0	-1	-1.141489	18.55173	-13.05972	0.5989288	-64.38183	2.447871	0	-1	1	0	-9.81	0	0	0	0	0	-9.81	0	0	0	0	9.81	0	0	-9.81	0	0	0	0	0	-9.81	0	0	0	0	9.81	0
9.2	-0.00203965	-46.85479	-7.922935	0.006419861	-2.794092E-07	-3.28848E-10	-0.002039457	-46.85479	-7.922932	0.006419861	-2.794003E-07	-2.256943E-10	47.51993	0.006419861	8.004125E-08	-3.415095E-06	9.204745E-07	-20	0	0	0	0	0	0	0	2.621433E-09	50	0.0001370907	0	0	0	0	0	0	15.03508	0	0	0	0	0	0	0	-1.370441E-08	9.81	-5.847216E-07	50	9.2	0	-9.81	0	0	0	0	0	-9.81	0	0	0	0	9.81	0	-1	0	0	-1	-1.1495	17.90285	-12.24786	0.5800385	-60.16527	2.536553	0	-1	1	0	-9.81	0	0	0	0	0	-9.81	0	0	0	0	9.81	0	0	-9.81	0	0	0	0	0	-9.81	0	0	0	0	9.81	0
9.3	-9.966291E-05	-46.84997	-7.907989	0.006489011	-1.374841E-08	-3.289729E-10	-9.947042E-05	-46.84997	-7.907986	0.006489011	-1.373935E-08	-2.247241E-10	47.51269	0.006489011	8.004125E-08	-3.415095E-06	9.204745E-07	-20	0	0	0	0	0	0	0	2.621433E-09	50	0.0001385808	0	0	0	0	0	0	15.03508	0	0	0	0	0	0	0	-1.370441E-08	9.81	-5.847216E-07	50	9.3	0	-9.81	0	0	0	0	0	-9.81	0	0	0	0	9.81	0	-1	0	0	-1	-1.139392	18.60102	-13.10524	0.6006708	-64.59001	2.44137	0	-1	1	0	-9.81	0	0	0	0	0	-9.81	0	0	0	0	9.81	0	0	-9.81	0	0	0	0	0	-9.81	0	0	0	0	9.81	0
9.4	-0.002340406	-46.85498	-7.929685	0.00655953	-3.275927E-07	-3.292921E-10	-0.002340213	-46.85498	-7.929682	0.00655953	-3.275836E-07	-2.238917E-10	47.52125	0.00655953	8.004125E-08	-3.415095E-06	9.204745E-07	-20	0	0	0	0	0	0	0	2.621433E-09	50	0.0001400709	0	0	0	0	0	0	15.03508	0	0	0	0	0	0	0	-1.370441E-08	9.81	-5.847216E-07	50	9.4	0	-9.81	0	0	0	0	0	-9.81	0	0	0	0	9.81	0	-1	0	0	-1	-1.154569	17.87831	-12.26779	0.5786189	-60.32818	2.540074	0	-1	1	0	-9.81	0	0	0	0	0	-9.81	0	0	0	0	9.81	0	0	-9.81	0	0	0	0	0	-9.81	0	0	0	0	9.81	0
9.5	-0.0002370676	-46.85099	-7.90553	0.006628781	-3.348637E-08	-3.289591E-10	-0.0002368752	-46.85099	-7.905528	0.006628781	-3.347711E-08	-2.224636E-10	47.51329	0.006628781	8.004125E-08	-3.415095E-06	9.204745E-07	-20	0	0	0	0	0	0	0	2.621433E-09	50	0.000141561	0	0	0	0	0	0	15.03508	0	0	0	0	0	0	0	-1.370441E-08	9.81	-5.847216E-07	50	9.5	0	-9.81	0	0	0	0	0	-9.81	0	0	0	0	9.81	0	-1	0	0	-1	-1.137703	18.64527	-13.14846	0.6022314	-64.78884	2.435547	0	-1	1	0	-9.81	0	0	0	0	0	-9.81	0	0	0	0	9.81	0	0	-9.81	0	0	0	0	0	-9.81	0	0	0	0	9.81	0
9.6	-0.002485389	-46.85627	-7.933485	0.006699348	-3.552967E-07	-3.28848E-10	-0.002485196	-46.85627	-7.933482	0.006699348	-3.552873E-07	-2.211997E-10	47.52315	0.006699348	8.004125E-08	-3.415095E-06	9.204745E-07	-20	0	0	0	0	0	0	0	2.621433E-09	50	0.0001430511	0	0	0	0	0	0	15.03508	0	0	0	0	0	0	0	-1.370441E-08	9.81	-5.847216E-07	50	9.6	0	-9.81	0	0	0	0	0	-9.81	0	0	0	0	9.81	0	-1	0	0	-1	-1.16008	17.87666	-12.32422	0.5777357	-60.69275	2.540293	0	-1	1	0	-9.81	0	0	0	0	0	-9.81	0	0	0	0	9.81	0	0	-9.81	0	0	0	0	0	-9.81	0	0	0	0	9.81	0
9.7	-0.0003513222	-46.84905	-7.905754	0.00676813	-5.069886E-08	-3.289035E-10	-0.0003511297	-46.84905	-7.905751	0.00676813	-5.06894E-08	-2.201684E-10	47.51142	0.00676813	8.004125E-08	-3.415095E-06	9.204745E-07	-20	0	0	0	0	0	0	0	2.621433E-09	50	0.0001445413	0	0	0	0	0	0	15.03508	0	0	0	0	0	0	0	-1.370441E-08	9.81	-5.847216E-07	50	9.7	0	-9.81	0	0	0	0	0	-9.81	0	0	0	0	9.81	0	-1	0	0	-1	-1.136399	18.68473	-13.1886	0.6036065	-64.97581	2.430444	0	-1	1	0	-9.81	0	0	0	0	0	-9.81	0	0	0	0	9.81	0	0	-9.81	0	0	0	0	0	-9.81	0	0	0	0	9.81	0
9.8	-0.002213914	-46.85768	-7.930937	0.006839199	-3.230802E-07	-3.290701E-10	-0.002213721	-46.85768	-7.930934	0.006839199	-3.230707E-07	-2.19177E-10	47.52412	0.006839199	8.004125E-08	-3.415095E-06	9.204745E-07	-20	0	0	0	0	0	0	0	2.621433E-09	50	0.0001460314	0	0	0	0	0	0	15.03508	0	0	0	0	0	0	0	-1.370441E-08	9.81	-5.847216E-07	50	9.8	0	-9.81	0	0	0	0	0	-9.81	0	0	0	0	9.81	0	-1	0	0	-1	-1.163713	17.90536	-12.40287	0.5778005	-61.17128	2.536187	0	-1	1	0	-9.81	0	0	0	0	0	-9.81	0	0	0	0	9.81	0	0	-9.81	0	0	0	0	0	-9.81	0	0	0	0	9.81	0
9.9	-0.0004465365	-46.849	-7.904338	0.006907743	-6.578495E-08	-3.289035E-10	-0.0004463441	-46.849	-7.904335	0.006907743	-6.57753E-08	-2.179246E-10	47.51113	0.006907743	8.004125E-08	-3.415095E-06	9.204745E-07	-20	0	0	0	0	0	0	0	2.621433E-09	50	0.0001475215	0	0	0	0	0	0	15.03508	0	0	0	0	0	0	0	-1.370441E-08	9.81	-5.847216E-07	50	9.9	0	-9.81	0	0	0	0	0	-9.81	0	0	0	0	9.81	0	-1	0	0	-1	-1.135298	18.7207	-13.22678	0.6048707	-65.15292	2.425758	0	-1	1	0	-9.81	0	0	0	0	0	-9.81	0	0	0	0	9.81	0	0	-9.81	0	0	0	0	0	-9.81	0	0	0	0	9.81	0
10	-0.001498773	-46.85367	-7.923784	0.006978247	-2.231673E-07	-3.28848E-10	-0.00149858	-46.85367	-7.923781	0.006978247	-2.231576E-07	-2.16727E-10	47.51897	0.006978247	8.004125E-08	-3.415095E-06	9.204745E-07	-20	0	0	0	0	0	0	0	2.621433E-09	50	0.0001490116	0	0	0	0	0	0	15.03508	0	0	0	0	0	0	0	-1.370441E-08	9.81	-5.847216E-07	50	10	0	-9.81	0	0	0	0	0	-9.81	0	0	0	0	9.81	0	-1	0	0	-1	-1.161351	17.96434	-12.45892	0.5792412	-61.49676	2.527907	0	-1	1	0	-9.81	0	0	0	0	0	-9.81	0	0	0	0	9.81	0	0	-9.81	0	0	0	0	0	-9.81	0	0	0	0	9.81	0
10.1	-0.0005255223	-46.85068	-7.90255	0.007047616	-7.89974E-08	-3.290701E-10	-0.0005253298	-46.85068	-7.902547	0.007047616	-7.898755E-08	-2.158432E-10	47.51249	0.007047616	8.004125E-08	-3.415095E-06	9.204745E-07	-20	0	0	0	0	0	0	0	2.621433E-09	50	0.0001505017	0	0	0	0	0	0	15.03508	0	0	0	0	0	0	0	-1.370441E-08	9.81	-5.847216E-07	50	10.1	0	-9.81	0	0	0	0	0	-9.81	0	0	0	0	9.81	0	-1	0	0	-1	-1.13438	18.75329	-13.26251	0.6060252	-65.31796	2.421508	0	-1	1	0	-9.81	0	0	0	0	0	-9.81	0	0	0	0	9.81	0	0	-9.81	0	0	0	0	0	-9.81	0	0	0	0	9.81	0
10.2	-0.0007126483	-46.85126	-7.912325	0.007117518	-1.082081E-07	-3.290701E-10	-0.0007124558	-46.85126	-7.912323	0.007117518	-1.081982E-07	-2.147185E-10	47.51469	0.007117518	8.004125E-08	-3.415095E-06	9.204745E-07	-20	0	0	0	0	0	0	0	2.621433E-09	50	0.0001519918	0	0	0	0	0	0	15.03508	0	0	0	0	0	0	0	-1.370441E-08	9.81	-5.847216E-07	50	10.2	0	-9.81	0	0	0	0	0	-9.81	0	0	0	0	9.81	0	-1	0	0	-1	-1.152091	18.03852	-12.46205	0.5818765	-61.4865	2.517493	0	-1	1	0	-9.81	0	0	0	0	0	-9.81	0	0	0	0	9.81	0	0	-9.81	0	0	0	0	0	-9.81	0	0	0	0	9.81	0
10.3	-0.0005900181	-46.84829	-7.90331	0.007186876	-9.045769E-08	-3.289035E-10	-0.0005898257	-46.84829	-7.903307	0.007186876	-9.044765E-08	-2.134388E-10	47.51026	0.007186876	8.004125E-08	-3.415095E-06	9.204745E-07	-20	0	0	0	0	0	0	0	2.621433E-09	50	0.000153482	0	0	0	0	0	0	15.03508	0	0	0	0	0	0	0	-1.370441E-08	9.81	-5.847216E-07	50	10.3	0	-9.81	0	0	0	0	0	-9.81	0	0	0	0	9.81	0	-1	0	0	-1	-1.13369	18.78222	-13.29483	0.607034	-65.46915	2.417828	0	-1	1	0	-9.81	0	0	0	0	0	-9.81	0	0	0	0	9.81	0	0	-9.81	0	0	0	0	0	-9.81	0	0	0	0	9.81	0
10.4	-0.000140068	-46.851	-7.902431	0.007257109	-2.164071E-08	-3.289591E-10	-0.0001398756	-46.851	-7.902428	0.007257109	-2.163057E-08	-2.123701E-10	47.51279	0.007257109	8.004125E-08	-3.415095E-06	9.204745E-07	-20	0	0	0	0	0	0	0	2.621433E-09	50	0.0001549721	0	0	0	0	0	0	15.03508	0	0	0	0	0	0	0	-1.370441E-08	9.81	-5.847216E-07	50	10.4	0	-9.81	0	0	0	0	0	-9.81	0	0	0	0	9.81	0	-1	0	0	-1	-1.141132	18.10296	-12.43223	0.5845513	-61.27681	2.508493	0	-1	1	0	-9.81	0	0	0	0	0	-9.81	0	0	0	0	9.81	0	0	-9.81	0	0	0	0	0	-9.81	0	0	0	0	9.81	0
10.5	-0.0006430934	-46.8485	-7.902252	0.007326525	-1.005164E-07	-3.289591E-10	-0.000642901	-46.8485	-7.902249	0.007326525	-1.005062E-07	-2.112502E-10	47.51029	0.007326525	8.004125E-08	-3.415095E-06	9.204745E-07	-20	0	0	0	0	0	0	0	2.621433E-09	50	0.0001564622	0	0	0	0	0	0	15.03508	0	0	0	0	0	0	0	-1.370441E-08	9.81	-5.847216E-07	50	10.5	0	-9.81	0	0	0	0	0	-9.81	0	0	0	0	9.81	0	-1	0	0	-1	-1.133065	18.80843	-13.32483	0.6079695	-65.60736	2.414438	0	-1	1	0	-9.81	0	0	0	0	0	-9.81	0	0	0	0	9.81	0	0	-9.81	0	0	0	0	0	-9.81	0	0	0	0	9.81	0
10.6	0.0001994825	-46.84715	-7.897841	0.007396123	3.15493E-08	-3.289313E-10	0.0001996748	-46.84715	-7.897839	0.007396123	3.155963E-08	-2.101122E-10	47.50823	0.007396123	8.004125E-08	-3.415095E-06	9.204745E-07	-20	0	0	0	0	0	0	0	2.621433E-09	50	0.0001579523	0	0	0	0	0	0	15.03508	0	0	0	0	0	0	0	-1.370441E-08	9.81	-5.847216E-07	50	10.6	0	-9.81	0	0	0	0	0	-9.81	0	0	0	0	9.81	0	-1	0	0	-1	-1.132623	18.14626	-12.39811	0.5864723	-61.05417	2.502559	0	-1	1	0	-9.81	0	0	0	0	0	-9.81	0	0	0	0	9.81	0	0	-9.81	0	0	0	0	0	-9.81	0	0	0	0	9.81	0
10.7	-0.0006844891	-46.84968	-7.901373	0.007466336	-1.090301E-07	-3.290701E-10	-0.0006842967	-46.84968	-7.90137	0.007466336	-1.090197E-07	-2.091146E-10	47.5113	0.007466336	8.004125E-08	-3.415095E-06	9.204745E-07	-20	0	0	0	0	0	0	0	2.621433E-09	50	0.0001594424	0	0	0	0	0	0	15.03508	0	0	0	0	0	0	0	-1.370441E-08	9.81	-5.847216E-07	50	10.7	0	-9.81	0	0	0	0	0	-9.81	0	0	0	0	9.81	0	-1	0	0	-1	-1.132532	18.83139	-13.35141	0.6088014	-65.72855	2.411466	0	-1	1	0	-9.81	0	0	0	0	0	-9.81	0	0	0	0	9.81	0	0	-9.81	0	0	0	0	0	-9.81	0	0	0	0	9.81	0
10.8	0.0003775096	-46.84711	-7.893356	0.00753573	6.078089E-08	-3.289035E-10	0.0003777019	-46.84711	-7.893353	0.00753573	6.079142E-08	-2.078433E-10	47.50744	0.00753573	8.004125E-08	-3.415095E-06	9.204745E-07	-20	0	0	0	0	0	0	0	2.621433E-09	50	0.0001609325	0	0	0	0	0	0	15.03508	0	0	0	0	0	0	0	-1.370441E-08	9.81	-5.847216E-07	50	10.8	0	-9.81	0	0	0	0	0	-9.81	0	0	0	0	9.81	0	-1	0	0	-1	-1.126976	18.17113	-12.37035	0.5876466	-60.87903	2.499113	0	-1	1	0	-9.81	0	0	0	0	0	-9.81	0	0	0	0	9.81	0	0	-9.81	0	0	0	0	0	-9.81	0	0	0	0	9.81	0
