Time	Aircraft Simulation Net Global Force X	Aircraft Simulation Net Global Force Y	Aircraft Simulation Net Global Force Z	Aircraft Simulation Net Global Moment X	Aircraft Simulation Net Global Moment Y	Aircraft Simulation Net Global Moment Z	Aircraft Simulation Net Local Force X	Aircraft Simulation Net Local Force Y	Aircraft Simulation Net Local Force Z	Aircraft Simulation Net Local Moment X	Aircraft Simulation Net Local Moment Y	Aircraft Simulation Net Local Moment Z	Aircraft Simulation Net Force	Aircraft Simulation Net Moment	Aircraft Simulation Roll Angle	Aircraft Simulation Pitch Angle	Aircraft Simulation Heading Angle	Aircraft Simulation Angle Of Attack_Deg	Aircraft Simulation Angle Of Sideslip_Deg	Aircraft Simulation Roll Rate	Aircraft Simulation Pitch Rate	Aircraft Simulation Yaw Rate	Aircraft Simulation Angular Velocity X	Aircraft Simulation Angular Velocity Y	Aircraft Simulation Angular Velocity Z	Aircraft Simulation Position X	Aircraft Simulation Position Y	Aircraft Simulation Position Z	Aircraft Simulation Global Velocity X	Aircraft Simulation Global Velocity Y	Aircraft Simulation Global Velocity Z	Aircraft Simulation Local Velocity X	Aircraft Simulation Local Velocity Y	Aircraft Simulation Local Velocity Z	Aircraft Simulation Airspeed	Aircraft Simulation Ground Speed	Aircraft Simulation Acceleration X	Aircraft Simulation Acceleration Y	Aircraft Simulation Acceleration Z	Aircraft Simulation Local Acceleration X	Aircraft Simulation Local Acceleration Y	Aircraft Simulation Local Acceleration Z	Aircraft Simulation Imu Acceleration X	Aircraft Simulation Imu Acceleration Y	Aircraft Simulation Imu Acceleration Z	Aircraft Simulation Altitude	Aircraft Simulation Time	D A Q Net Global Force X	D A Q Net Global Force Y	D A Q Net Global Force Z	D A Q Net Global Moment X	D A Q Net Global Moment Y	D A Q Net Global Moment Z	D A Q Net Local Force X	D A Q Net Local Force Y	D A Q Net Local Force Z	D A Q Net Local Moment X	D A Q Net Local Moment Y	D A Q Net Local Moment Z	D A Q Net Force	D A Q Net Moment	Electronic Speed Controller Input Value	Fin Input Value	Port Aileron Input Value	Port Flap Input Value	Propeller Total Thrust	Propeller Advance Ratio	Propeller Thrust Coefficient	Propeller Torque Coefficient	Propeller Propulsive Efficiency	Propeller Rps	Starboard Aileron Input Value	Starboard Flap Input Value	Tailplane Input Value	U I Net Global Force X	U I Net Global Force Y	U I Net Global Force Z	U I Net Global Moment X	U I Net Global Moment Y	U I Net Global Moment Z	U I Net Local Force X	U I Net Local Force Y	U I Net Local Force Z	U I Net Local Moment X	U I Net Local Moment Y	U I Net Local Moment Z	U I Net Force	U I Net Moment	Uniform Flow Net Global Force X	Uniform Flow Net Global Force Y	Uniform Flow Net Global Force Z	Uniform Flow Net Global Moment X	Uniform Flow Net Global Moment Y	Uniform Flow Net Global Moment Z	Uniform Flow Net Local Force X	Uniform Flow Net Local Force Y	Uniform Flow Net Local Force Z	Uniform Flow Net Local Moment X	Uniform Flow Net Local Moment Y	Uniform Flow Net Local Moment Z	Uniform Flow Net Force	Uniform Flow Net Moment
0.1	-0.001454989	-54.28264	-6.098711	7.684138E-05	-2.016886E-09	-3.812506E-10	-0.001454815	-54.28264	-6.098708	7.684138E-05	-2.016779E-09	-3.80016E-10	54.62416	7.684138E-05	8.004125E-08	-3.415095E-06	9.204745E-07	-20	0	0	0	0	0	0	0	2.621433E-09	50	1.490116E-06	0	0	0	0	0	0	15.03508	0	0	0	0	0	0	0	-1.370441E-08	9.81	-5.847216E-07	50	0.1	0	-9.81	0	0	0	0	0	-9.81	0	0	0	0	9.81	0	-1	0	0	-1	-1.142483	17.97195	-12.26043	0.582894	-60.16328	2.527503	0	-1	-1	0	-9.81	0	0	0	0	0	-9.81	0	0	0	0	9.81	0	0	-9.81	0	0	0	0	0	-9.81	0	0	0	0	9.81	0
0.2	0.0002266269	-53.80946	-6.204182	0.0001563603	7.020772E-10	-3.777811E-10	0.0002268018	-53.80946	-6.204179	0.0001563603	7.022957E-10	-3.752692E-10	54.16594	0.0001563603	8.004125E-08	-3.415095E-06	9.204745E-07	-20	0	0	0	0	0	0	0	2.621433E-09	50	2.980232E-06	0	0	0	0	0	0	15.03508	0	0	0	0	0	0	0	-1.370441E-08	9.81	-5.847216E-07	50	0.2	0	-9.81	0	0	0	0	0	-9.81	0	0	0	0	9.81	0	-1	0	0	-1	-1.143763	18.50463	-13.01689	0.5972075	-64.19226	2.454335	0	-1	-1	0	-9.81	0	0	0	0	0	-9.81	0	0	0	0	9.81	0	0	-9.81	0	0	0	0	0	-9.81	0	0	0	0	9.81	0
0.3	-0.001758529	-53.7452	-6.228048	0.000236254	-7.686628E-09	-3.776978E-10	-0.001758354	-53.7452	-6.228045	0.000236254	-7.686298E-09	-3.739019E-10	54.10485	0.000236254	8.004125E-08	-3.415095E-06	9.204745E-07	-20	0	0	0	0	0	0	0	2.621433E-09	50	4.470348E-06	0	0	0	0	0	0	15.03508	0	0	0	0	0	0	0	-1.370441E-08	9.81	-5.847216E-07	50	0.3	0	-9.81	0	0	0	0	0	-9.81	0	0	0	0	9.81	0	-1	0	0	-1	-1.145878	17.93871	-12.25657	0.5815369	-60.17318	2.531654	0	-1	-1	0	-9.81	0	0	0	0	0	-9.81	0	0	0	0	9.81	0	0	-9.81	0	0	0	0	0	-9.81	0	0	0	0	9.81	0
0.4	4.252482E-05	-53.73164	-6.220463	0.000316264	2.939784E-10	-3.772815E-10	4.269982E-05	-53.73164	-6.220459	0.000316264	2.944202E-10	-3.722007E-10	54.09051	0.000316264	8.004125E-08	-3.415095E-06	9.204745E-07	-20	0	0	0	0	0	0	0	2.621433E-09	50	5.960464E-06	0	0	0	0	0	0	15.03508	0	0	0	0	0	0	0	-1.370441E-08	9.81	-5.847216E-07	50	0.4	0	-9.81	0	0	0	0	0	-9.81	0	0	0	0	9.81	0	-1	0	0	-1	-1.141205	18.55804	-13.06508	0.5991462	-64.40677	2.447064	0	-1	-1	0	-9.81	0	0	0	0	0	-9.81	0	0	0	0	9.81	0	0	-9.81	0	0	0	0	0	-9.81	0	0	0	0	9.81	0
0.5	-0.00207041	-53.72345	-6.238401	0.0003962632	-1.522771E-08	-3.772538E-10	-0.002070235	-53.72345	-6.238398	0.0003962632	-1.522715E-08	-3.708867E-10	54.08444	0.0003962632	8.004125E-08	-3.415095E-06	9.204745E-07	-20	0	0	0	0	0	0	0	2.621433E-09	50	7.450581E-06	0	0	0	0	0	0	15.03508	0	0	0	0	0	0	0	-1.370441E-08	9.81	-5.847216E-07	50	0.5	0	-9.81	0	0	0	0	0	-9.81	0	0	0	0	9.81	0	-1	0	0	-1	-1.15001	17.89969	-12.24832	0.5798659	-60.17476	2.537068	0	-1	-1	0	-9.81	0	0	0	0	0	-9.81	0	0	0	0	9.81	0	0	-9.81	0	0	0	0	0	-9.81	0	0	0	0	9.81	0
0.6	-0.0001170762	-53.71431	-6.223232	0.0004762405	-9.943156E-10	-3.771566E-10	-0.0001169012	-53.71431	-6.223229	0.0004762405	-9.936504E-10	-3.695056E-10	54.07361	0.0004762405	8.004125E-08	-3.415095E-06	9.204745E-07	-20	0	0	0	0	0	0	0	2.621433E-09	50	8.940697E-06	0	0	0	0	0	0	15.03508	0	0	0	0	0	0	0	-1.370441E-08	9.81	-5.847216E-07	50	0.6	0	-9.81	0	0	0	0	0	-9.81	0	0	0	0	9.81	0	-1	0	0	-1	-1.139203	18.60609	-13.1098	0.6008401	-64.6119	2.440743	0	-1	-1	0	-9.81	0	0	0	0	0	-9.81	0	0	0	0	9.81	0	0	-9.81	0	0	0	0	0	-9.81	0	0	0	0	9.81	0
0.7	-0.002367262	-53.72338	-6.244115	0.0005563779	-2.44722E-08	-3.770317E-10	-0.002367087	-53.72338	-6.244112	0.0005563779	-2.447142E-08	-3.680919E-10	54.08504	0.0005563779	8.004125E-08	-3.415095E-06	9.204745E-07	-20	0	0	0	0	0	0	0	2.621433E-09	50	1.043081E-05	0	0	0	0	0	0	15.03508	0	0	0	0	0	0	0	-1.370441E-08	9.81	-5.847216E-07	50	0.7	0	-9.81	0	0	0	0	0	-9.81	0	0	0	0	9.81	0	-1	0	0	-1	-1.15513	17.87726	-12.27259	0.5785102	-60.35957	2.540194	0	-1	-1	0	-9.81	0	0	0	0	0	-9.81	0	0	0	0	9.81	0	0	-9.81	0	0	0	0	0	-9.81	0	0	0	0	9.81	0
0.8	-0.0002509018	-53.7118	-6.222221	0.0006362934	-2.928616E-09	-3.771427E-10	-0.0002507268	-53.7118	-6.222218	0.0006362934	-2.927727E-09	-3.669203E-10	54.07101	0.0006362934	8.004125E-08	-3.415095E-06	9.204745E-07	-20	0	0	0	0	0	0	0	2.621433E-09	50	1.192093E-05	0	0	0	0	0	0	15.03508	0	0	0	0	0	0	0	-1.370441E-08	9.81	-5.847216E-07	50	0.8	0	-9.81	0	0	0	0	0	-9.81	0	0	0	0	9.81	0	-1	0	0	-1	-1.137566	18.64974	-13.15275	0.6023792	-64.80963	2.435003	0	-1	-1	0	-9.81	0	0	0	0	0	-9.81	0	0	0	0	9.81	0	0	-9.81	0	0	0	0	0	-9.81	0	0	0	0	9.81	0
0.9	-0.002479241	-53.71621	-6.250249	0.0007163835	-3.302047E-08	-3.770317E-10	-0.002479065	-53.71621	-6.250246	0.0007163835	-3.301947E-08	-3.655208E-10	54.07861	0.0007163835	8.004125E-08	-3.415095E-06	9.204745E-07	-20	0	0	0	0	0	0	0	2.621433E-09	50	1.341105E-05	0	0	0	0	0	0	15.03508	0	0	0	0	0	0	0	-1.370441E-08	9.81	-5.847216E-07	50	0.9	0	-9.81	0	0	0	0	0	-9.81	0	0	0	0	9.81	0	-1	0	0	-1	-1.160642	17.87816	-12.33205	0.5776813	-60.74212	2.540101	0	-1	-1	0	-9.81	0	0	0	0	0	-9.81	0	0	0	0	9.81	0	0	-9.81	0	0	0	0	0	-9.81	0	0	0	0	9.81	0
1	-0.0003627801	-53.71501	-6.22012	0.0007964154	-5.335149E-09	-3.771427E-10	-0.0003626051	-53.71501	-6.220117	0.0007964154	-5.334036E-09	-3.643478E-10	54.07395	0.0007964154	8.004125E-08	-3.415095E-06	9.204745E-07	-20	0	0	0	0	0	0	0	2.621433E-09	50	1.490116E-05	0	0	0	0	0	0	15.03508	0	0	0	0	0	0	0	-1.370441E-08	9.81	-5.847216E-07	50	1	0	-9.81	0	0	0	0	0	-9.81	0	0	0	0	9.81	0	-1	0	0	-1	-1.136227	18.68913	-13.19329	0.6037706	-64.99658	2.429827	0	-1	-1	0	-9.81	0	0	0	0	0	-9.81	0	0	0	0	9.81	0	0	-9.81	0	0	0	0	0	-9.81	0	0	0	0	9.81	0
1.1	-0.002151942	-53.71629	-6.247718	0.0008764763	-3.506883E-08	-3.772538E-10	-0.002151766	-53.71629	-6.247715	0.0008764763	-3.506761E-08	-3.631708E-10	54.0784	0.0008764763	8.004125E-08	-3.415095E-06	9.204745E-07	-20	0	0	0	0	0	0	0	2.621433E-09	50	1.639128E-05	0	0	0	0	0	0	15.03508	0	0	0	0	0	0	0	-1.370441E-08	9.81	-5.847216E-07	50	1.1	0	-9.81	0	0	0	0	0	-9.81	0	0	0	0	9.81	0	-1	0	0	-1	-1.163841	17.91036	-12.41085	0.5778753	-61.21979	2.535512	0	-1	-1	0	-9.81	0	0	0	0	0	-9.81	0	0	0	0	9.81	0	0	-9.81	0	0	0	0	0	-9.81	0	0	0	0	9.81	0
1.2	-0.0004556133	-53.7074	-6.221312	0.0009563627	-8.069351E-09	-3.770872E-10	-0.0004554384	-53.7074	-6.221309	0.0009563627	-8.068015E-09	-3.617225E-10	54.06652	0.0009563627	8.004125E-08	-3.415095E-06	9.204745E-07	-20	0	0	0	0	0	0	0	2.621433E-09	50	1.788139E-05	0	0	0	0	0	0	15.03508	0	0	0	0	0	0	0	-1.370441E-08	9.81	-5.847216E-07	50	1.2	0	-9.81	0	0	0	0	0	-9.81	0	0	0	0	9.81	0	-1	0	0	-1	-1.135205	18.72436	-13.23068	0.6049963	-65.17133	2.4253	0	-1	-1	0	-9.81	0	0	0	0	0	-9.81	0	0	0	0	9.81	0	0	-9.81	0	0	0	0	0	-9.81	0	0	0	0	9.81	0
1.3	-0.001408664	-53.71853	-6.237471	0.001036602	-2.713923E-08	-3.770317E-10	-0.001408489	-53.71853	-6.237467	0.001036602	-2.713779E-08	-3.603768E-10	54.07944	0.001036602	8.004125E-08	-3.415095E-06	9.204745E-07	-20	0	0	0	0	0	0	0	2.621433E-09	50	1.937151E-05	0	0	0	0	0	0	15.03508	0	0	0	0	0	0	0	-1.370441E-08	9.81	-5.847216E-07	50	1.3	0	-9.81	0	0	0	0	0	-9.81	0	0	0	0	9.81	0	-1	0	0	-1	-1.160565	17.97243	-12.46224	0.5795091	-61.51242	2.526714	0	-1	-1	0	-9.81	0	0	0	0	0	-9.81	0	0	0	0	9.81	0	0	-9.81	0	0	0	0	0	-9.81	0	0	0	0	9.81	0
1.4	-0.0005329717	-53.70866	-6.219984	0.001116448	-1.103526E-08	-3.770872E-10	-0.0005327967	-53.70866	-6.219981	0.001116448	-1.10337E-08	-3.591505E-10	54.06762	0.001116448	8.004125E-08	-3.415095E-06	9.204745E-07	-20	0	0	0	0	0	0	0	2.621433E-09	50	2.086163E-05	0	0	0	0	0	0	15.03508	0	0	0	0	0	0	0	-1.370441E-08	9.81	-5.847216E-07	50	1.4	0	-9.81	0	0	0	0	0	-9.81	0	0	0	0	9.81	0	-1	0	0	-1	-1.134319	18.75652	-13.26603	0.6061309	-65.33515	2.421122	0	-1	-1	0	-9.81	0	0	0	0	0	-9.81	0	0	0	0	9.81	0	0	-9.81	0	0	0	0	0	-9.81	0	0	0	0	9.81	0
1.5	-0.0006370231	-53.70877	-6.228441	0.00119648	-1.414738E-08	-3.771427E-10	-0.000636848	-53.70877	-6.228437	0.00119648	-1.414571E-08	-3.579201E-10	54.06871	0.00119648	8.004125E-08	-3.415095E-06	9.204745E-07	-20	0	0	0	0	0	0	0	2.621433E-09	50	2.235174E-05	0	0	0	0	0	0	15.03508	0	0	0	0	0	0	0	-1.370441E-08	9.81	-5.847216E-07	50	1.5	0	-9.81	0	0	0	0	0	-9.81	0	0	0	0	9.81	0	-1	0	0	-1	-1.150884	18.04628	-12.45956	0.5821795	-61.46865	2.516424	0	-1	-1	0	-9.81	0	0	0	0	0	-9.81	0	0	0	0	9.81	0	0	-9.81	0	0	0	0	0	-9.81	0	0	0	0	9.81	0
1.6	-0.0005963462	-53.71277	-6.218377	0.00127661	-1.412992E-08	-3.771982E-10	-0.0005961712	-53.71277	-6.218373	0.00127661	-1.412814E-08	-3.566883E-10	54.07153	0.00127661	8.004125E-08	-3.415095E-06	9.204745E-07	-20	0	0	0	0	0	0	0	2.621433E-09	50	2.384186E-05	0	0	0	0	0	0	15.03508	0	0	0	0	0	0	0	-1.370441E-08	9.81	-5.847216E-07	50	1.6	0	-9.81	0	0	0	0	0	-9.81	0	0	0	0	9.81	0	-1	0	0	-1	-1.133572	18.78525	-13.29831	0.6071553	-65.48376	2.417385	0	-1	-1	0	-9.81	0	0	0	0	0	-9.81	0	0	0	0	9.81	0	0	-9.81	0	0	0	0	0	-9.81	0	0	0	0	9.81	0
1.7	-9.231438E-05	-53.70925	-6.218935	0.001356559	-2.287958E-09	-3.77115E-10	-9.213944E-05	-53.70925	-6.218932	0.001356559	-2.286063E-09	-3.553213E-10	54.06809	0.001356559	8.004125E-08	-3.415095E-06	9.204745E-07	-20	0	0	0	0	0	0	0	2.621433E-09	50	2.533197E-05	0	0	0	0	0	0	15.03508	0	0	0	0	0	0	0	-1.370441E-08	9.81	-5.847216E-07	50	1.7	0	-9.81	0	0	0	0	0	-9.81	0	0	0	0	9.81	0	-1	0	0	-1	-1.140067	18.10881	-12.42833	0.5847977	-61.25156	2.507716	0	-1	-1	0	-9.81	0	0	0	0	0	-9.81	0	0	0	0	9.81	0	0	-9.81	0	0	0	0	0	-9.81	0	0	0	0	9.81	0
1.8	-0.0006481013	-53.70632	-6.2195	0.001436514	-1.729144E-08	-3.771427E-10	-0.0006479263	-53.70632	-6.219497	0.001436514	-1.728944E-08	-3.540637E-10	54.06525	0.001436514	8.004125E-08	-3.415095E-06	9.204745E-07	-20	0	0	0	0	0	0	0	2.621433E-09	50	2.682209E-05	0	0	0	0	0	0	15.03508	0	0	0	0	0	0	0	-1.370441E-08	9.81	-5.847216E-07	50	1.8	0	-9.81	0	0	0	0	0	-9.81	0	0	0	0	9.81	0	-1	0	0	-1	-1.133018	18.81103	-13.3278	0.6080591	-65.62139	2.414119	0	-1	-1	0	-9.81	0	0	0	0	0	-9.81	0	0	0	0	9.81	0	0	-9.81	0	0	0	0	0	-9.81	0	0	0	0	9.81	0
1.9	0.0002253049	-53.70852	-6.213323	0.0015166	6.405737E-09	-3.771427E-10	0.0002254798	-53.70852	-6.21332	0.0015166	6.407856E-09	-3.527785E-10	54.06672	0.0015166	8.004125E-08	-3.415095E-06	9.204745E-07	-20	0	0	0	0	0	0	0	2.621433E-09	50	2.831221E-05	0	0	0	0	0	0	15.03508	0	0	0	0	0	0	0	-1.370441E-08	9.81	-5.847216E-07	50	1.9	0	-9.81	0	0	0	0	0	-9.81	0	0	0	0	9.81	0	-1	0	0	-1	-1.131849	18.1496	-12.39451	0.5866377	-61.03044	2.502068	0	-1	-1	0	-9.81	0	0	0	0	0	-9.81	0	0	0	0	9.81	0	0	-9.81	0	0	0	0	0	-9.81	0	0	0	0	9.81	0
2	-0.0006886445	-53.70913	-6.218086	0.001596654	-2.042824E-08	-3.771427E-10	-0.0006884696	-53.70913	-6.218083	0.001596654	-2.042601E-08	-3.514908E-10	54.06787	0.001596654	8.004125E-08	-3.415095E-06	9.204745E-07	-20	0	0	0	0	0	0	0	2.621433E-09	50	2.980232E-05	0	0	0	0	0	0	15.03508	0	0	0	0	0	0	0	-1.370441E-08	9.81	-5.847216E-07	50	2	0	-9.81	0	0	0	0	0	-9.81	0	0	0	0	9.81	0	-1	0	0	-1	-1.132502	18.83403	-13.35455	0.6088881	-65.74385	2.41115	0	-1	-1	0	-9.81	0	0	0	0	0	-9.81	0	0	0	0	9.81	0	0	-9.81	0	0	0	0	0	-9.81	0	0	0	0	9.81	0
2.1	0.000389791	-53.70491	-6.210416	0.001676559	1.221208E-08	-3.770317E-10	0.0003899658	-53.70491	-6.210413	0.001676559	1.221442E-08	-3.50098E-10	54.0628	0.001676559	8.004125E-08	-3.415095E-06	9.204745E-07	-20	0	0	0	0	0	0	0	2.621433E-09	50	3.129244E-05	0	0	0	0	0	0	15.03508	0	0	0	0	0	0	0	-1.370441E-08	9.81	-5.847216E-07	50	2.1	0	-9.81	0	0	0	0	0	-9.81	0	0	0	0	9.81	0	-1	0	0	-1	-1.126521	18.17282	-12.36748	0.5877273	-60.86219	2.498899	0	-1	-1	0	-9.81	0	0	0	0	0	-9.81	0	0	0	0	9.81	0	0	-9.81	0	0	0	0	0	-9.81	0	0	0	0	9.81	0
2.2	-0.0007201347	-53.70562	-6.218894	0.001756605	-2.351053E-08	-3.770317E-10	-0.0007199598	-53.70562	-6.218891	0.001756605	-2.350807E-08	-3.488099E-10	54.06448	0.001756605	8.004125E-08	-3.415095E-06	9.204745E-07	-20	0	0	0	0	0	0	0	2.621433E-09	50	3.278255E-05	0	0	0	0	0	0	15.03508	0	0	0	0	0	0	0	-1.370441E-08	9.81	-5.847216E-07	50	2.2	0	-9.81	0	0	0	0	0	-9.81	0	0	0	0	9.81	0	-1	0	0	-1	-1.132111	18.85377	-13.3776	0.6095979	-65.8496	2.408657	0	-1	-1	0	-9.81	0	0	0	0	0	-9.81	0	0	0	0	9.81	0	0	-9.81	0	0	0	0	0	-9.81	0	0	0	0	9.81	0
2.3	0.0004618881	-53.70798	-6.207126	0.00183671	1.583933E-08	-3.770872E-10	0.0004620628	-53.70798	-6.207123	0.00183671	1.584189E-08	-3.475809E-10	54.06547	0.00183671	8.004125E-08	-3.415095E-06	9.204745E-07	-20	0	0	0	0	0	0	0	2.621433E-09	50	3.427267E-05	0	0	0	0	0	0	15.03508	0	0	0	0	0	0	0	-1.370441E-08	9.81	-5.847216E-07	50	2.3	0	-9.81	0	0	0	0	0	-9.81	0	0	0	0	9.81	0	-1	0	0	-1	-1.123188	18.18398	-12.34627	0.5883026	-60.73568	2.497341	0	-1	-1	0	-9.81	0	0	0	0	0	-9.81	0	0	0	0	9.81	0	0	-9.81	0	0	0	0	0	-9.81	0	0	0	0	9.81	0
2.4	-0.0007429759	-53.70625	-6.21825	0.001916684	-2.647188E-08	-3.770317E-10	-0.0007428009	-53.70625	-6.218246	0.001916684	-2.64692E-08	-3.46238E-10	54.06504	0.001916684	8.004125E-08	-3.415095E-06	9.204745E-07	-20	0	0	0	0	0	0	0	2.621433E-09	50	3.576279E-05	0	0	0	0	0	0	15.03508	0	0	0	0	0	0	0	-1.370441E-08	9.81	-5.847216E-07	50	2.4	0	-9.81	0	0	0	0	0	-9.81	0	0	0	0	9.81	0	-1	0	0	-1	-1.131749	18.87099	-13.39791	0.6102373	-65.94063	2.406445	0	-1	-1	0	-9.81	0	0	0	0	0	-9.81	0	0	0	0	9.81	0	0	-9.81	0	0	0	0	0	-9.81	0	0	0	0	9.81	0
2.5	0.00048008	-53.7038	-6.207119	0.001996621	1.789219E-08	-3.770872E-10	0.0004802547	-53.7038	-6.207116	0.001996621	1.789498E-08	-3.450119E-10	54.06132	0.001996621	8.004125E-08	-3.415095E-06	9.204745E-07	-20	0	0	0	0	0	0	0	2.621433E-09	50	3.72529E-05	0	0	0	0	0	0	15.03508	0	0	0	0	0	0	0	-1.370441E-08	9.81	-5.847216E-07	50	2.5	0	-9.81	0	0	0	0	0	-9.81	0	0	0	0	9.81	0	-1	0	0	-1	-1.121186	18.18747	-12.32865	0.5885241	-60.63781	2.496897	0	-1	-1	0	-9.81	0	0	0	0	0	-9.81	0	0	0	0	9.81	0	0	-9.81	0	0	0	0	0	-9.81	0	0	0	0	9.81	0
2.6	-0.0007579388	-53.71024	-6.216741	0.002076893	-2.926473E-08	-3.772538E-10	-0.0007577639	-53.71024	-6.216738	0.002076893	-2.926183E-08	-3.438861E-10	54.06883	0.002076893	8.004125E-08	-3.415095E-06	9.204745E-07	-20	0	0	0	0	0	0	0	2.621433E-09	50	3.874302E-05	0	0	0	0	0	0	15.03508	0	0	0	0	0	0	0	-1.370441E-08	9.81	-5.847216E-07	50	2.6	0	-9.81	0	0	0	0	0	-9.81	0	0	0	0	9.81	0	-1	0	0	-1	-1.131428	18.88547	-13.41498	0.6107907	-66.01546	2.404573	0	-1	-1	0	-9.81	0	0	0	0	0	-9.81	0	0	0	0	9.81	0	0	-9.81	0	0	0	0	0	-9.81	0	0	0	0	9.81	0
2.7	0.0004657838	-53.70459	-6.205893	0.002156703	1.874884E-08	-3.770317E-10	0.0004659586	-53.70459	-6.20589	0.002156703	1.875185E-08	-3.423847E-10	54.06196	0.002156703	8.004125E-08	-3.415095E-06	9.204745E-07	-20	0	0	0	0	0	0	0	2.621433E-09	50	4.023314E-05	0	0	0	0	0	0	15.03508	0	0	0	0	0	0	0	-1.370441E-08	9.81	-5.847216E-07	50	2.7	0	-9.81	0	0	0	0	0	-9.81	0	0	0	0	9.81	0	-1	0	0	-1	-1.119917	18.18727	-12.31456	0.5885811	-60.56202	2.49691	0	-1	-1	0	-9.81	0	0	0	0	0	-9.81	0	0	0	0	9.81	0	0	-9.81	0	0	0	0	0	-9.81	0	0	0	0	9.81	0
2.8	-0.0007666742	-53.70549	-6.218023	0.002236767	-3.188735E-08	-3.770317E-10	-0.0007664993	-53.70549	-6.218019	0.002236767	-3.188423E-08	-3.410955E-10	54.06425	0.002236767	8.004125E-08	-3.415095E-06	9.204745E-07	-20	0	0	0	0	0	0	0	2.621433E-09	50	4.172325E-05	0	0	0	0	0	0	15.03508	0	0	0	0	0	0	0	-1.370441E-08	9.81	-5.847216E-07	50	2.8	0	-9.81	0	0	0	0	0	-9.81	0	0	0	0	9.81	0	-1	0	0	-1	-1.131212	18.89673	-13.42798	0.6112238	-66.07197	2.403179	0	-1	-1	0	-9.81	0	0	0	0	0	-9.81	0	0	0	0	9.81	0	0	-9.81	0	0	0	0	0	-9.81	0	0	0	0	9.81	0
2.9	0.0004313593	-53.70936	-6.203975	0.002316956	1.865191E-08	-3.771427E-10	0.000431534	-53.70936	-6.203971	0.002316956	1.865515E-08	-3.399212E-10	54.06649	0.002316956	8.004125E-08	-3.415095E-06	9.204745E-07	-20	0	0	0	0	0	0	0	2.621433E-09	50	4.321337E-05	0	0	0	0	0	0	15.03508	0	0	0	0	0	0	0	-1.370441E-08	9.81	-5.847216E-07	50	2.9	0	-9.81	0	0	0	0	0	-9.81	0	0	0	0	9.81	0	-1	0	0	-1	-1.119107	18.18513	-12.30307	0.5885452	-60.50206	2.497173	0	-1	-1	0	-9.81	0	0	0	0	0	-9.81	0	0	0	0	9.81	0	0	-9.81	0	0	0	0	0	-9.81	0	0	0	0	9.81	0
3	-0.000768842	-53.70644	-6.217404	0.00239686	-3.426898E-08	-3.771427E-10	-0.0007686671	-53.70644	-6.217401	0.00239686	-3.426563E-08	-3.386344E-10	54.06512	0.00239686	8.004125E-08	-3.415095E-06	9.204745E-07	-20	0	0	0	0	0	0	0	2.621433E-09	50	4.470348E-05	0	0	0	0	0	0	15.03508	0	0	0	0	0	0	0	-1.370441E-08	9.81	-5.847216E-07	50	3	0	-9.81	0	0	0	0	0	-9.81	0	0	0	0	9.81	0	-1	0	0	-1	-1.130989	18.90551	-13.43799	0.6115909	-66.11221	2.402048	0	-1	-1	0	-9.81	0	0	0	0	0	-9.81	0	0	0	0	9.81	0	0	-9.81	0	0	0	0	0	-9.81	0	0	0	0	9.81	0
3.1	0.0003851035	-53.70394	-6.205316	0.002476776	1.780421E-08	-3.770317E-10	0.0003852782	-53.70394	-6.205312	0.002476776	1.780768E-08	-3.372426E-10	54.06125	0.002476776	8.004125E-08	-3.415095E-06	9.204745E-07	-20	0	0	0	0	0	0	0	2.621433E-09	50	4.61936E-05	0	0	0	0	0	0	15.03508	0	0	0	0	0	0	0	-1.370441E-08	9.81	-5.847216E-07	50	3.1	0	-9.81	0	0	0	0	0	-9.81	0	0	0	0	9.81	0	-1	0	0	-1	-1.118655	18.18164	-12.29295	0.5884283	-60.45268	2.497696	0	-1	-1	0	-9.81	0	0	0	0	0	-9.81	0	0	0	0	9.81	0	0	-9.81	0	0	0	0	0	-9.81	0	0	0	0	9.81	0
3.2	-0.0007663838	-53.7117	-6.21578	0.002557172	-3.644326E-08	-3.772538E-10	-0.0007662089	-53.7117	-6.215777	0.002557172	-3.643969E-08	-3.361698E-10	54.07016	0.002557172	8.004125E-08	-3.415095E-06	9.204745E-07	-20	0	0	0	0	0	0	0	2.621433E-09	50	4.768372E-05	0	0	0	0	0	0	15.03508	0	0	0	0	0	0	0	-1.370441E-08	9.81	-5.847216E-07	50	3.2	0	-9.81	0	0	0	0	0	-9.81	0	0	0	0	9.81	0	-1	0	0	-1	-1.130783	18.91161	-13.4446	0.6118754	-66.1353	2.401239	0	-1	-1	0	-9.81	0	0	0	0	0	-9.81	0	0	0	0	9.81	0	0	-9.81	0	0	0	0	0	-9.81	0	0	0	0	9.81	0
3.3	0.0003301486	-53.70521	-6.204623	0.002636887	1.625364E-08	-3.77115E-10	0.0003303233	-53.70521	-6.204619	0.002636887	1.625732E-08	-3.347535E-10	54.06244	0.002636887	8.004125E-08	-3.415095E-06	9.204745E-07	-20	0	0	0	0	0	0	0	2.621433E-09	50	4.917383E-05	0	0	0	0	0	0	15.03508	0	0	0	0	0	0	0	-1.370441E-08	9.81	-5.847216E-07	50	3.3	0	-9.81	0	0	0	0	0	-9.81	0	0	0	0	9.81	0	-1	0	0	-1	-1.118335	18.17832	-12.28512	0.5883203	-60.41426	2.498134	0	-1	-1	0	-9.81	0	0	0	0	0	-9.81	0	0	0	0	9.81	0	0	-9.81	0	0	0	0	0	-9.81	0	0	0	0	9.81	0
3.4	-0.0007588866	-53.70553	-6.217445	0.00271693	-3.834799E-08	-3.770317E-10	-0.0007587117	-53.70553	-6.217442	0.00271693	-3.834419E-08	-3.333811E-10	54.06422	0.00271693	8.004125E-08	-3.415095E-06	9.204745E-07	-20	0	0	0	0	0	0	0	2.621433E-09	50	5.066395E-05	0	0	0	0	0	0	15.03508	0	0	0	0	0	0	0	-1.370441E-08	9.81	-5.847216E-07	50	3.4	0	-9.81	0	0	0	0	0	-9.81	0	0	0	0	9.81	0	-1	0	0	-1	-1.130679	18.91434	-13.44672	0.6120313	-66.13847	2.400939	0	-1	-1	0	-9.81	0	0	0	0	0	-9.81	0	0	0	0	9.81	0	0	-9.81	0	0	0	0	0	-9.81	0	0	0	0	9.81	0
3.5	0.0002694358	-53.71072	-6.203099	0.002797231	1.407564E-08	-3.77115E-10	0.0002696105	-53.71072	-6.203096	0.002797231	1.407955E-08	-3.321774E-10	54.06773	0.002797231	8.004125E-08	-3.415095E-06	9.204745E-07	-20	0	0	0	0	0	0	0	2.621433E-09	50	5.215406E-05	0	0	0	0	0	0	15.03508	0	0	0	0	0	0	0	-1.370441E-08	9.81	-5.847216E-07	50	3.5	0	-9.81	0	0	0	0	0	-9.81	0	0	0	0	9.81	0	-1	0	0	-1	-1.118115	18.17521	-12.27887	0.5882198	-60.3835	2.498524	0	-1	-1	0	-9.81	0	0	0	0	0	-9.81	0	0	0	0	9.81	0	0	-9.81	0	0	0	0	0	-9.81	0	0	0	0	9.81	0
3.6	-0.0007474208	-53.70698	-6.216786	0.002877066	-3.999542E-08	-3.771427E-10	-0.0007472459	-53.70698	-6.216783	0.002877066	-3.99914E-08	-3.309194E-10	54.06559	0.002877066	8.004125E-08	-3.415095E-06	9.204745E-07	-20	0	0	0	0	0	0	0	2.621433E-09	50	5.364418E-05	0	0	0	0	0	0	15.03508	0	0	0	0	0	0	0	-1.370441E-08	9.81	-5.847216E-07	50	3.6	0	-9.81	0	0	0	0	0	-9.81	0	0	0	0	9.81	0	-1	0	0	-1	-1.130544	18.91471	-13.44584	0.6121271	-66.12506	2.400874	0	-1	-1	0	-9.81	0	0	0	0	0	-9.81	0	0	0	0	9.81	0	0	-9.81	0	0	0	0	0	-9.81	0	0	0	0	9.81	0
3.7	0.0002044579	-53.70366	-6.204988	0.002956913	1.130099E-08	-3.770872E-10	0.0002046326	-53.70366	-6.204985	0.002956913	1.130512E-08	-3.295842E-10	54.06094	0.002956913	8.004125E-08	-3.415095E-06	9.204745E-07	-20	0	0	0	0	0	0	0	2.621433E-09	50	5.51343E-05	0	0	0	0	0	0	15.03508	0	0	0	0	0	0	0	-1.370441E-08	9.81	-5.847216E-07	50	3.7	0	-9.81	0	0	0	0	0	-9.81	0	0	0	0	9.81	0	-1	0	0	-1	-1.118047	18.17209	-12.27342	0.5880967	-60.35898	2.499003	0	-1	-1	0	-9.81	0	0	0	0	0	-9.81	0	0	0	0	9.81	0	0	-9.81	0	0	0	0	0	-9.81	0	0	0	0	9.81	0
3.8	-0.0007326485	-53.71151	-6.21562	0.003037377	-4.138753E-08	-3.772538E-10	-0.0007324736	-53.71151	-6.215617	0.003037377	-4.138329E-08	-3.284549E-10	54.06996	0.003037377	8.004125E-08	-3.415095E-06	9.204745E-07	-20	0	0	0	0	0	0	0	2.621433E-09	50	5.662441E-05	0	0	0	0	0	0	15.03508	0	0	0	0	0	0	0	-1.370441E-08	9.81	-5.847216E-07	50	3.8	0	-9.81	0	0	0	0	0	-9.81	0	0	0	0	9.81	0	-1	0	0	-1	-1.130418	18.912	-13.44088	0.6121292	-66.09101	2.401182	0	-1	-1	0	-9.81	0	0	0	0	0	-9.81	0	0	0	0	9.81	0	0	-9.81	0	0	0	0	0	-9.81	0	0	0	0	9.81	0
3.9	0.0001373834	-53.70625	-6.204102	0.003117111	8.017301E-09	-3.770872E-10	0.0001375581	-53.70625	-6.204098	0.003117111	8.021656E-09	-3.270103E-10	54.06341	0.003117111	8.004125E-08	-3.415095E-06	9.204745E-07	-20	0	0	0	0	0	0	0	2.621433E-09	50	5.811453E-05	0	0	0	0	0	0	15.03508	0	0	0	0	0	0	0	-1.370441E-08	9.81	-5.847216E-07	50	3.9	0	-9.81	0	0	0	0	0	-9.81	0	0	0	0	9.81	0	-1	0	0	-1	-1.117968	18.16969	-12.26951	0.5880156	-60.3401	2.499313	0	-1	-1	0	-9.81	0	0	0	0	0	-9.81	0	0	0	0	9.81	0	0	-9.81	0	0	0	0	0	-9.81	0	0	0	0	9.81	0
4	-0.0007147651	-53.70504	-6.217267	0.003197066	-4.250641E-08	-3.771427E-10	-0.0007145902	-53.70504	-6.217263	0.003197066	-4.250195E-08	-3.257783E-10	54.06372	0.003197066	8.004125E-08	-3.415095E-06	9.204745E-07	-20	0	0	0	0	0	0	0	2.621433E-09	50	5.960464E-05	0	0	0	0	0	0	15.03508	0	0	0	0	0	0	0	-1.370441E-08	9.81	-5.847216E-07	50	4	0	-9.81	0	0	0	0	0	-9.81	0	0	0	0	9.81	0	-1	0	0	-1	-1.130387	18.90643	-13.43207	0.6120145	-66.04057	2.401938	0	-1	-1	0	-9.81	0	0	0	0	0	-9.81	0	0	0	0	9.81	0	0	-9.81	0	0	0	0	0	-9.81	0	0	0	0	9.81	0
4.1	6.785223E-05	-53.70782	-6.203923	0.003277262	4.183924E-09	-3.77115E-10	6.802693E-05	-53.70782	-6.203919	0.003277262	4.188502E-09	-3.24465E-10	54.06495	0.003277262	8.004125E-08	-3.415095E-06	9.204745E-07	-20	0	0	0	0	0	0	0	2.621433E-09	50	6.109476E-05	0	0	0	0	0	0	15.03508	0	0	0	0	0	0	0	-1.370441E-08	9.81	-5.847216E-07	50	4.1	0	-9.81	0	0	0	0	0	-9.81	0	0	0	0	9.81	0	-1	0	0	-1	-1.117922	18.16713	-12.26572	0.5879361	-60.32111	2.499647	0	-1	-1	0	-9.81	0	0	0	0	0	-9.81	0	0	0	0	9.81	0	0	-9.81	0	0	0	0	0	-9.81	0	0	0	0	9.81	0
4.2	-0.0006955886	-53.7079	-6.216276	0.003357298	-4.343786E-08	-3.771427E-10	-0.0006954137	-53.7079	-6.216272	0.003357298	-4.343317E-08	-3.232041E-10	54.06645	0.003357298	8.004125E-08	-3.415095E-06	9.204745E-07	-20	0	0	0	0	0	0	0	2.621433E-09	50	6.258488E-05	0	0	0	0	0	0	15.03508	0	0	0	0	0	0	0	-1.370441E-08	9.81	-5.847216E-07	50	4.2	0	-9.81	0	0	0	0	0	-9.81	0	0	0	0	9.81	0	-1	0	0	-1	-1.130316	18.89829	-13.41988	0.6118363	-65.97144	2.402952	0	-1	-1	0	-9.81	0	0	0	0	0	-9.81	0	0	0	0	9.81	0	0	-9.81	0	0	0	0	0	-9.81	0	0	0	0	9.81	0
4.3	-2.880823E-06	-53.70417	-6.204809	0.003437093	-1.408066E-10	-3.770872E-10	-2.706117E-06	-53.70417	-6.204806	0.003437093	-1.360051E-10	-3.218693E-10	54.06142	0.003437093	8.004125E-08	-3.415095E-06	9.204745E-07	-20	0	0	0	0	0	0	0	2.621433E-09	50	6.407499E-05	0	0	0	0	0	0	15.03508	0	0	0	0	0	0	0	-1.370441E-08	9.81	-5.847216E-07	50	4.3	0	-9.81	0	0	0	0	0	-9.81	0	0	0	0	9.81	0	-1	0	0	-1	-1.117945	18.16514	-12.26294	0.5878643	-60.30817	2.499956	0	-1	-1	0	-9.81	0	0	0	0	0	-9.81	0	0	0	0	9.81	0	0	-9.81	0	0	0	0	0	-9.81	0	0	0	0	9.81	0
4.4	-0.0006745391	-53.70466	-6.217378	0.003517147	-4.413231E-08	-3.770317E-10	-0.0006743642	-53.70466	-6.217375	0.003517147	-4.412739E-08	-3.20525E-10	54.06336	0.003517147	8.004125E-08	-3.415095E-06	9.204745E-07	-20	0	0	0	0	0	0	0	2.621433E-09	50	6.556511E-05	0	0	0	0	0	0	15.03508	0	0	0	0	0	0	0	-1.370441E-08	9.81	-5.847216E-07	50	4.4	0	-9.81	0	0	0	0	0	-9.81	0	0	0	0	9.81	0	-1	0	0	-1	-1.130309	18.88685	-13.40322	0.6115374	-65.88185	2.404438	0	-1	-1	0	-9.81	0	0	0	0	0	-9.81	0	0	0	0	9.81	0	0	-9.81	0	0	0	0	0	-9.81	0	0	0	0	9.81	0
4.5	-7.536726E-05	-53.70763	-6.203714	0.003597372	-5.00459E-09	-3.77115E-10	-7.519256E-05	-53.70763	-6.203711	0.003597372	-4.999565E-09	-3.193218E-10	54.06474	0.003597372	8.004125E-08	-3.415095E-06	9.204745E-07	-20	0	0	0	0	0	0	0	2.621433E-09	50	6.705523E-05	0	0	0	0	0	0	15.03508	0	0	0	0	0	0	0	-1.370441E-08	9.81	-5.847216E-07	50	4.5	0	-9.81	0	0	0	0	0	-9.81	0	0	0	0	9.81	0	-1	0	0	-1	-1.117929	18.16301	-12.26013	0.5878128	-60.29261	2.500225	0	-1	-1	0	-9.81	0	0	0	0	0	-9.81	0	0	0	0	9.81	0	0	-9.81	0	0	0	0	0	-9.81	0	0	0	0	9.81	0
4.6	-0.0006526411	-53.70541	-6.217051	0.003677254	-4.46432E-08	-3.770872E-10	-0.0006524661	-53.70541	-6.217047	0.003677254	-4.463807E-08	-3.180083E-10	54.06406	0.003677254	8.004125E-08	-3.415095E-06	9.204745E-07	-20	0	0	0	0	0	0	0	2.621433E-09	50	6.854534E-05	0	0	0	0	0	0	15.03508	0	0	0	0	0	0	0	-1.370441E-08	9.81	-5.847216E-07	50	4.6	0	-9.81	0	0	0	0	0	-9.81	0	0	0	0	9.81	0	-1	0	0	-1	-1.130283	18.87295	-13.38333	0.6111698	-65.77518	2.406196	0	-1	-1	0	-9.81	0	0	0	0	0	-9.81	0	0	0	0	9.81	0	0	-9.81	0	0	0	0	0	-9.81	0	0	0	0	9.81	0
4.7	-0.0001493755	-53.70382	-6.205025	0.00375717	-1.040688E-08	-3.770733E-10	-0.0001492007	-53.70382	-6.205022	0.00375717	-1.040163E-08	-3.167126E-10	54.0611	0.00375717	8.004125E-08	-3.415095E-06	9.204745E-07	-20	0	0	0	0	0	0	0	2.621433E-09	50	7.003546E-05	0	0	0	0	0	0	15.03508	0	0	0	0	0	0	0	-1.370441E-08	9.81	-5.847216E-07	50	4.7	0	-9.81	0	0	0	0	0	-9.81	0	0	0	0	9.81	0	-1	0	0	-1	-1.117952	18.16003	-12.25601	0.5877341	-60.27052	2.500671	0	-1	-1	0	-9.81	0	0	0	0	0	-9.81	0	0	0	0	9.81	0	0	-9.81	0	0	0	0	0	-9.81	0	0	0	0	9.81	0
4.8	-0.0006307483	-53.70942	-6.215858	0.003837595	-4.502401E-08	-3.770872E-10	-0.0006305734	-53.70942	-6.215855	0.003837595	-4.501865E-08	-3.154324E-10	54.06791	0.003837595	8.004125E-08	-3.415095E-06	9.204745E-07	-20	0	0	0	0	0	0	0	2.621433E-09	50	7.152557E-05	0	0	0	0	0	0	15.03508	0	0	0	0	0	0	0	-1.370441E-08	9.81	-5.847216E-07	50	4.8	0	-9.81	0	0	0	0	0	-9.81	0	0	0	0	9.81	0	-1	0	0	-1	-1.130263	18.85626	-13.35973	0.6107162	-65.64988	2.408299	0	-1	-1	0	-9.81	0	0	0	0	0	-9.81	0	0	0	0	9.81	0	0	-9.81	0	0	0	0	0	-9.81	0	0	0	0	9.81	0
4.9	-0.0002253101	-53.70469	-6.204675	0.003917288	-1.639082E-08	-3.771427E-10	-0.0002251353	-53.70469	-6.204672	0.003917288	-1.638535E-08	-3.142093E-10	54.06193	0.003917288	8.004125E-08	-3.415095E-06	9.204745E-07	-20	0	0	0	0	0	0	0	2.621433E-09	50	7.301569E-05	0	0	0	0	0	0	15.03508	0	0	0	0	0	0	0	-1.370441E-08	9.81	-5.847216E-07	50	4.9	0	-9.81	0	0	0	0	0	-9.81	0	0	0	0	9.81	0	-1	0	0	-1	-1.117948	18.15641	-12.25123	0.5876591	-60.24271	2.501154	0	-1	-1	0	-9.81	0	0	0	0	0	-9.81	0	0	0	0	9.81	0	0	-9.81	0	0	0	0	0	-9.81	0	0	0	0	9.81	0
5	-0.0006089733	-53.70493	-6.217356	0.003997327	-4.5283E-08	-3.770872E-10	-0.0006087983	-53.70493	-6.217352	0.003997327	-4.527741E-08	-3.128662E-10	54.06362	0.003997327	8.004125E-08	-3.415095E-06	9.204745E-07	-20	0	0	0	0	0	0	0	2.621433E-09	50	7.450581E-05	0	0	0	0	0	0	15.03508	0	0	0	0	0	0	0	-1.370441E-08	9.81	-5.847216E-07	50	5	0	-9.81	0	0	0	0	0	-9.81	0	0	0	0	9.81	0	-1	0	0	-1	-1.130319	18.83635	-13.33178	0.6101408	-65.50509	2.410882	0	-1	-1	0	-9.81	0	0	0	0	0	-9.81	0	0	0	0	9.81	0	0	-9.81	0	0	0	0	0	-9.81	0	0	0	0	9.81	0
5.1	-0.0003017555	-53.70941	-6.203356	0.004077694	-2.286615E-08	-3.771705E-10	-0.0003015808	-53.70941	-6.203353	0.004077694	-2.286045E-08	-3.116597E-10	54.06646	0.004077694	8.004125E-08	-3.415095E-06	9.204745E-07	-20	0	0	0	0	0	0	0	2.621433E-09	50	7.599592E-05	0	0	0	0	0	0	15.03508	0	0	0	0	0	0	0	-1.370441E-08	9.81	-5.847216E-07	50	5.1	0	-9.81	0	0	0	0	0	-9.81	0	0	0	0	9.81	0	-1	0	0	-1	-1.117953	18.15149	-12.24495	0.5875603	-60.20558	2.501801	0	-1	-1	0	-9.81	0	0	0	0	0	-9.81	0	0	0	0	9.81	0	0	-9.81	0	0	0	0	0	-9.81	0	0	0	0	9.81	0
5.2	-0.0005884866	-53.70599	-6.216983	0.00415746	-4.551198E-08	-3.770872E-10	-0.0005883116	-53.70599	-6.21698	0.00415746	-4.550617E-08	-3.102936E-10	54.06463	0.00415746	8.004125E-08	-3.415095E-06	9.204745E-07	-20	0	0	0	0	0	0	0	2.621433E-09	50	7.748604E-05	0	0	0	0	0	0	15.03508	0	0	0	0	0	0	0	-1.370441E-08	9.81	-5.847216E-07	50	5.2	0	-9.81	0	0	0	0	0	-9.81	0	0	0	0	9.81	0	-1	0	0	-1	-1.130349	18.81393	-13.30059	0.6094975	-65.34296	2.413739	0	-1	-1	0	-9.81	0	0	0	0	0	-9.81	0	0	0	0	9.81	0	0	-9.81	0	0	0	0	0	-9.81	0	0	0	0	9.81	0
5.3	-0.0003774298	-53.70415	-6.205107	0.004237343	-2.973625E-08	-3.770872E-10	-0.0003772551	-53.70415	-6.205104	0.004237343	-2.973033E-08	-3.090112E-10	54.06144	0.004237343	8.004125E-08	-3.415095E-06	9.204745E-07	-20	0	0	0	0	0	0	0	2.621433E-09	50	7.897615E-05	0	0	0	0	0	0	15.03508	0	0	0	0	0	0	0	-1.370441E-08	9.81	-5.847216E-07	50	5.3	0	-9.81	0	0	0	0	0	-9.81	0	0	0	0	9.81	0	-1	0	0	-1	-1.118055	18.14412	-12.2357	0.5873823	-60.15396	2.50286	0	-1	-1	0	-9.81	0	0	0	0	0	-9.81	0	0	0	0	9.81	0	0	-9.81	0	0	0	0	0	-9.81	0	0	0	0	9.81	0
5.4	-0.0005696868	-53.71132	-6.21559	0.004317946	-4.575445E-08	-3.770872E-10	-0.0005695118	-53.71132	-6.215587	0.004317946	-4.574842E-08	-3.077154E-10	54.06976	0.004317946	8.004125E-08	-3.415095E-06	9.204745E-07	-20	0	0	0	0	0	0	0	2.621433E-09	50	8.046627E-05	0	0	0	0	0	0	15.03508	0	0	0	0	0	0	0	-1.370441E-08	9.81	-5.847216E-07	50	5.4	0	-9.81	0	0	0	0	0	-9.81	0	0	0	0	9.81	0	-1	0	0	-1	-1.130383	18.78891	-13.266	0.6087729	-65.16379	2.416921	0	-1	-1	0	-9.81	0	0	0	0	0	-9.81	0	0	0	0	9.81	0	0	-9.81	0	0	0	0	0	-9.81	0	0	0	0	9.81	0
5.5	-0.0004494804	-53.70538	-6.204809	0.004397494	-3.676073E-08	-3.770872E-10	-0.0004493057	-53.70538	-6.204806	0.004397494	-3.675459E-08	-3.064379E-10	54.06262	0.004397494	8.004125E-08	-3.415095E-06	9.204745E-07	-20	0	0	0	0	0	0	0	2.621433E-09	50	8.195639E-05	0	0	0	0	0	0	15.03508	0	0	0	0	0	0	0	-1.370441E-08	9.81	-5.847216E-07	50	5.5	0	-9.81	0	0	0	0	0	-9.81	0	0	0	0	9.81	0	-1	0	0	-1	-1.118157	18.1346	-12.22416	0.5871662	-60.08778	2.504157	0	-1	-1	0	-9.81	0	0	0	0	0	-9.81	0	0	0	0	9.81	0	0	-9.81	0	0	0	0	0	-9.81	0	0	0	0	9.81	0
5.6	-0.0005531365	-53.70537	-6.217505	0.004477522	-4.607245E-08	-3.770872E-10	-0.0005529616	-53.70537	-6.217502	0.004477522	-4.606619E-08	-3.051517E-10	54.06407	0.004477522	8.004125E-08	-3.415095E-06	9.204745E-07	-20	0	0	0	0	0	0	0	2.621433E-09	50	8.34465E-05	0	0	0	0	0	0	15.03508	0	0	0	0	0	0	0	-1.370441E-08	9.81	-5.847216E-07	50	5.6	0	-9.81	0	0	0	0	0	-9.81	0	0	0	0	9.81	0	-1	0	0	-1	-1.130511	18.76059	-13.22702	0.6079223	-64.96514	2.420617	0	-1	-1	0	-9.81	0	0	0	0	0	-9.81	0	0	0	0	9.81	0	0	-9.81	0	0	0	0	0	-9.81	0	0	0	0	9.81	0
5.7	-0.000515902	-53.71091	-6.203677	0.004558024	-4.373698E-08	-3.770872E-10	-0.0005157273	-53.71091	-6.203673	0.004558024	-4.373062E-08	-3.038585E-10	54.06799	0.004558024	8.004125E-08	-3.415095E-06	9.204745E-07	-20	0	0	0	0	0	0	0	2.621433E-09	50	8.493662E-05	0	0	0	0	0	0	15.03508	0	0	0	0	0	0	0	-1.370441E-08	9.81	-5.847216E-07	50	5.7	0	-9.81	0	0	0	0	0	-9.81	0	0	0	0	9.81	0	-1	0	0	-1	-1.118325	18.12192	-12.20926	0.5868711	-60.00271	2.505872	0	-1	-1	0	-9.81	0	0	0	0	0	-9.81	0	0	0	0	9.81	0	0	-9.81	0	0	0	0	0	-9.81	0	0	0	0	9.81	0
5.8	-0.0005398339	-53.70688	-6.217058	0.004637706	-4.657219E-08	-3.771427E-10	-0.0005396589	-53.70688	-6.217054	0.004637706	-4.656571E-08	-3.026338E-10	54.06553	0.004637706	8.004125E-08	-3.415095E-06	9.204745E-07	-20	0	0	0	0	0	0	0	2.621433E-09	50	8.642673E-05	0	0	0	0	0	0	15.03508	0	0	0	0	0	0	0	-1.370441E-08	9.81	-5.847216E-07	50	5.8	0	-9.81	0	0	0	0	0	-9.81	0	0	0	0	9.81	0	-1	0	0	-1	-1.130607	18.72986	-13.18505	0.6070089	-64.75025	2.424568	0	-1	-1	0	-9.81	0	0	0	0	0	-9.81	0	0	0	0	9.81	0	0	-9.81	0	0	0	0	0	-9.81	0	0	0	0	9.81	0
5.9	-0.0005708434	-53.70393	-6.20618	0.004717479	-5.010064E-08	-3.770317E-10	-0.0005706687	-53.70393	-6.206177	0.004717479	-5.009405E-08	-3.012409E-10	54.06134	0.004717479	8.004125E-08	-3.415095E-06	9.204745E-07	-20	0	0	0	0	0	0	0	2.621433E-09	50	8.791685E-05	0	0	0	0	0	0	15.03508	0	0	0	0	0	0	0	-1.370441E-08	9.81	-5.847216E-07	50	5.9	0	-9.81	0	0	0	0	0	-9.81	0	0	0	0	9.81	0	-1	0	0	-1	-1.118704	18.10498	-12.19009	0.5864323	-59.89728	2.508266	0	-1	-1	0	-9.81	0	0	0	0	0	-9.81	0	0	0	0	9.81	0	0	-9.81	0	0	0	0	0	-9.81	0	0	0	0	9.81	0
6	-0.0005298964	-53.71177	-6.216089	0.004798203	-4.729328E-08	-3.770872E-10	-0.0005297214	-53.71177	-6.216086	0.004798203	-4.728657E-08	-2.999998E-10	54.07027	0.004798203	8.004125E-08	-3.415095E-06	9.204745E-07	-20	0	0	0	0	0	0	0	2.621433E-09	50	8.940697E-05	0	0	0	0	0	0	15.03508	0	0	0	0	0	0	0	-1.370441E-08	9.81	-5.847216E-07	50	6	0	-9.81	0	0	0	0	0	-9.81	0	0	0	0	9.81	0	-1	0	0	-1	-1.130716	18.69641	-13.13964	0.6060126	-64.51788	2.428872	0	-1	-1	0	-9.81	0	0	0	0	0	-9.81	0	0	0	0	9.81	0	0	-9.81	0	0	0	0	0	-9.81	0	0	0	0	9.81	0
6.1	-0.0006061974	-53.70656	-6.206217	0.004877769	-5.501282E-08	-3.770872E-10	-0.0006060227	-53.70656	-6.206214	0.004877769	-5.500601E-08	-2.987211E-10	54.06396	0.004877769	8.004125E-08	-3.415095E-06	9.204745E-07	-20	0	0	0	0	0	0	0	2.621433E-09	50	9.089708E-05	0	0	0	0	0	0	15.03508	0	0	0	0	0	0	0	-1.370441E-08	9.81	-5.847216E-07	50	6.1	0	-9.81	0	0	0	0	0	-9.81	0	0	0	0	9.81	0	-1	0	0	-1	-1.119244	18.08405	-12.16798	0.5858887	-59.77497	2.511149	0	-1	-1	0	-9.81	0	0	0	0	0	-9.81	0	0	0	0	9.81	0	0	-9.81	0	0	0	0	0	-9.81	0	0	0	0	9.81	0
6.2	-0.0005246035	-53.70524	-6.218056	0.004957677	-4.838391E-08	-3.770872E-10	-0.0005244286	-53.70524	-6.218053	0.004957677	-4.837698E-08	-2.974377E-10	54.06401	0.004957677	8.004125E-08	-3.415095E-06	9.204745E-07	-20	0	0	0	0	0	0	0	2.621433E-09	50	9.23872E-05	0	0	0	0	0	0	15.03508	0	0	0	0	0	0	0	-1.370441E-08	9.81	-5.847216E-07	50	6.2	0	-9.81	0	0	0	0	0	-9.81	0	0	0	0	9.81	0	-1	0	0	-1	-1.130932	18.66002	-13.09053	0.6048977	-64.26987	2.433656	0	-1	-1	0	-9.81	0	0	0	0	0	-9.81	0	0	0	0	9.81	0	0	-9.81	0	0	0	0	0	-9.81	0	0	0	0	9.81	0
6.3	-0.0006071861	-53.70911	-6.207261	0.005038065	-5.691217E-08	-3.771427E-10	-0.0006070114	-53.70911	-6.207257	0.005038065	-5.690513E-08	-2.962013E-10	54.06662	0.005038065	8.004125E-08	-3.415095E-06	9.204745E-07	-20	0	0	0	0	0	0	0	2.621433E-09	50	9.387732E-05	0	0	0	0	0	0	15.03508	0	0	0	0	0	0	0	-1.370441E-08	9.81	-5.847216E-07	50	6.3	0	-9.81	0	0	0	0	0	-9.81	0	0	0	0	9.81	0	-1	0	0	-1	-1.120146	18.05816	-12.14316	0.5851789	-59.63986	2.514728	0	-1	-1	0	-9.81	0	0	0	0	0	-9.81	0	0	0	0	9.81	0	0	-9.81	0	0	0	0	0	-9.81	0	0	0	0	9.81	0
6.4	-0.0005248302	-53.70822	-6.217341	0.00511801	-4.996894E-08	-3.771427E-10	-0.0005246553	-53.70822	-6.217338	0.00511801	-4.996179E-08	-2.949173E-10	54.06688	0.00511801	8.004125E-08	-3.415095E-06	9.204745E-07	-20	0	0	0	0	0	0	0	2.621433E-09	50	9.536743E-05	0	0	0	0	0	0	15.03508	0	0	0	0	0	0	0	-1.370441E-08	9.81	-5.847216E-07	50	6.4	0	-9.81	0	0	0	0	0	-9.81	0	0	0	0	9.81	0	-1	0	0	-1	-1.131124	18.62125	-13.03861	0.6037216	-64.00643	2.438703	0	-1	-1	0	-9.81	0	0	0	0	0	-9.81	0	0	0	0	9.81	0	0	-9.81	0	0	0	0	0	-9.81	0	0	0	0	9.81	0
6.5	-0.0005475011	-53.70533	-6.21077	0.005197762	-5.29452E-08	-3.770317E-10	-0.0005473263	-53.70533	-6.210766	0.005197762	-5.293794E-08	-2.935249E-10	54.06326	0.005197762	8.004125E-08	-3.415095E-06	9.204745E-07	-20	0	0	0	0	0	0	0	2.621433E-09	50	9.685755E-05	0	0	0	0	0	0	15.03508	0	0	0	0	0	0	0	-1.370441E-08	9.81	-5.847216E-07	50	6.5	0	-9.81	0	0	0	0	0	-9.81	0	0	0	0	9.81	0	-1	0	0	-1	-1.12173	18.02837	-12.11987	0.5842863	-59.51804	2.518922	0	-1	-1	0	-9.81	0	0	0	0	0	-9.81	0	0	0	0	9.81	0	0	-9.81	0	0	0	0	0	-9.81	0	0	0	0	9.81	0
6.6	-0.0005313478	-53.70515	-6.218764	0.005277776	-5.217354E-08	-3.769762E-10	-0.0005311728	-53.70515	-6.218761	0.005277776	-5.216617E-08	-2.92184E-10	54.06401	0.005277776	8.004125E-08	-3.415095E-06	9.204745E-07	-20	0	0	0	0	0	0	0	2.621433E-09	50	9.834766E-05	0	0	0	0	0	0	15.03508	0	0	0	0	0	0	0	-1.370441E-08	9.81	-5.847216E-07	50	6.6	0	-9.81	0	0	0	0	0	-9.81	0	0	0	0	9.81	0	-1	0	0	-1	-1.131433	18.57992	-12.98332	0.6024314	-63.72972	2.444224	0	-1	-1	0	-9.81	0	0	0	0	0	-9.81	0	0	0	0	9.81	0	0	-9.81	0	0	0	0	0	-9.81	0	0	0	0	9.81	0
6.7	-0.0003824258	-53.70961	-6.21375	0.005358244	-3.81084E-08	-3.770872E-10	-0.0003822509	-53.70961	-6.213747	0.005358244	-3.810092E-08	-2.910031E-10	54.06785	0.005358244	8.004125E-08	-3.415095E-06	9.204745E-07	-20	0	0	0	0	0	0	0	2.621433E-09	50	9.983778E-05	0	0	0	0	0	0	15.03508	0	0	0	0	0	0	0	-1.370441E-08	9.81	-5.847216E-07	50	6.7	0	-9.81	0	0	0	0	0	-9.81	0	0	0	0	9.81	0	-1	0	0	-1	-1.124317	17.99585	-12.10427	0.5832291	-59.44176	2.52345	0	-1	-1	0	-9.81	0	0	0	0	0	-9.81	0	0	0	0	9.81	0	0	-9.81	0	0	0	0	0	-9.81	0	0	0	0	9.81	0
6.8	-0.0005448411	-53.70603	-6.218801	0.005437916	-5.512332E-08	-3.769762E-10	-0.0005446661	-53.70603	-6.218798	0.005437916	-5.511572E-08	-2.896111E-10	54.06488	0.005437916	8.004125E-08	-3.415095E-06	9.204745E-07	-20	0	0	0	0	0	0	0	2.621433E-09	50	0.0001013279	0	0	0	0	0	0	15.03508	0	0	0	0	0	0	0	-1.370441E-08	9.81	-5.847216E-07	50	6.8	0	-9.81	0	0	0	0	0	-9.81	0	0	0	0	9.81	0	-1	0	0	-1	-1.131695	18.53531	-12.92488	0.601082	-63.43262	2.450027	0	-1	-1	0	-9.81	0	0	0	0	0	-9.81	0	0	0	0	9.81	0	0	-9.81	0	0	0	0	0	-9.81	0	0	0	0	9.81	0
6.9	-5.095935E-05	-53.70743	-6.221521	0.00551809	-5.192057E-09	-3.771011E-10	-5.078437E-05	-53.70743	-6.221518	0.00551809	-5.184348E-09	-2.88451E-10	54.06659	0.00551809	8.004125E-08	-3.415095E-06	9.204745E-07	-20	0	0	0	0	0	0	0	2.621433E-09	50	0.000102818	0	0	0	0	0	0	15.03508	0	0	0	0	0	0	0	-1.370441E-08	9.81	-5.847216E-07	50	6.9	0	-9.81	0	0	0	0	0	-9.81	0	0	0	0	9.81	0	-1	0	0	-1	-1.128696	17.96373	-12.10774	0.5819923	-59.47884	2.527997	0	-1	-1	0	-9.81	0	0	0	0	0	-9.81	0	0	0	0	9.81	0	0	-9.81	0	0	0	0	0	-9.81	0	0	0	0	9.81	0
7	-0.0005664529	-53.71015	-6.217982	0.005598402	-5.89998E-08	-3.771427E-10	-0.000566278	-53.71015	-6.217978	0.005598402	-5.899198E-08	-2.871992E-10	54.06887	0.005598402	8.004125E-08	-3.415095E-06	9.204745E-07	-20	0	0	0	0	0	0	0	2.621433E-09	50	0.0001043081	0	0	0	0	0	0	15.03508	0	0	0	0	0	0	0	-1.370441E-08	9.81	-5.847216E-07	50	7	0	-9.81	0	0	0	0	0	-9.81	0	0	0	0	9.81	0	-1	0	0	-1	-1.132036	18.48876	-12.86419	0.5996522	-63.12639	2.45617	0	-1	-1	0	-9.81	0	0	0	0	0	-9.81	0	0	0	0	9.81	0	0	-9.81	0	0	0	0	0	-9.81	0	0	0	0	9.81	0
7.1	0.0004895161	-53.71059	-6.230424	0.005678484	5.179723E-08	-3.771427E-10	0.0004896913	-53.71059	-6.230421	0.005678484	5.180516E-08	-2.859192E-10	54.07075	0.005678484	8.004125E-08	-3.415095E-06	9.204745E-07	-20	0	0	0	0	0	0	0	2.621433E-09	50	0.0001057982	0	0	0	0	0	0	15.03508	0	0	0	0	0	0	0	-1.370441E-08	9.81	-5.847216E-07	50	7.1	0	-9.81	0	0	0	0	0	-9.81	0	0	0	0	9.81	0	-1	0	0	-1	-1.13558	17.93921	-12.14849	0.5807259	-59.72754	2.531438	0	-1	-1	0	-9.81	0	0	0	0	0	-9.81	0	0	0	0	9.81	0	0	-9.81	0	0	0	0	0	-9.81	0	0	0	0	9.81	0
7.2	-0.0005973942	-53.70593	-6.219978	0.005758018	-6.400524E-08	-3.770317E-10	-0.0005972192	-53.70593	-6.219975	0.005758018	-6.39972E-08	-2.845236E-10	54.06492	0.005758018	8.004125E-08	-3.415095E-06	9.204745E-07	-20	0	0	0	0	0	0	0	2.621433E-09	50	0.0001072884	0	0	0	0	0	0	15.03508	0	0	0	0	0	0	0	-1.370441E-08	9.81	-5.847216E-07	50	7.2	0	-9.81	0	0	0	0	0	-9.81	0	0	0	0	9.81	0	-1	0	0	-1	-1.132506	18.43927	-12.80033	0.5981083	-62.80661	2.4628	0	-1	-1	0	-9.81	0	0	0	0	0	-9.81	0	0	0	0	9.81	0	0	-9.81	0	0	0	0	0	-9.81	0	0	0	0	9.81	0
7.3	0.00115635	-53.71783	-6.239417	0.005839341	1.257436E-07	-3.770317E-10	0.001156525	-53.71783	-6.239414	0.005839341	1.257518E-07	-2.832284E-10	54.07898	0.005839341	8.004125E-08	-3.415095E-06	9.204745E-07	-20	0	0	0	0	0	0	0	2.621433E-09	50	0.0001087785	0	0	0	0	0	0	15.03508	0	0	0	0	0	0	0	-1.370441E-08	9.81	-5.847216E-07	50	7.3	0	-9.81	0	0	0	0	0	-9.81	0	0	0	0	9.81	0	-1	0	0	-1	-1.145115	17.93274	-12.24196	0.5797164	-60.27013	2.53232	0	-1	-1	0	-9.81	0	0	0	0	0	-9.81	0	0	0	0	9.81	0	0	-9.81	0	0	0	0	0	-9.81	0	0	0	0	9.81	0
7.4	-0.0006394565	-53.70718	-6.220195	0.005918213	-7.042061E-08	-3.771427E-10	-0.0006392815	-53.70718	-6.220191	0.005918213	-7.041234E-08	-2.820606E-10	54.06618	0.005918213	8.004125E-08	-3.415095E-06	9.204745E-07	-20	0	0	0	0	0	0	0	2.621433E-09	50	0.0001102686	0	0	0	0	0	0	15.03508	0	0	0	0	0	0	0	-1.370441E-08	9.81	-5.847216E-07	50	7.4	0	-9.81	0	0	0	0	0	-9.81	0	0	0	0	9.81	0	-1	0	0	-1	-1.133022	18.38772	-12.73483	0.5965072	-62.47776	2.469688	0	-1	-1	0	-9.81	0	0	0	0	0	-9.81	0	0	0	0	9.81	0	0	-9.81	0	0	0	0	0	-9.81	0	0	0	0	9.81	0
7.5	0.001699377	-53.71462	-6.248671	0.00599907	1.898375E-07	-3.772538E-10	0.001699552	-53.71462	-6.248667	0.00599907	1.898458E-07	-2.808881E-10	54.07685	0.00599907	8.004125E-08	-3.415095E-06	9.204745E-07	-20	0	0	0	0	0	0	0	2.621433E-09	50	0.0001117587	0	0	0	0	0	0	15.03508	0	0	0	0	0	0	0	-1.370441E-08	9.81	-5.847216E-07	50	7.5	0	-9.81	0	0	0	0	0	-9.81	0	0	0	0	9.81	0	-1	0	0	-1	-1.155386	17.95545	-12.38265	0.5794718	-61.06573	2.52916	0	-1	-1	0	-9.81	0	0	0	0	0	-9.81	0	0	0	0	9.81	0	0	-9.81	0	0	0	0	0	-9.81	0	0	0	0	9.81	0
7.6	-0.0006942825	-53.71263	-6.219464	0.006078888	-7.853126E-08	-3.770317E-10	-0.0006941076	-53.71263	-6.219461	0.006078888	-7.852277E-08	-2.793678E-10	54.07151	0.006078888	8.004125E-08	-3.415095E-06	9.204745E-07	-20	0	0	0	0	0	0	0	2.621433E-09	50	0.0001132488	0	0	0	0	0	0	15.03508	0	0	0	0	0	0	0	-1.370441E-08	9.81	-5.847216E-07	50	7.6	0	-9.81	0	0	0	0	0	-9.81	0	0	0	0	9.81	0	-1	0	0	-1	-1.133631	18.33408	-12.66778	0.5948349	-62.14173	2.476881	0	-1	-1	0	-9.81	0	0	0	0	0	-9.81	0	0	0	0	9.81	0	0	-9.81	0	0	0	0	0	-9.81	0	0	0	0	9.81	0
7.7	0.00189631	-53.71646	-6.25034	0.006159363	2.174832E-07	-3.772538E-10	0.001896485	-53.71646	-6.250336	0.006159363	2.174918E-07	-2.783146E-10	54.07888	0.006159363	8.004125E-08	-3.415095E-06	9.204745E-07	-20	0	0	0	0	0	0	0	2.621433E-09	50	0.0001147389	0	0	0	0	0	0	15.03508	0	0	0	0	0	0	0	-1.370441E-08	9.81	-5.847216E-07	50	7.7	0	-9.81	0	0	0	0	0	-9.81	0	0	0	0	9.81	0	-1	0	0	-1	-1.162329	18.01313	-12.5374	0.5805852	-61.90858	2.521044	0	-1	-1	0	-9.81	0	0	0	0	0	-9.81	0	0	0	0	9.81	0	0	-9.81	0	0	0	0	0	-9.81	0	0	0	0	9.81	0
7.8	-0.0007638485	-53.70705	-6.222162	0.006238315	-8.868075E-08	-3.770317E-10	-0.0007636735	-53.70705	-6.222158	0.006238315	-8.867203E-08	-2.76806E-10	54.06628	0.006238315	8.004125E-08	-3.415095E-06	9.204745E-07	-20	0	0	0	0	0	0	0	2.621433E-09	50	0.0001162291	0	0	0	0	0	0	15.03508	0	0	0	0	0	0	0	-1.370441E-08	9.81	-5.847216E-07	50	7.8	0	-9.81	0	0	0	0	0	-9.81	0	0	0	0	9.81	0	-1	0	0	-1	-1.134449	18.27801	-12.59902	0.5930539	-61.80046	2.484526	0	-1	-1	0	-9.81	0	0	0	0	0	-9.81	0	0	0	0	9.81	0	0	-9.81	0	0	0	0	0	-9.81	0	0	0	0	9.81	0
7.9	0.001762534	-53.72137	-6.246406	0.006320031	2.073966E-07	-3.770317E-10	0.001762709	-53.72137	-6.246402	0.006320031	2.074054E-07	-2.755108E-10	54.0833	0.006320031	8.004125E-08	-3.415095E-06	9.204745E-07	-20	0	0	0	0	0	0	0	2.621433E-09	50	0.0001177192	0	0	0	0	0	0	15.03508	0	0	0	0	0	0	0	-1.370441E-08	9.81	-5.847216E-07	50	7.9	0	-9.81	0	0	0	0	0	-9.81	0	0	0	0	9.81	0	-1	0	0	-1	-1.163684	18.09704	-12.6696	0.5830063	-62.59181	2.509317	0	-1	-1	0	-9.81	0	0	0	0	0	-9.81	0	0	0	0	9.81	0	0	-9.81	0	0	0	0	0	-9.81	0	0	0	0	9.81	0
8	-0.000851416	-53.70883	-6.222758	0.006398593	-1.013896E-07	-3.770317E-10	-0.000851241	-53.70883	-6.222754	0.006398593	-1.013807E-07	-2.742303E-10	54.06812	0.006398593	8.004125E-08	-3.415095E-06	9.204745E-07	-20	0	0	0	0	0	0	0	2.621433E-09	50	0.0001192093	0	0	0	0	0	0	15.03508	0	0	0	0	0	0	0	-1.370441E-08	9.81	-5.847216E-07	50	8	0	-9.81	0	0	0	0	0	-9.81	0	0	0	0	9.81	0	-1	0	0	-1	-1.13539	18.22073	-12.53076	0.5912357	-61.46139	2.492318	0	-1	-1	0	-9.81	0	0	0	0	0	-9.81	0	0	0	0	9.81	0	0	-9.81	0	0	0	0	0	-9.81	0	0	0	0	9.81	0
8.1	0.001454258	-53.71317	-6.243843	0.006479145	1.754635E-07	-3.772538E-10	0.001454433	-53.71317	-6.243839	0.006479145	1.754726E-07	-2.731747E-10	54.07485	0.006479145	8.004125E-08	-3.415095E-06	9.204745E-07	-20	0	0	0	0	0	0	0	2.621433E-09	50	0.0001206994	0	0	0	0	0	0	15.03508	0	0	0	0	0	0	0	-1.370441E-08	9.81	-5.847216E-07	50	8.1	0	-9.81	0	0	0	0	0	-9.81	0	0	0	0	9.81	0	-1	0	0	-1	-1.160803	18.1906	-12.76872	0.5860961	-63.07331	2.496463	0	-1	-1	0	-9.81	0	0	0	0	0	-9.81	0	0	0	0	9.81	0	0	-9.81	0	0	0	0	0	-9.81	0	0	0	0	9.81	0
8.2	-0.0009614163	-53.71425	-6.222981	0.006559319	-1.173598E-07	-3.771427E-10	-0.0009612413	-53.71425	-6.222978	0.006559319	-1.173506E-07	-2.717582E-10	54.07352	0.006559319	8.004125E-08	-3.415095E-06	9.204745E-07	-20	0	0	0	0	0	0	0	2.621433E-09	50	0.0001221895	0	0	0	0	0	0	15.03508	0	0	0	0	0	0	0	-1.370441E-08	9.81	-5.847216E-07	50	8.2	0	-9.81	0	0	0	0	0	-9.81	0	0	0	0	9.81	0	-1	0	0	-1	-1.136542	18.16236	-12.4636	0.5893639	-61.12969	2.500291	0	-1	-1	0	-9.81	0	0	0	0	0	-9.81	0	0	0	0	9.81	0	0	-9.81	0	0	0	0	0	-9.81	0	0	0	0	9.81	0
8.3	0.001105325	-53.71437	-6.23827	0.006639369	1.366676E-07	-3.771427E-10	0.0011055	-53.71437	-6.238266	0.006639369	1.366769E-07	-2.704873E-10	54.07541	0.006639369	8.004125E-08	-3.415095E-06	9.204745E-07	-20	0	0	0	0	0	0	0	2.621433E-09	50	0.0001236796	0	0	0	0	0	0	15.03508	0	0	0	0	0	0	0	-1.370441E-08	9.81	-5.847216E-07	50	8.3	0	-9.81	0	0	0	0	0	-9.81	0	0	0	0	9.81	0	-1	0	0	-1	-1.156128	18.28115	-12.84443	0.5892764	-63.41897	2.484077	0	-1	-1	0	-9.81	0	0	0	0	0	-9.81	0	0	0	0	9.81	0	0	-9.81	0	0	0	0	0	-9.81	0	0	0	0	9.81	0
8.4	-0.001097388	-53.70802	-6.226632	0.006718615	-1.372343E-07	-3.771427E-10	-0.001097213	-53.70802	-6.226629	0.006718615	-1.372249E-07	-2.691979E-10	54.06775	0.006718615	8.004125E-08	-3.415095E-06	9.204745E-07	-20	0	0	0	0	0	0	0	2.621433E-09	50	0.0001251698	0	0	0	0	0	0	15.03508	0	0	0	0	0	0	0	-1.370441E-08	9.81	-5.847216E-07	50	8.4	0	-9.81	0	0	0	0	0	-9.81	0	0	0	0	9.81	0	-1	0	0	-1	-1.138068	18.10364	-12.39927	0.587425	-60.81765	2.508451	0	-1	-1	0	-9.81	0	0	0	0	0	-9.81	0	0	0	0	9.81	0	0	-9.81	0	0	0	0	0	-9.81	0	0	0	0	9.81	0
8.5	0.0007802172	-53.71609	-6.233576	0.006799673	9.880787E-08	-3.771427E-10	0.0007803924	-53.71609	-6.233572	0.006799673	9.881737E-08	-2.679097E-10	54.07658	0.006799673	8.004125E-08	-3.415095E-06	9.204745E-07	-20	0	0	0	0	0	0	0	2.621433E-09	50	0.0001266599	0	0	0	0	0	0	15.03508	0	0	0	0	0	0	0	-1.370441E-08	9.81	-5.847216E-07	50	8.5	0	-9.81	0	0	0	0	0	-9.81	0	0	0	0	9.81	0	-1	0	0	-1	-1.151415	18.3623	-12.90617	0.592187	-63.69211	2.473072	0	-1	-1	0	-9.81	0	0	0	0	0	-9.81	0	0	0	0	9.81	0	0	-9.81	0	0	0	0	0	-9.81	0	0	0	0	9.81	0
8.6	-0.001267189	-53.71148	-6.228047	0.006879119	-1.622521E-07	-3.771427E-10	-0.001267014	-53.71148	-6.228044	0.006879119	-1.622425E-07	-2.666179E-10	54.07135	0.006879119	8.004125E-08	-3.415095E-06	9.204745E-07	-20	0	0	0	0	0	0	0	2.621433E-09	50	0.00012815	0	0	0	0	0	0	15.03508	0	0	0	0	0	0	0	-1.370441E-08	9.81	-5.847216E-07	50	8.6	0	-9.81	0	0	0	0	0	-9.81	0	0	0	0	9.81	0	-1	0	0	-1	-1.139932	18.04621	-12.3411	0.5854948	-60.53923	2.516413	0	-1	-1	0	-9.81	0	0	0	0	0	-9.81	0	0	0	0	9.81	0	0	-9.81	0	0	0	0	0	-9.81	0	0	0	0	9.81	0
8.7	0.0004982516	-53.71029	-6.2314	0.006959002	6.460002E-08	-3.770872E-10	0.0004984267	-53.71029	-6.231397	0.006959002	6.460974E-08	-2.652925E-10	54.07056	0.006959002	8.004125E-08	-3.415095E-06	9.204745E-07	-20	0	0	0	0	0	0	0	2.621433E-09	50	0.0001296401	0	0	0	0	0	0	15.03508	0	0	0	0	0	0	0	-1.370441E-08	9.81	-5.847216E-07	50	8.7	0	-9.81	0	0	0	0	0	-9.81	0	0	0	0	9.81	0	-1	0	0	-1	-1.147401	18.43393	-12.96127	0.5947409	-63.93781	2.463504	0	-1	-1	0	-9.81	0	0	0	0	0	-9.81	0	0	0	0	9.81	0	0	-9.81	0	0	0	0	0	-9.81	0	0	0	0	9.81	0
8.8	-0.00147328	-53.7176	-6.229657	0.007039998	-1.93038E-07	-3.774758E-10	-0.001473104	-53.7176	-6.229653	0.007039998	-1.930282E-07	-2.643645E-10	54.07763	0.007039998	8.004125E-08	-3.415095E-06	9.204745E-07	-20	0	0	0	0	0	0	0	2.621433E-09	50	0.0001311302	0	0	0	0	0	0	15.03508	0	0	0	0	0	0	0	-1.370441E-08	9.81	-5.847216E-07	50	8.8	0	-9.81	0	0	0	0	0	-9.81	0	0	0	0	9.81	0	-1	0	0	-1	-1.142366	17.99145	-12.29224	0.5835668	-60.31519	2.5241	0	-1	-1	0	-9.81	0	0	0	0	0	-9.81	0	0	0	0	9.81	0	0	-9.81	0	0	0	0	0	-9.81	0	0	0	0	9.81	0
8.9	0.0002615916	-53.7128	-6.227645	0.007119408	3.47166E-08	-3.771705E-10	0.0002617667	-53.7128	-6.227642	0.007119408	3.472654E-08	-2.627971E-10	54.07262	0.007119408	8.004125E-08	-3.415095E-06	9.204745E-07	-20	0	0	0	0	0	0	0	2.621433E-09	50	0.0001326203	0	0	0	0	0	0	15.03508	0	0	0	0	0	0	0	-1.370441E-08	9.81	-5.847216E-07	50	8.9	0	-9.81	0	0	0	0	0	-9.81	0	0	0	0	9.81	0	-1	0	0	-1	-1.144086	18.4967	-13.01224	0.596985	-64.16571	2.455121	0	-1	-1	0	-9.81	0	0	0	0	0	-9.81	0	0	0	0	9.81	0	0	-9.81	0	0	0	0	0	-9.81	0	0	0	0	9.81	0
9	-0.001736985	-53.71097	-6.235707	0.007199199	-2.327746E-07	-3.770317E-10	-0.00173681	-53.71097	-6.235703	0.007199199	-2.327646E-07	-2.613605E-10	54.07173	0.007199199	8.004125E-08	-3.415095E-06	9.204745E-07	-20	0	0	0	0	0	0	0	2.621433E-09	50	0.0001341105	0	0	0	0	0	0	15.03508	0	0	0	0	0	0	0	-1.370441E-08	9.81	-5.847216E-07	50	9	0	-9.81	0	0	0	0	0	-9.81	0	0	0	0	9.81	0	-1	0	0	-1	-1.145483	17.94229	-12.25862	0.5817211	-60.1762	2.531005	0	-1	-1	0	-9.81	0	0	0	0	0	-9.81	0	0	0	0	9.81	0	0	-9.81	0	0	0	0	0	-9.81	0	0	0	0	9.81	0
9.1	6.434095E-05	-53.70852	-6.226721	0.007278904	8.763597E-09	-3.77108E-10	6.451602E-05	-53.70852	-6.226718	0.007278904	8.773766E-09	-2.601707E-10	54.06827	0.007278904	8.004125E-08	-3.415095E-06	9.204745E-07	-20	0	0	0	0	0	0	0	2.621433E-09	50	0.0001356006	0	0	0	0	0	0	15.03508	0	0	0	0	0	0	0	-1.370441E-08	9.81	-5.847216E-07	50	9.1	0	-9.81	0	0	0	0	0	-9.81	0	0	0	0	9.81	0	-1	0	0	-1	-1.141489	18.55173	-13.05972	0.5989288	-64.38183	2.447871	0	-1	-1	0	-9.81	0	0	0	0	0	-9.81	0	0	0	0	9.81	0	0	-9.81	0	0	0	0	0	-9.81	0	0	0	0	9.81	0
9.2	-0.002039664	-53.71613	-6.239432	0.00735998	-2.794231E-07	-3.772538E-10	-0.002039489	-53.71613	-6.239429	0.00735998	-2.794129E-07	-2.589967E-10	54.07729	0.00735998	8.004125E-08	-3.415095E-06	9.204745E-07	-20	0	0	0	0	0	0	0	2.621433E-09	50	0.0001370907	0	0	0	0	0	0	15.03508	0	0	0	0	0	0	0	-1.370441E-08	9.81	-5.847216E-07	50	9.2	0	-9.81	0	0	0	0	0	-9.81	0	0	0	0	9.81	0	-1	0	0	-1	-1.1495	17.90285	-12.24786	0.5800385	-60.16527	2.536553	0	-1	-1	0	-9.81	0	0	0	0	0	-9.81	0	0	0	0	9.81	0	0	-9.81	0	0	0	0	0	-9.81	0	0	0	0	9.81	0
9.3	-9.967794E-05	-53.70882	-6.22471	0.007439008	-1.376232E-08	-3.77115E-10	-9.950291E-05	-53.70882	-6.224706	0.007439008	-1.375192E-08	-2.576042E-10	54.06833	0.007439008	8.004125E-08	-3.415095E-06	9.204745E-07	-20	0	0	0	0	0	0	0	2.621433E-09	50	0.0001385808	0	0	0	0	0	0	15.03508	0	0	0	0	0	0	0	-1.370441E-08	9.81	-5.847216E-07	50	9.3	0	-9.81	0	0	0	0	0	-9.81	0	0	0	0	9.81	0	-1	0	0	-1	-1.139392	18.60102	-13.10524	0.6006708	-64.59001	2.44137	0	-1	-1	0	-9.81	0	0	0	0	0	-9.81	0	0	0	0	9.81	0	0	-9.81	0	0	0	0	0	-9.81	0	0	0	0	9.81	0
9.4	-0.002340421	-53.71329	-6.246376	0.007519669	-3.276066E-07	-3.770317E-10	-0.002340245	-53.71329	-6.246373	0.007519669	-3.275961E-07	-2.562063E-10	54.07527	0.007519669	8.004125E-08	-3.415095E-06	9.204745E-07	-20	0	0	0	0	0	0	0	2.621433E-09	50	0.0001400709	0	0	0	0	0	0	15.03508	0	0	0	0	0	0	0	-1.370441E-08	9.81	-5.847216E-07	50	9.4	0	-9.81	0	0	0	0	0	-9.81	0	0	0	0	9.81	0	-1	0	0	-1	-1.154569	17.87831	-12.26779	0.5786189	-60.32818	2.540074	0	-1	-1	0	-9.81	0	0	0	0	0	-9.81	0	0	0	0	9.81	0	0	-9.81	0	0	0	0	0	-9.81	0	0	0	0	9.81	0
9.5	-0.000237082	-53.71291	-6.221953	0.007599654	-3.350024E-08	-3.77115E-10	-0.000236907	-53.71291	-6.22195	0.007599654	-3.348962E-08	-2.550222E-10	54.07207	0.007599654	8.004125E-08	-3.415095E-06	9.204745E-07	-20	0	0	0	0	0	0	0	2.621433E-09	50	0.000141561	0	0	0	0	0	0	15.03508	0	0	0	0	0	0	0	-1.370441E-08	9.81	-5.847216E-07	50	9.5	0	-9.81	0	0	0	0	0	-9.81	0	0	0	0	9.81	0	-1	0	0	-1	-1.137703	18.64527	-13.14846	0.6022314	-64.78884	2.435547	0	-1	-1	0	-9.81	0	0	0	0	0	-9.81	0	0	0	0	9.81	0	0	-9.81	0	0	0	0	0	-9.81	0	0	0	0	9.81	0
9.6	-0.002485404	-53.71535	-6.250161	0.007680042	-3.553106E-07	-3.770317E-10	-0.002485228	-53.71535	-6.250157	0.007680042	-3.552999E-07	-2.536283E-10	54.07775	0.007680042	8.004125E-08	-3.415095E-06	9.204745E-07	-20	0	0	0	0	0	0	0	2.621433E-09	50	0.0001430511	0	0	0	0	0	0	15.03508	0	0	0	0	0	0	0	-1.370441E-08	9.81	-5.847216E-07	50	9.6	0	-9.81	0	0	0	0	0	-9.81	0	0	0	0	9.81	0	-1	0	0	-1	-1.16008	17.87666	-12.32422	0.5777357	-60.69275	2.540293	0	-1	-1	0	-9.81	0	0	0	0	0	-9.81	0	0	0	0	9.81	0	0	-9.81	0	0	0	0	0	-9.81	0	0	0	0	9.81	0
9.7	-0.0003513366	-53.70745	-6.222445	0.007758942	-5.071278E-08	-3.771427E-10	-0.0003511616	-53.70745	-6.222441	0.007758942	-5.070194E-08	-2.524899E-10	54.06672	0.007758942	8.004125E-08	-3.415095E-06	9.204745E-07	-20	0	0	0	0	0	0	0	2.621433E-09	50	0.0001445413	0	0	0	0	0	0	15.03508	0	0	0	0	0	0	0	-1.370441E-08	9.81	-5.847216E-07	50	9.7	0	-9.81	0	0	0	0	0	-9.81	0	0	0	0	9.81	0	-1	0	0	-1	-1.136399	18.68473	-13.1886	0.6036065	-64.97581	2.430444	0	-1	-1	0	-9.81	0	0	0	0	0	-9.81	0	0	0	0	9.81	0	0	-9.81	0	0	0	0	0	-9.81	0	0	0	0	9.81	0
9.8	-0.002213928	-53.72015	-6.2473	0.007840822	-3.230942E-07	-3.772538E-10	-0.002213753	-53.72015	-6.247296	0.007840822	-3.230833E-07	-2.512692E-10	54.0822	0.007840822	8.004125E-08	-3.415095E-06	9.204745E-07	-20	0	0	0	0	0	0	0	2.621433E-09	50	0.0001460314	0	0	0	0	0	0	15.03508	0	0	0	0	0	0	0	-1.370441E-08	9.81	-5.847216E-07	50	9.8	0	-9.81	0	0	0	0	0	-9.81	0	0	0	0	9.81	0	-1	0	0	-1	-1.163713	17.90536	-12.40287	0.5778005	-61.17128	2.536187	0	-1	-1	0	-9.81	0	0	0	0	0	-9.81	0	0	0	0	9.81	0	0	-9.81	0	0	0	0	0	-9.81	0	0	0	0	9.81	0
9.9	-0.0004465513	-53.70832	-6.221029	0.007919126	-6.579897E-08	-3.770872E-10	-0.0004463764	-53.70832	-6.221026	0.007919126	-6.578791E-08	-2.498601E-10	54.06741	0.007919126	8.004125E-08	-3.415095E-06	9.204745E-07	-20	0	0	0	0	0	0	0	2.621433E-09	50	0.0001475215	0	0	0	0	0	0	15.03508	0	0	0	0	0	0	0	-1.370441E-08	9.81	-5.847216E-07	50	9.9	0	-9.81	0	0	0	0	0	-9.81	0	0	0	0	9.81	0	-1	0	0	-1	-1.135298	18.7207	-13.22678	0.6048707	-65.15292	2.425758	0	-1	-1	0	-9.81	0	0	0	0	0	-9.81	0	0	0	0	9.81	0	0	-9.81	0	0	0	0	0	-9.81	0	0	0	0	9.81	0
10	-0.001498788	-53.71222	-6.240535	0.007999741	-2.231813E-07	-3.772538E-10	-0.001498612	-53.71222	-6.240531	0.007999741	-2.231701E-07	-2.487221E-10	54.07353	0.007999741	8.004125E-08	-3.415095E-06	9.204745E-07	-20	0	0	0	0	0	0	0	2.621433E-09	50	0.0001490116	0	0	0	0	0	0	15.03508	0	0	0	0	0	0	0	-1.370441E-08	9.81	-5.847216E-07	50	10	0	-9.81	0	0	0	0	0	-9.81	0	0	0	0	9.81	0	-1	0	0	-1	-1.161351	17.96434	-12.45892	0.5792412	-61.49676	2.527907	0	-1	-1	0	-9.81	0	0	0	0	0	-9.81	0	0	0	0	9.81	0	0	-9.81	0	0	0	0	0	-9.81	0	0	0	0	9.81	0
10.1	-0.0005255379	-53.71354	-6.218809	0.008079976	-7.901153E-08	-3.771427E-10	-0.000525363	-53.71354	-6.218805	0.008079976	-7.900024E-08	-2.473307E-10	54.07233	0.008079976	8.004125E-08	-3.415095E-06	9.204745E-07	-20	0	0	0	0	0	0	0	2.621433E-09	50	0.0001505017	0	0	0	0	0	0	15.03508	0	0	0	0	0	0	0	-1.370441E-08	9.81	-5.847216E-07	50	10.1	0	-9.81	0	0	0	0	0	-9.81	0	0	0	0	9.81	0	-1	0	0	-1	-1.13438	18.75329	-13.26251	0.6060252	-65.31796	2.421508	0	-1	-1	0	-9.81	0	0	0	0	0	-9.81	0	0	0	0	9.81	0	0	-9.81	0	0	0	0	0	-9.81	0	0	0	0	9.81	0
10.2	-0.0007126624	-53.71085	-6.228941	0.008159611	-1.082221E-07	-3.772538E-10	-0.0007124873	-53.71085	-6.228938	0.008159611	-1.082107E-07	-2.461606E-10	54.07084	0.008159611	8.004125E-08	-3.415095E-06	9.204745E-07	-20	0	0	0	0	0	0	0	2.621433E-09	50	0.0001519918	0	0	0	0	0	0	15.03508	0	0	0	0	0	0	0	-1.370441E-08	9.81	-5.847216E-07	50	10.2	0	-9.81	0	0	0	0	0	-9.81	0	0	0	0	9.81	0	-1	0	0	-1	-1.152091	18.03852	-12.46205	0.5818765	-61.4865	2.517493	0	-1	-1	0	-9.81	0	0	0	0	0	-9.81	0	0	0	0	9.81	0	0	-9.81	0	0	0	0	0	-9.81	0	0	0	0	9.81	0
10.3	-0.0005900332	-53.70696	-6.219986	0.008239047	-9.047179E-08	-3.771427E-10	-0.0005898582	-53.70696	-6.219983	0.008239047	-9.046028E-08	-2.447745E-10	54.06594	0.008239047	8.004125E-08	-3.415095E-06	9.204745E-07	-20	0	0	0	0	0	0	0	2.621433E-09	50	0.000153482	0	0	0	0	0	0	15.03508	0	0	0	0	0	0	0	-1.370441E-08	9.81	-5.847216E-07	50	10.3	0	-9.81	0	0	0	0	0	-9.81	0	0	0	0	9.81	0	-1	0	0	-1	-1.13369	18.78222	-13.29483	0.607034	-65.46915	2.417828	0	-1	-1	0	-9.81	0	0	0	0	0	-9.81	0	0	0	0	9.81	0	0	-9.81	0	0	0	0	0	-9.81	0	0	0	0	9.81	0
10.4	-0.0001400826	-53.7138	-6.218719	0.008320137	-2.165479E-08	-3.771705E-10	-0.0001399077	-53.7138	-6.218716	0.008320137	-2.164317E-08	-2.435036E-10	54.07259	0.008320137	8.004125E-08	-3.415095E-06	9.204745E-07	-20	0	0	0	0	0	0	0	2.621433E-09	50	0.0001549721	0	0	0	0	0	0	15.03508	0	0	0	0	0	0	0	-1.370441E-08	9.81	-5.847216E-07	50	10.4	0	-9.81	0	0	0	0	0	-9.81	0	0	0	0	9.81	0	-1	0	0	-1	-1.141132	18.10296	-12.43223	0.5845513	-61.27681	2.508493	0	-1	-1	0	-9.81	0	0	0	0	0	-9.81	0	0	0	0	9.81	0	0	-9.81	0	0	0	0	0	-9.81	0	0	0	0	9.81	0
10.5	-0.0006431075	-53.70842	-6.218868	0.008399336	-1.005304E-07	-3.770317E-10	-0.0006429326	-53.70842	-6.218865	0.008399336	-1.005187E-07	-2.420878E-10	54.06726	0.008399336	8.004125E-08	-3.415095E-06	9.204745E-07	-20	0	0	0	0	0	0	0	2.621433E-09	50	0.0001564622	0	0	0	0	0	0	15.03508	0	0	0	0	0	0	0	-1.370441E-08	9.81	-5.847216E-07	50	10.5	0	-9.81	0	0	0	0	0	-9.81	0	0	0	0	9.81	0	-1	0	0	-1	-1.133065	18.80843	-13.32483	0.6079695	-65.60736	2.414438	0	-1	-1	0	-9.81	0	0	0	0	0	-9.81	0	0	0	0	9.81	0	0	-9.81	0	0	0	0	0	-9.81	0	0	0	0	9.81	0
10.6	0.0001994684	-53.7055	-6.214547	0.008478904	3.153527E-08	-3.77115E-10	0.0001996432	-53.7055	-6.214544	0.008478904	3.154711E-08	-2.409006E-10	54.06386	0.008478904	8.004125E-08	-3.415095E-06	9.204745E-07	-20	0	0	0	0	0	0	0	2.621433E-09	50	0.0001579523	0	0	0	0	0	0	15.03508	0	0	0	0	0	0	0	-1.370441E-08	9.81	-5.847216E-07	50	10.6	0	-9.81	0	0	0	0	0	-9.81	0	0	0	0	9.81	0	-1	0	0	-1	-1.132623	18.14626	-12.39811	0.5864723	-61.05417	2.502559	0	-1	-1	0	-9.81	0	0	0	0	0	-9.81	0	0	0	0	9.81	0	0	-9.81	0	0	0	0	0	-9.81	0	0	0	0	9.81	0
10.7	-0.0006845036	-53.71154	-6.217781	0.008559893	-1.090443E-07	-3.771427E-10	-0.0006843287	-53.71154	-6.217777	0.008559893	-1.090323E-07	-2.396189E-10	54.07023	0.008559893	8.004125E-08	-3.415095E-06	9.204745E-07	-20	0	0	0	0	0	0	0	2.621433E-09	50	0.0001594424	0	0	0	0	0	0	15.03508	0	0	0	0	0	0	0	-1.370441E-08	9.81	-5.847216E-07	50	10.7	0	-9.81	0	0	0	0	0	-9.81	0	0	0	0	9.81	0	-1	0	0	-1	-1.132532	18.83139	-13.35141	0.6088014	-65.72855	2.411466	0	-1	-1	0	-9.81	0	0	0	0	0	-9.81	0	0	0	0	9.81	0	0	-9.81	0	0	0	0	0	-9.81	0	0	0	0	9.81	0
10.8	0.0003774951	-53.70741	-6.209913	0.008639268	6.076674E-08	-3.770872E-10	0.0003776699	-53.70741	-6.209909	0.008639268	6.077881E-08	-2.382983E-10	54.06523	0.008639268	8.004125E-08	-3.415095E-06	9.204745E-07	-20	0	0	0	0	0	0	0	2.621433E-09	50	0.0001609325	0	0	0	0	0	0	15.03508	0	0	0	0	0	0	0	-1.370441E-08	9.81	-5.847216E-07	50	10.8	0	-9.81	0	0	0	0	0	-9.81	0	0	0	0	9.81	0	-1	0	0	-1	-1.126976	18.17113	-12.37035	0.5876466	-60.87903	2.499113	0	-1	-1	0	-9.81	0	0	0	0	0	-9.81	0	0	0	0	9.81	0	0	-9.81	0	0	0	0	0	-9.81	0	0	0	0	9.81	0
