Time	Aircraft Simulation Net Global Force X	Aircraft Simulation Net Global Force Y	Aircraft Simulation Net Global Force Z	Aircraft Simulation Net Global Moment X	Aircraft Simulation Net Global Moment Y	Aircraft Simulation Net Global Moment Z	Aircraft Simulation Roll Angle	Aircraft Simulation Pitch Angle	Aircraft Simulation Heading Angle	Aircraft Simulation Angle Of Attack_Deg	Aircraft Simulation Angle Of Sideslip_Deg	Aircraft Simulation Roll Rate	Aircraft Simulation Pitch Rate	Aircraft Simulation Yaw Rate	Aircraft Simulation Angular Velocity X	Aircraft Simulation Angular Velocity Y	Aircraft Simulation Angular Velocity Z	Aircraft Simulation Position X	Aircraft Simulation Position Y	Aircraft Simulation Position Z	Aircraft Simulation Global Velocity X	Aircraft Simulation Global Velocity Y	Aircraft Simulation Global Velocity Z	Aircraft Simulation Local Velocity X	Aircraft Simulation Local Velocity Y	Aircraft Simulation Local Velocity Z	Aircraft Simulation Airspeed	Aircraft Simulation Ground Speed	Aircraft Simulation Acceleration X	Aircraft Simulation Acceleration Y	Aircraft Simulation Acceleration Z	Aircraft Simulation Local Acceleration X	Aircraft Simulation Local Acceleration Y	Aircraft Simulation Local Acceleration Z	Aircraft Simulation Imu Acceleration X	Aircraft Simulation Imu Acceleration Y	Aircraft Simulation Imu Acceleration Z	Aircraft Simulation Altitude	Aircraft Simulation Time	Electronic Speed Controller Input Value	Fin Input Value	Port Aileron Input Value	Port Flap Input Value	Propeller Total Thrust	Propeller Advance Ratio	Propeller Thrust Coefficient	Propeller Torque Coefficient	Propeller Propulsive Efficiency	Propeller Rps	Starboard Aileron Input Value	Starboard Flap Input Value	Tailplane Input Value
0.018	-0.001246082	48.12653	-3.772156	1.818989E-09	-0.001140047	0.05563212	8.179214E-13	0.01443481	-1.515099E-13	2.002988	0	7.247495E-12	0.01546353	1.605358E-15	-0.01546353	1.605358E-15	-7.247495E-12	-2.092458E-15	50.00004	-2.515316E-05	0	-8.616596E-06	-2.129492E-05	6.661779E-20	-8.61123E-06	-2.129709E-05	15.98833	2.297215E-05	-2.842171E-11	0.0006956979	0.001719803	-2.842171E-11	0.0006952645	0.001719979	-2.856176E-11	9.810695	0.004191743	50.00004	0.018	-1	0	0	-1	-1.205065	9.190789	-2.98772	0.3048531	-14.33581	5.258414	0	-1	1
0.038	-7.730661E-05	51.76603	-4.073286	-1.818989E-09	0.0003341265	0.03979	4.857147E-13	-0.01219872	-2.15421E-14	2.027029	0	4.057177E-12	-0.07107989	-2.276349E-13	0.07107989	-2.276349E-13	-4.057177E-12	2.063576E-15	49.99997	2.127886E-05	-3.552714E-15	3.957748E-05	9.788445E-05	-3.553013E-15	3.959832E-05	9.787602E-05	15.99606	0.0001055829	-1.421085E-11	0.003718771	0.009207695	-1.421088E-11	0.003720731	0.009206903	-1.429404E-11	9.813721	0.007118277	49.99997	0.038	-1	0	0	-1	-1.211956	15.72437	-8.792316	0.4926649	-44.6627	3.074052	0	-1	1
0.058	-5.001571E-05	50.85851	-4.356122	-7.603375E-07	0.0007526017	0.03679572	1.380222E-12	-0.1956833	-1.086094E-14	1.949479	0	9.239822E-12	-0.2353026	-2.532637E-13	0.2353026	-2.532637E-13	-9.239822E-12	-8.425987E-16	49.99947	0.0003404766	8.881784E-15	0.0001300815	0.0003240366	8.878686E-15	0.0001311875	0.0003235904	16.01374	0.0003491718	1.199041E-11	0.004375353	0.01106178	1.19903E-11	0.004413107	0.01104678	1.175399E-11	9.814357	-0.02245743	49.99947	0.058	-1	0	0	-1	-1.215736	18.24582	-11.86376	0.5581621	-61.72276	2.650501	0	-1	1
0.078	-0.00032429	45.97142	-4.448054	-6.8394E-07	0.0004763135	0.03626262	9.909975E-13	-0.5584684	-1.97502E-15	1.68258	0	1.256781E-11	-0.3784156	-2.296508E-13	0.3784156	-2.296508E-13	-1.256781E-11	-6.67536E-16	49.99849	0.0009668767	1.421085E-14	0.0002060421	0.0005225617	1.420722E-14	0.0002111257	0.0005205286	16.03116	0.0005617153	-7.105427E-12	0.003336929	0.00892661	-7.105486E-12	0.003423777	0.00889366	-7.275153E-12	9.812958	-0.086724	49.99849	0.078	-1	0	0	-1	-1.217731	18.81882	-12.62633	0.5722078	-66.09004	2.571322	0	-1	1
0.098	-0.000606296	39.70827	-4.570605	1.743501E-05	-0.0002204437	0.03617852	-7.65898E-14	-1.066496	-4.192906E-14	1.252102	0	-4.853166E-12	-0.4924447	-3.651379E-13	0.4924447	-3.651379E-13	4.853166E-12	-1.760663E-15	49.99712	0.001833692	0	0.0002622399	0.0006837841	8.678932E-19	0.0002749217	0.0006787847	16.04581	0.0007323459	0	0.002400018	0.008022587	9.27819E-18	0.002548925	0.007976526	1.312047E-14	9.81085	-0.1746149	49.99712	0.098	-1	0	0	-1	-1.219205	18.93132	-12.7777	0.57467	-66.99388	2.557593	0	-1	1
0.118	-0.0007285709	32.45938	-4.734888	-9.094946E-10	-0.001034282	0.03615628	-8.619343E-13	-1.689254	6.308366E-15	0.6914795	0	-3.751698E-12	-0.5818124	1.011781E-12	0.5818124	1.011781E-12	3.751698E-12	-1.274673E-15	49.99541	0.002879456	0	0.0003011832	0.0008100946	4.798965E-18	0.0003249329	0.0008008641	16.05701	0.0008642712	1.421085E-11	0.001598149	0.005529145	1.421088E-11	0.001760447	0.005479631	1.435839E-11	9.807498	-0.2837072	49.99541	0.118	-1	0	0	-1	-1.220285	18.95565	-12.80814	0.5749952	-67.20177	2.555683	0	-1	1
0.138	-0.0006425055	24.33389	-4.983441	1.901071E-05	-0.001726341	0.0361306	1.063915E-12	-2.400933	4.262117E-14	0.02886854	0	9.361101E-12	-0.6502751	7.47227E-14	0.6502751	7.47227E-14	-9.361101E-12	2.309735E-15	49.99346	0.004051864	0	0.0003254823	0.0009103811	-7.423905E-18	0.0003633342	0.0008959468	16.06413	0.0009668156	1.421085E-11	0.0009201466	0.005427864	1.421083E-11	0.001146723	0.005384552	1.402883E-11	9.802536	-0.4055752	49.99346	0.138	-1	0	0	-1	-1.220984	18.96378	-12.81591	0.5749913	-67.2718	2.555641	0	-1	1
0.158	-0.000426018	15.64493	-5.309878	-4.547473E-10	-0.00224109	0.0361016	-8.926853E-13	-3.179444	-9.308871E-15	-0.7119391	0	-5.98448E-12	-0.7006801	-1.339346E-13	0.7006801	-1.339346E-13	5.98448E-12	-3.104604E-15	49.9913	0.005306438	-1.421085E-14	0.0003374615	0.000983621	-1.42046E-14	0.0003914969	0.0009633902	16.06666	0.001039899	-7.105427E-12	0.0003552995	0.003017834	-7.105418E-12	0.0005221316	0.002993483	-6.952811E-12	9.795423	-0.5411014	49.9913	0.158	-1	0	0	-1	-1.221304	18.96727	-12.81803	0.5749626	-67.29871	2.555764	0	-1	1
0.178	-0.0001938662	6.489313	-5.743893	1.364242E-09	-0.002698554	0.03606296	-1.168169E-12	-4.005625	1.820865E-13	-1.510471	0	-1.505398E-11	-0.7354064	1.495029E-12	0.7354064	1.495029E-12	1.505398E-11	-2.21634E-15	49.98899	0.00660564	-2.842171E-14	0.0003393162	0.001037981	-2.841663E-14	0.0004109949	0.001011743	16.06422	0.001092035	-1.065814E-11	-0.00010652	0.001995475	-1.065815E-11	3.31329E-05	0.001998041	-1.045862E-11	9.786069	-0.6832737	49.98899	0.178	-1	0	0	-1	-1.221259	18.96671	-12.81673	0.5749444	-67.292	2.555847	0	-1	1
0.198	-6.110288E-05	-2.938552	-6.283585	9.094946E-10	-0.003283375	0.03601543	2.486348E-13	-4.862832	2.637433E-14	-2.34896	0	3.029829E-12	-0.7565078	-2.544853E-13	0.7565078	-2.544853E-13	-3.029829E-12	-3.715544E-15	49.98658	0.007918268	3.552714E-15	0.0003330788	0.001073535	3.550384E-15	0.0004228841	0.001041436	16.05668	0.001124019	4.440892E-12	-0.000468397	0.001100823	4.440893E-12	-0.0003733936	0.001136567	4.398476E-12	9.774316	-0.8304626	49.98658	0.198	-1	0	0	-1	-1.220911	18.96033	-12.81093	0.5748918	-67.24505	2.556061	0	-1	1
0.218	-9.223874E-05	-12.58628	-6.905616	2.615616E-05	-0.004172405	0.03588211	-9.752401E-13	-5.734532	9.675466E-14	-3.212711	0	-1.40279E-11	-0.7608901	1.395759E-12	0.7608901	1.395759E-12	1.40279E-11	-1.235408E-15	49.98411	0.009215936	-1.065814E-14	0.0003185566	0.00108556	-1.065273E-14	0.0004254309	0.001048297	16.04369	0.001131335	1.776357E-12	-0.000936212	0.00108371	1.776341E-12	-0.000823243	0.001171833	1.942483E-12	9.760083	-0.9790381	49.98411	0.218	-1	0	0	-1	-1.218127	18.9511	-12.80291	0.5754609	-67.10385	2.553945	0	-1	1
0.238	-2.205544E-05	-22.00653	-7.58482	0	-0.004924347	0.03571668	9.247487E-13	-6.598191	-1.017901E-13	-4.082535	0	1.557775E-11	-0.7449811	-8.743263E-13	0.7449811	-8.743263E-13	-1.557775E-11	-1.791583E-16	49.98164	0.01046439	2.398082E-14	0.0002958216	0.001065704	2.397599E-14	0.0004163177	0.001024653	16.0251	0.001106	3.108624E-12	-0.001282431	-0.00173063	3.108645E-12	-0.001472796	-0.001571808	2.951361E-12	9.743549	-1.128798	49.98164	0.238	-1	0	0	-1	-1.214561	18.95336	-12.81162	0.576529	-67.03309	2.549336	0	-1	1
0.258	2.475522E-05	-31.01507	-8.321993	3.637979E-09	-0.005409275	0.03557035	-1.130567E-12	-7.432427	-5.405205E-14	-4.935448	0	-1.587413E-12	-0.7117506	-1.641364E-12	0.7117506	-1.641364E-12	1.587413E-12	-5.397583E-15	49.97923	0.0116348	8.881784E-16	0.000267704	0.001023598	8.969948E-16	0.0003978641	0.0009803682	16.00182	0.001058025	-1.332268E-12	-0.001491979	-0.002892688	-1.332307E-12	-0.001853632	-0.002675386	-1.140361E-12	9.725724	-1.271666	49.97923	0.258	-1	0	0	-1	-1.210732	18.95676	-12.82379	0.5777234	-66.97007	2.544106	0	-1	1
0.278	-8.389083E-05	-39.47576	-9.081954	5.893525E-07	-0.005679632	0.03544499	3.691694E-13	-8.219275	5.750874E-14	-5.751685	0	2.924836E-12	-0.6641926	-4.182001E-13	0.6641926	-4.182001E-13	-2.924836E-12	-2.417448E-15	49.97695	0.01270661	7.105427E-15	0.0002365932	0.0009577365	7.102075E-15	0.0003710827	0.000914075	15.97504	0.0009865271	1.776357E-12	-0.001590233	-0.003832043	1.776374E-12	-0.002121735	-0.003565338	1.713816E-12	9.707112	-1.406021	49.97695	0.278	-1	0	0	-1	-1.206862	18.96102	-12.84012	0.5790321	-66.91882	2.538422	0	-1	1
0.298	-0.0003790154	-47.14595	-9.835918	-3.637979E-09	-0.005895494	0.03531098	4.424426E-13	-8.944182	-6.165966E-14	-6.514791	0	6.065083E-12	-0.6052766	-9.498846E-13	0.6052766	-9.498846E-13	-6.065083E-12	-7.996564E-16	49.97483	0.01366617	0	0.0002044402	0.0008750907	-1.668372E-18	0.0003380065	0.0008326651	15.94609	0.0008986543	0	-0.001610257	-0.004568602	1.285168E-17	-0.002300967	-0.004262699	-7.481961E-14	9.688413	-1.529445	49.97483	0.298	-1	0	0	-1	-1.203295	18.97136	-12.86796	0.5805382	-66.92638	2.531925	0	-1	1
0.318	-0.0008302093	-53.92343	-10.55279	-3.637979E-09	-0.006234867	0.03515974	8.064642E-13	-9.595972	1.829978E-13	-7.211634	0	5.906336E-12	-0.5378915	8.538188E-13	0.5378915	8.538188E-13	-5.906336E-12	3.190032E-15	49.97292	0.01450604	2.842171E-14	0.0001727119	0.0007797196	2.841499E-14	0.0003002741	0.0007400186	15.91633	0.0007986188	0	-0.001559034	-0.005091773	4.984693E-17	-0.002386015	-0.004760637	-1.360983E-13	9.67035	-1.640082	49.97292	0.318	-1	0	0	-1	-1.200035	18.98945	-12.90841	0.5822542	-67.00274	2.524528	0	-1	1
0.338	-0.001248447	-59.74002	-11.20835	0	-0.00682136	0.0349561	-1.982362E-13	-10.16675	-6.49452E-14	-7.83228	0	-7.146565E-12	-0.4649262	-5.680261E-13	0.4649262	-5.680261E-13	7.146565E-12	-1.884827E-15	49.97124	0.01522361	0	0.0001424607	0.0006757234	1.663769E-18	0.0002594982	0.0006399671	15.88706	0.0006905774	0	-0.001465902	-0.005425885	-1.445615E-17	-0.002400627	-0.005081937	3.339397E-14	9.653565	-1.73668	49.97124	0.338	-1	0	0	-1	-1.196788	19.01038	-12.95223	0.5840282	-67.09988	2.516842	0	-1	1
0.358	-0.001448683	-64.54536	-11.78018	9.713402E-07	-0.007645688	0.03471776	1.867091E-13	-10.65187	-1.389803E-13	-8.370111	0	-7.258237E-13	-0.3890589	-7.876593E-13	0.3890589	-7.876593E-13	7.258237E-13	-1.443099E-15	49.96981	0.01582025	-5.684342E-14	0.0001143385	0.0005669422	-5.684275E-14	0.0002171625	0.0005360384	15.85945	0.0005783569	-2.842171E-11	-0.001351349	-0.005574664	-2.842171E-11	-0.00235849	-0.005228818	-2.845313E-11	9.6386	-1.818521	49.96981	0.358	-1	0	0	-1	-1.193802	19.02594	-12.98476	0.5854409	-67.16101	2.510549	0	-1	1
0.378	-0.001361864	-68.3506	-12.25504	0	-0.00854433	0.03449881	-1.726214E-13	-11.04944	4.52882E-13	-8.821527	0	7.040955E-12	-0.3125405	4.774758E-13	0.3125405	4.774758E-13	-7.040955E-12	-1.550409E-15	49.96862	0.01630016	5.684342E-14	8.861721E-05	0.0004554386	5.684034E-14	0.0001742619	0.0004300118	15.83442	0.0004639799	2.842171E-11	-0.001231208	-0.005554873	2.842174E-11	-0.002273009	-0.005215929	2.845075E-11	9.625872	-1.885361	49.96862	0.378	-1	0	0	-1	-1.190818	19.02434	-12.98876	0.5861927	-67.08988	2.507023	0	-1	1
0.398	-0.0009787693	-71.19714	-12.62483	3.637979E-09	-0.009270637	0.0343371	-3.196615E-13	-11.35994	-1.443221E-13	-9.185524	0	-7.554756E-12	-0.2372649	3.371824E-12	0.2372649	3.371824E-12	7.554756E-12	-5.458606E-15	49.9677	0.0166693	-5.684342E-14	6.534532E-05	0.0003466508	-5.684181E-14	0.0001323456	0.0003269885	15.81267	0.000352756	-1.421085E-11	-0.001110136	-0.005423789	-1.421088E-11	-0.002156722	-0.005098867	-1.415722E-11	9.615657	-1.937394	49.9677	0.398	-1	0	0	-1	-1.188075	19.0047	-12.96344	0.5862312	-66.88557	2.506578	0	-1	1
0.418	-0.0004684202	-73.14788	-12.88737	0	-0.009594591	0.03427802	-7.986827E-13	-11.58582	-4.717049E-14	-9.4633	0	-5.296692E-12	-0.1648021	-2.630053E-12	0.1648021	-2.630053E-12	5.296692E-12	-2.468705E-15	49.96703	0.01693468	-2.842171E-14	4.440732E-05	0.0002407809	-2.842023E-14	9.185987E-05	0.0002269564	15.79465	0.0002448417	-1.421085E-11	-0.0009937211	-0.005171168	-1.421089E-11	-0.002012028	-0.004866231	-1.407692E-11	9.608109	-1.975063	49.96703	0.418	-1	0	0	-1	-1.185879	18.97433	-12.92212	0.585805	-66.6143	2.508261	0	-1	1
0.438	-6.478929E-05	-74.28006	-13.04515	-1.113221E-06	-0.009446817	0.03432265	-1.171595E-12	-11.73118	2.953342E-14	-9.657849	0	-8.531576E-12	-0.09650985	-1.945916E-12	0.09650985	-1.945916E-12	8.531576E-12	-4.66083E-15	49.96659	0.017104	-1.421085E-14	2.563E-05	0.0001410041	-1.420983E-14	5.376362E-05	0.0001328478	15.78061	0.0001433145	-1.421085E-11	-0.000892207	-0.004826113	-1.421089E-11	-0.001854817	-0.004543903	-1.401448E-11	9.603237	-1.999114	49.96659	0.438	-1	0	0	-1	-1.184609	18.94677	-12.88683	0.5853258	-66.39017	2.510348	0	-1	1
0.458	5.343411E-05	-74.67747	-13.10348	0	-0.008947404	0.03442966	1.583113E-12	-11.80154	-3.240846E-13	-9.773769	0	1.105545E-11	-0.0335587	-4.507159E-13	0.0335587	-4.507159E-13	-1.105545E-11	-2.724394E-15	49.96638	0.01718557	1.776357E-14	8.845702E-06	4.903087E-05	1.776333E-14	1.868663E-05	4.618531E-05	15.77059	4.982241E-05	7.105427E-12	-0.0007962807	-0.00440143	7.105449E-12	-0.00167964	-0.004145535	6.840123E-12	9.600956	-2.01051	49.96638	0.458	-1	0	0	-1	-1.184174	18.93182	-12.87146	0.5851205	-66.28194	2.511385	0	-1	1
0.478	-0.0001657189	-74.42467	-13.0723	1.109583E-06	-0.008323848	0.03453777	-1.557785E-12	-11.80365	-9.856123E-14	-9.817023	0	-1.38756E-11	0.0230946	-8.162542E-13	-0.0230946	-8.162542E-13	1.38756E-11	-2.230938E-15	49.96637	0.01718806	-2.131628E-14	-6.083399E-06	-3.374228E-05	-2.131669E-14	-1.285703E-05	-3.178437E-05	15.76445	3.428628E-05	-7.105427E-12	-0.0007059425	-0.003915512	-7.105474E-12	-0.001491966	-0.00368831	-6.844395E-12	9.601069	-2.010407	49.96637	0.478	-1	0	0	-1	-1.184779	18.93771	-12.88778	0.5853927	-66.35571	2.510436	0	-1	1
0.498	-0.0006492661	-73.60281	-12.96287	0	-0.007822025	0.03460842	5.847876E-13	-11.74522	-1.196144E-13	-9.794718	0	5.972927E-12	0.07273794	-3.136481E-13	-0.07273794	-3.136481E-13	-5.972927E-12	-1.236737E-15	49.96655	0.01712029	0	-1.92523E-05	-0.0001062723	1.913172E-19	-4.048199E-05	-0.0001001282	15.76192	0.0001080021	0	-0.0006193295	-0.003385124	6.154842E-18	-0.001295438	-0.003188178	-9.802295E-14	9.603309	-2.000112	49.96655	0.498	-1	0	0	-1	-1.185976	18.96228	-12.93237	0.5861539	-66.58511	2.50737	0	-1	1
0.518	-0.00117248	-72.291	-12.78717	0	-0.007618489	0.03460921	-1.796325E-12	-11.63456	2.577357E-13	-9.714812	0	-2.059943E-11	0.1149175	4.245007E-12	-0.1149175	4.245007E-12	2.059943E-11	-6.933218E-15	49.96688	0.01699153	-5.684342E-14	-3.072806E-05	-0.0001678974	-5.684467E-14	-6.395637E-05	-0.0001582509	15.76261	0.0001706862	-2.842171E-11	-0.0005355104	-0.002830289	-2.842173E-11	-0.001095288	-0.002664142	-2.812049E-11	9.607347	-1.981034	49.96688	0.518	-1	0	0	-1	-1.187593	18.99854	-12.98988	0.5870478	-66.90704	2.503519	0	-1	1
0.538	-0.001547774	-70.56702	-12.55868	-1.055014E-06	-0.00777677	0.03456015	1.590953E-13	-11.48039	7.147722E-14	-9.58583	0	1.267523E-12	0.149431	-1.185906E-12	-0.149431	-1.185906E-12	-1.267523E-12	-2.193533E-15	49.96734	0.01681113	0	-4.053116E-05	-0.0002183239	5.033136E-19	-8.317381E-05	-0.0002058888	15.76606	0.0002220543	0	-0.0004526227	-0.002268934	5.316145E-18	-0.0008951589	-0.002133453	-2.668948E-14	9.612835	-1.954643	49.96734	0.538	-1	0	0	-1	-1.188987	19.02715	-13.03112	0.5875797	-67.15974	2.50102	0	-1	1
0.558	-0.001635114	-68.50958	-12.28992	0	-0.008217834	0.03449865	5.976359E-13	-11.29151	4.037932E-13	-9.416568	0	1.918186E-12	0.176308	1.470058E-12	-0.176308	1.470058E-12	-1.918186E-12	-1.13018E-15	49.9679	0.01658833	-5.684342E-14	-4.865415E-05	-0.0002575913	-5.684058E-14	-9.814897E-05	-0.0002430787	15.77178	0.0002621459	-2.842171E-11	-0.0003688037	-0.001715962	-2.842169E-11	-0.0006976518	-0.001610535	-2.852203E-11	9.619417	-1.922417	49.9679	0.558	-1	0	0	-1	-1.189944	19.03378	-13.03541	0.5873595	-67.23042	2.501615	0	-1	1
0.578	-0.001399646	-66.19834	-11.99474	0	-0.008725626	0.0344675	-4.643052E-13	-11.07652	6.124705E-13	-9.215798	0	3.601776E-12	0.1957753	3.003515E-12	-0.1957753	3.003515E-12	-3.601776E-12	1.186942E-15	49.96854	0.01633257	-5.684342E-14	-5.508773E-05	-0.0002852869	-5.684125E-14	-0.0001088708	-0.000269389	15.77926	0.0002905569	0	-0.000283122	-0.001183012	8.552579E-18	-0.0005051279	-0.001106581	7.802449E-14	9.626749	-1.885801	49.96854	0.578	-1	0	0	-1	-1.190686	19.01722	-13.00143	0.5863358	-67.11381	2.505663	0	-1	1
0.598	-0.0009385929	-63.71297	-11.68493	0	-0.009037946	0.03449932	1.406731E-12	-10.84369	-3.661971E-13	-8.992085	0	7.584123E-12	0.2082255	-3.309915E-12	-0.2082255	-3.309915E-12	-7.584123E-12	5.262563E-16	49.96923	0.01605283	0	-5.981885E-05	-0.00030343	9.046665E-19	-0.0001158351	-0.0002867583	15.78804	0.0003092702	0	-0.0002011657	-0.0006875488	3.632263E-18	-0.0003269224	-0.0006374267	-2.365517E-13	9.634507	-1.846195	49.96923	0.598	-1	0	0	-1	-1.191273	18.98443	-12.94324	0.584847	-66.86799	2.511908	0	-1	1
0.618	-0.0004273674	-61.13113	-11.37148	-3.637979E-09	-0.008974655	0.03460409	7.958027E-13	-10.60073	-4.009757E-14	-8.753525	0	-3.347757E-13	0.2141828	-1.790892E-12	-0.2141828	-1.790892E-12	3.347757E-13	4.735907E-16	49.96996	0.01575792	1.421085E-14	-6.284565E-05	-0.0003121104	1.421229E-14	-0.0001191901	-0.0002952223	15.79767	0.0003183747	1.421085E-11	-0.0001136213	-0.000233762	1.421086E-11	-0.0001546859	-0.0002088701	1.407693E-11	9.642419	-1.804895	49.96996	0.618	-1	0	0	-1	-1.192096	18.95033	-12.88521	0.5833495	-66.61922	2.518427	0	-1	1
0.638	-4.565658E-05	-58.54416	-11.06686	0	-0.008535287	0.03474762	3.714907E-13	-10.35471	4.05004E-14	-8.507672	0	3.270971E-13	0.2143294	1.787948E-12	-0.2143294	1.787948E-12	-3.270971E-13	-3.577149E-15	49.97068	0.01545621	-1.953993E-14	-6.423146E-05	-0.0003115064	-1.953893E-14	-0.000119176	-0.0002948881	15.80776	0.0003180597	-1.332268E-11	-3.72529E-05	0.0001490116	-1.332268E-11	-9.86261E-06	0.0001532807	-1.338525E-11	9.650224	-1.763112	49.97068	0.638	-1	0	0	-1	-1.193198	18.9262	-12.84585	0.5822405	-66.45748	2.523448	0	-1	1
0.658	5.918193E-05	-56.03402	-10.7802	0	-0.007843921	0.03490429	-1.189627E-13	-10.11141	-1.821873E-13	-8.261343	0	-4.749096E-12	0.2101122	-7.648846E-14	-0.2101122	-7.648846E-14	4.749096E-12	-2.354679E-15	49.9714	0.0151547	-8.881784E-15	-6.426312E-05	-0.0003053765	-8.882998E-15	-0.0001168778	-0.0002893512	15.81792	0.000312065	-1.776357E-12	2.514571E-05	0.0004195608	-1.776355E-12	9.841444E-05	0.0004086296	-1.756303E-12	9.657732	-1.721863	49.9714	0.658	-1	0	0	-1	-1.194557	18.92035	-12.83481	0.5817118	-66.44022	2.52597	0	-1	1
0.678	-0.0001110119	-53.62323	-10.51212	0	-0.007106936	0.03504395	-1.295607E-12	-9.874956	2.082338E-14	-8.019663	0	-1.270018E-11	0.2029034	1.292233E-12	-0.2029034	1.292233E-12	1.270018E-11	-5.579717E-15	49.9721	0.01485881	-1.776357E-14	-6.328151E-05	-0.0002948996	-1.776601E-14	-0.0001129188	-0.0002796778	15.82786	0.0003016128	-1.776357E-12	6.705522E-05	0.0005981419	-1.776353E-12	0.0001686422	0.0005777802	-1.55781E-12	9.664827	-1.681822	49.9721	0.678	-1	0	0	-1	-1.196307	18.93091	-12.84986	0.5816755	-66.55934	2.526339	0	-1	1
0.698	-0.000447182	-51.31945	-10.26233	-3.637979E-09	-0.006519503	0.03512954	1.326825E-14	-9.648105	-3.069219E-13	-7.786124	0	-3.05879E-13	0.193651	-1.793132E-12	-0.193651	-1.793132E-12	3.05879E-13	-3.356462E-15	49.97277	0.01457225	-1.421085E-14	-6.151013E-05	-0.0002807132	-1.421233E-14	-0.0001076867	-0.0002664338	15.83739	0.0002873733	0	0.0001043081	0.000728527	3.850484E-18	0.0002249313	0.0007007408	-2.235765E-15	9.671469	-1.643421	49.97277	0.698	-1	0	0	-1	-1.19822	18.95451	-12.88428	0.5820175	-66.78159	2.524979	0	-1	1
0.718	-0.0008122211	-49.12238	-10.02914	1.818989E-09	-0.006218324	0.03516806	-7.934908E-14	-9.432974	1.260429E-13	-7.563065	0	-5.042767E-13	0.1826115	8.403356E-14	-0.1826115	8.403356E-14	5.042767E-13	-3.916684E-15	49.9734	0.01429801	0	-5.90086E-05	-0.0002647112	4.41629E-19	-0.0001015952	-0.0002514606	15.84642	0.0002712085	0	0.0001424923	0.0008600763	-1.502163E-18	0.0002815266	0.0008250928	1.340069E-14	9.67763	-1.606972	49.9734	0.718	-1	0	0	-1	-1.199927	18.98126	-12.92198	0.582451	-67.02163	2.523088	0	-1	1
0.738	-0.001050071	-47.05278	-9.813588	1.818989E-09	-0.006249542	0.03515726	4.683974E-13	-9.231672	-3.785065E-13	-7.352552	0	2.647066E-12	0.1696969	-3.195908E-12	-0.1696969	-3.195908E-12	-2.647066E-12	-3.832675E-15	49.974	0.01403928	0	-5.570613E-05	-0.0002459902	-8.52937E-19	-9.444804E-05	-0.0002338673	15.85494	0.0002522189	-1.421085E-11	0.0001834705	0.000997912	-1.421085E-11	0.0003411861	0.0009555532	-1.429001E-11	9.68328	-1.572832	49.974	0.738	-1	0	0	-1	-1.201168	18.99944	-12.94508	0.5826377	-67.18417	2.522139	0	-1	1
0.758	-0.001105571	-45.11355	-9.619679	-3.669447E-05	-0.00653611	0.03513999	6.132011E-13	-9.046343	1.216402E-13	-7.15673	0	-2.242206E-13	0.1549441	3.404072E-14	-0.1549441	3.404072E-14	2.242206E-13	3.303266E-16	49.97453	0.01379925	2.842171E-14	-5.159155E-05	-0.0002240129	2.842311E-14	-8.617211E-05	-0.0002131146	15.86291	0.0002298771	0	0.0002244487	0.001418171	-7.769523E-18	0.0004446407	0.001365241	-1.036922E-13	9.688423	-1.541093	49.97453	0.758	-1	0	0	-1	-1.202025	19.00346	-12.9449	0.5823786	-67.22737	2.523056	0	-1	1
0.778	-0.0009350728	-43.41978	-9.445124	0	-0.006916352	0.03512262	3.361889E-13	-8.878964	5.985331E-14	-6.977756	0	2.443228E-12	0.1385812	-1.303019E-12	-0.1385812	-1.303019E-12	-2.443228E-12	4.679778E-16	49.97503	0.01358089	-2.842171E-14	-4.673749E-05	-0.0002003564	-2.842105E-14	-7.710195E-05	-0.0001907416	15.87027	0.0002057354	-1.421085E-11	0.0002589076	0.001227367	-1.421086E-11	0.0004452462	0.001172697	-1.426773E-11	9.692888	-1.512978	49.97503	0.778	-1	0	0	-1	-1.202466	18.99209	-12.92148	0.5817088	-67.14281	2.525805	0	-1	1
0.798	-0.0006117005	-41.90649	-9.295591	0	-0.007187713	0.03513082	6.263954E-13	-8.731136	-1.945342E-13	-6.817484	0	1.424482E-11	0.1210056	-3.109167E-12	-0.1210056	-3.109167E-12	-1.424482E-11	-4.268476E-15	49.97546	0.01338689	2.842171E-14	-4.126877E-05	-0.0001749469	2.842185E-14	-6.73471E-05	-0.000166655	15.87698	0.0001797485	0	0.0002840534	0.001300825	-8.116226E-19	0.0004782242	0.001242631	-1.060074E-13	9.696796	-1.487896	49.97546	0.798	-1	0	0	-1	-1.202756	18.97219	-12.88604	0.580828	-66.98993	2.529581	0	-1	1
0.818	-0.0002623472	-40.61535	-9.169943	6.075424E-07	-0.007206505	0.03517268	2.837191E-13	-8.60399	-3.511863E-13	-6.677362	0	2.584748E-12	0.1026544	-3.915988E-13	-0.1026544	-3.915988E-13	-2.584748E-12	-2.672498E-15	49.97583	0.01321918	0	-3.534183E-05	-0.0001484144	-6.266999E-19	-5.714751E-05	-0.0001414569	15.88301	0.0001525643	-7.105427E-12	0.0003054738	0.001342501	-7.105421E-12	0.0005028798	0.001281693	-7.153452E-12	9.700101	-1.466335	49.97583	0.818	-1	0	0	-1	-1.203068	18.95212	-12.85238	0.5800084	-66.83857	2.533219	0	-1	1
0.838	-1.464657E-05	-39.55291	-9.068815	-5.875335E-07	-0.006945307	0.03524294	-1.944457E-14	-8.498112	6.400308E-15	-6.558296	0	-7.083625E-12	0.08398649	1.058445E-12	-0.08398649	1.058445E-12	7.083625E-12	-3.895065E-15	49.97614	0.0130789	-8.881784E-16	-2.914295E-05	-0.0001214249	-8.881807E-16	-4.676676E-05	-0.0001157851	15.88832	0.0001248732	-1.065814E-11	0.0003138557	0.001350418	-1.065814E-11	0.0005099702	0.00128921	-1.065485E-11	9.702804	-1.448401	49.97614	0.838	-1	0	0	-1	-1.203529	18.93904	-12.83145	0.5794557	-66.74725	2.535771	0	-1	1
0.858	4.432632E-05	-38.74819	-8.990405	-1.818989E-09	-0.006483	0.03532337	-5.660028E-13	-8.413588	-1.229193E-13	-6.46068	0	-3.844503E-12	0.06544568	-3.501047E-13	-0.06544568	-3.501047E-13	3.844503E-12	-3.458635E-15	49.97638	0.01296639	7.105427E-15	-2.285279E-05	-9.436975E-05	7.104865E-15	-3.64148E-05	-9.001035E-05	15.8929	9.709738E-05	-7.105427E-12	0.000314787	0.001327717	-7.105419E-12	0.0005056675	0.001267368	-7.009553E-12	9.704927	-1.434108	49.97638	0.858	-1	0	0	-1	-1.204084	18.93631	-12.8267	0.5792503	-66.7366	2.536825	0	-1	1
0.878	-8.273201E-05	-38.11043	-8.934055	0	-0.005976919	0.03538904	2.768546E-13	-8.350006	1.708623E-13	-6.384379	0	9.074511E-12	0.04744226	-4.129077E-13	-0.04744226	-4.129077E-13	-9.074511E-12	-3.736625E-15	49.97657	0.01288165	1.065814E-14	-1.664553E-05	-6.84096E-05	1.065847E-14	-2.64035E-05	-6.526716E-05	15.89675	7.040559E-05	8.881784E-13	0.0003064051	0.001272769	8.881722E-13	0.0004879882	0.00121478	8.412725E-13	9.706496	-1.423391	49.97657	0.878	-1	0	0	-1	-1.204728	18.94389	-12.83864	0.5793988	-66.80835	2.536322	0	-1	1
0.898	-0.0003345354	-37.7151	-8.898499	0	-0.005589833	0.0354192	1.119493E-12	-8.306523	-1.597717E-13	-6.328805	0	1.091185E-11	0.03033941	-1.593729E-12	-0.03033941	-1.593729E-12	-1.091185E-11	-5.520277E-16	49.9767	0.01282348	0	-1.067948E-05	-4.374818E-05	2.079723E-19	-1.688769E-05	-4.174638E-05	15.89987	4.503282E-05	0	0.0002924353	0.001197331	-5.694868E-18	0.0004623446	0.001142523	-1.89671E-13	9.70755	-1.416097	49.9767	0.898	-1	0	0	-1	-1.205349	18.95946	-12.86304	0.5798219	-66.94144	2.534569	0	-1	1
0.918	-0.0006254704	-37.51913	-8.881499	5.602487E-07	-0.005443259	0.03541694	-2.957583E-13	-8.281895	4.454818E-14	-6.292934	0	-6.787074E-12	0.01444305	-8.501474E-13	-0.01444305	-8.501474E-13	6.787074E-12	-3.385297E-15	49.97677	0.01279052	-2.842171E-14	-5.093403E-06	-2.0826E-05	-2.842173E-14	-8.040137E-06	-1.987514E-05	15.90228	2.14398E-05	-2.842171E-11	0.0002700835	0.001101638	-2.842171E-11	0.0004259507	0.001051246	-2.83716E-11	9.708121	-1.412016	49.97677	0.918	-1	0	0	-1	-1.205849	18.97775	-12.89059	0.5803213	-67.09176	2.532384	0	-1	1
0.938	-0.0008425828	-37.50494	-8.881306	5.584297E-07	-0.005586884	0.03538467	-3.879052E-13	-8.274594	5.784248E-14	-6.275399	0	-3.44974E-12	-4.131507E-06	-4.173619E-13	4.131507E-06	-4.173619E-13	3.44974E-12	-7.765587E-16	49.97679	0.01278073	2.842171E-14	3.72529E-09	6.286427E-09	2.842171E-14	4.591235E-09	5.684849E-09	15.90402	7.307322E-09	0	0.0002444721	0.0009908107	1.603035E-18	0.000384522	0.0009453123	6.572608E-14	9.70826	-1.410884	49.97679	0.938	-1	0	0	-1	-1.206044	18.99077	-12.90917	0.5806703	-67.19417	2.530765	0	-1	1
0.958	-0.0009057103	-37.57124	-8.885588	1.818989E-09	-0.005965224	0.03533445	-1.302882E-12	-8.283041	8.541409E-14	-6.274424	0	-2.062763E-12	-0.01341242	1.219078E-12	0.01341242	1.219078E-12	2.062763E-12	-5.05555E-15	49.97676	0.0127921	0	4.73205E-06	1.934008E-05	1.41008E-19	7.468883E-06	1.845662E-05	15.90515	1.991057E-05	0	0.0002412125	0.0009788199	7.175229E-18	0.0003797084	0.0009338594	2.207555E-13	9.708047	-1.412327	49.97676	0.958	-1	0	0	-1	-1.205983	18.99452	-12.91184	0.5807136	-67.2163	2.53044	0	-1	1
0.978	-0.0007767062	-37.7363	-8.897695	-1.818989E-09	-0.006427441	0.03528024	1.178754E-12	-8.307239	-1.684859E-13	-6.288722	0	1.121214E-11	-0.02761712	-7.174145E-13	0.02761712	-7.174145E-13	-1.121214E-11	1.20137E-15	49.97669	0.01282442	0	9.72487E-06	3.982219E-05	-1.992381E-19	1.537639E-05	3.79993E-05	15.90586	4.099244E-05	1.421085E-11	0.000259839	0.001071603	1.421085E-11	0.0004119391	0.001022817	1.401114E-11	9.707481	-1.416338	49.97669	0.978	-1	0	0	-1	-1.205696	18.98784	-12.89836	0.5804515	-67.15281	2.53146	0	-1	1
0.998	-0.0005119304	-38.05915	-8.92492	1.818989E-09	-0.006786192	0.03524728	-5.789687E-13	-8.34873	8.598655E-14	-6.319149	0	-1.667721E-12	-0.04352552	1.163539E-12	0.04352552	1.163539E-12	1.667721E-12	-3.040941E-15	49.97657	0.01287991	1.421085E-14	1.528207E-05	6.276136E-05	1.421101E-14	2.423293E-05	5.987734E-05	15.90621	6.459513E-05	1.421085E-11	0.0002896413	0.001208042	1.421086E-11	0.0004619768	0.001153184	1.430894E-11	9.706503	-1.423237	49.97657	0.998	-1	0	0	-1	-1.205249	18.97424	-12.87535	0.5800313	-67.03355	2.533251	0	-1	1
1.018	-0.0002084022	-38.61243	-8.975105	-5.748006E-07	-0.006908412	0.03524336	-1.072878E-12	-8.409532	5.453431E-14	-6.367716	0	-5.756293E-12	-0.06101669	-6.952858E-14	0.06101669	-6.952858E-14	5.756293E-12	-4.991384E-15	49.97639	0.012961	-1.421085E-14	2.133474E-05	8.798297E-05	-1.42103E-14	3.397265E-05	8.391683E-05	15.90613	9.053273E-05	-7.105427E-12	0.0003073364	0.001287204	-7.105419E-12	0.0004922824	0.001228417	-6.923699E-12	9.705015	-1.43346	49.97639	1.018	-1	0	0	-1	-1.204771	18.95965	-12.85267	0.5796441	-66.90866	2.534984	0	-1	1
1.038	4.963269E-06	-39.4423	-9.053327	3.637979E-09	-0.006764968	0.03526667	-8.294309E-13	-8.490638	2.038776E-14	-6.436375	0	-1.008533E-11	-0.07864115	5.848656E-13	0.07864115	5.848656E-13	1.008533E-11	-2.207077E-16	49.97616	0.01306894	-1.909584E-14	2.734177E-05	0.000113697	-1.909524E-14	4.382922E-05	0.000108414	15.90542	0.0001169384	-1.776357E-12	0.0002896413	0.001240987	-1.77635E-12	0.0004696958	0.001184621	-1.635894E-12	9.702952	-1.44724	49.97616	1.038	-1	0	0	-1	-1.20437	18.94955	-12.83863	0.5794467	-66.82272	2.535947	0	-1	1
1.058	3.406814E-05	-40.5271	-9.157742	1.818989E-09	-0.006437263	0.03530463	3.627814E-13	-8.591088	1.559785E-13	-6.525366	0	-4.810488E-12	-0.09470025	1.647167E-12	0.09470025	1.647167E-12	4.810488E-12	-1.309695E-15	49.97587	0.01320207	-2.04281E-14	3.268942E-05	0.0001369149	-2.042881E-14	5.277519E-05	0.0001304955	15.90391	0.0001407632	-1.199041E-11	0.0002458691	0.001082779	-1.199041E-11	0.0004048576	0.001033901	-1.205183E-11	9.700334	-1.464399	49.97587	1.058	-1	0	0	-1	-1.203997	18.94685	-12.83678	0.5795251	-66.79457	2.535736	0	-1	1
1.078	-0.0001361027	-41.81435	-9.283888	1.818989E-09	-0.006081171	0.03533018	-3.913824E-14	-8.70831	-9.710411E-14	-6.632962	0	-2.047917E-12	-0.1080457	-6.064962E-13	0.1080457	-6.064962E-13	2.047917E-12	-1.927454E-15	49.97552	0.01335689	-7.105427E-15	3.698468E-05	0.0001562093	-7.105122E-15	6.020907E-05	0.0001488089	15.90154	0.000160528	-5.32907E-12	0.0001890585	0.0008621718	-5.329068E-12	0.0003174154	0.0008236084	-5.322445E-12	9.697227	-1.484452	49.97552	1.078	-1	0	0	-1	-1.203734	18.95346	-12.85033	0.5799266	-66.84206	2.534123	0	-1	1
1.098	-0.0004563635	-43.24902	-9.426675	0	-0.005859002	0.03532711	6.331696E-13	-8.838785	-9.466492E-14	-6.756086	0	3.763474E-12	-0.1180995	-5.839204E-13	0.1180995	-5.839204E-13	-3.763474E-12	-2.568729E-15	49.97514	0.01352826	-1.421085E-14	4.003756E-05	0.0001707447	-1.42113E-14	6.579784E-05	0.0001625651	15.89833	0.0001753761	0	0.0001220032	0.0006139743	-1.360359E-18	0.0002148945	0.0005879368	-1.071232E-13	9.693718	-1.506765	49.97514	1.098	-1	0	0	-1	-1.203564	18.96897	-12.87741	0.5806006	-66.95992	2.531278	0	-1	1
1.118	-0.0008168844	-44.77913	-9.580685	0	-0.005897555	0.03528457	-7.449273E-13	-8.978584	1.470649E-14	-6.890965	0	3.563723E-12	-0.124669	-1.485471E-12	0.124669	-1.485471E-12	-3.563723E-12	-1.009481E-15	49.97473	0.01371105	0	4.182756E-05	0.0001802428	8.566164E-19	6.944468E-05	0.0001715064	15.89436	0.0001850325	0	6.332993E-05	0.0003618188	1.454577E-18	0.0001190213	0.0003475017	1.259827E-13	9.689915	-1.530653	49.97473	1.118	-1	0	0	-1	-1.203199	18.98701	-12.90785	0.5813795	-67.09203	2.527908	0	-1	1
1.138	-0.001059603	-46.35713	-9.741843	0	-0.006238446	0.03519233	2.972631E-13	-9.123733	-1.487127E-13	-7.033614	0	-5.932497E-12	-0.1278014	-1.810031E-12	0.1278014	-1.810031E-12	5.932497E-12	-2.538576E-15	49.97431	0.01389965	0	4.241057E-05	0.0001852585	1.111832E-19	7.124989E-05	0.0001761897	15.88975	0.0001900509	1.421085E-11	2.793967E-06	0.0001180451	1.421085E-11	2.147669E-05	0.0001161086	1.41606E-11	9.685908	-1.555427	49.97431	1.138	-1	0	0	-1	-1.202565	19.00133	-12.93111	0.5820365	-67.1877	2.524968	0	-1	1
1.158	-0.001118469	-47.93902	-9.905268	1.818989E-09	-0.006797781	0.03508714	1.214601E-12	-9.270405	-1.929077E-13	-7.180083	0	7.405755E-12	-0.127698	-1.206104E-12	0.127698	-1.206104E-12	-7.405755E-12	7.281783E-16	49.97388	0.01408924	0	4.190207E-05	0.000185109	-8.855794E-19	7.117474E-05	0.0001759411	15.88465	0.0001897923	-1.421085E-11	-4.936009E-05	-0.0001073349	-1.421085E-11	-6.600642E-05	-9.798141E-05	-1.44161E-11	9.681807	-1.580431	49.97388	1.158	-1	0	0	-1	-1.201638	19.0055	-12.93741	0.5823671	-67.19703	2.52338	0	-1	1
1.178	-0.000948151	-49.48614	-10.06723	0	-0.007398086	0.03499003	-4.355136E-13	-9.415079	-2.391042E-13	-7.326648	0	-2.970472E-13	-0.1246626	-1.795519E-12	0.1246626	-1.795519E-12	2.970472E-13	-4.282812E-16	49.97345	0.0142751	2.842171E-14	4.04492E-05	0.0001807087	2.842299E-14	6.946566E-05	0.0001716575	15.87921	0.0001851804	1.421085E-11	-9.033828E-05	-0.0003082677	1.421085E-11	-0.0001395495	-0.0002893371	1.428441E-11	9.677711	-1.605064	49.97345	1.178	-1	0	0	-1	-1.2005	18.998	-12.92488	0.5823219	-67.11062	2.523407	0	-1	1
1.198	-0.0005918844	-50.96567	-10.22423	-3.637979E-09	-0.007833179	0.03491989	-1.017E-12	-9.554622	-1.424891E-13	-7.469923	0	-1.046477E-11	-0.1190597	8.370572E-13	0.1190597	8.370572E-13	1.046477E-11	-2.850032E-15	49.97304	0.01445335	-2.842171E-14	3.820658E-05	0.0001725866	-2.84201E-14	6.632385E-05	0.0001638507	15.87359	0.0001767651	1.421085E-11	-0.0001285225	-0.0004821922	1.421085E-11	-0.0002067776	-0.00045417	1.438256E-11	9.673707	-1.628794	49.97304	1.198	-1	0	0	-1	-1.19921	18.98088	-12.89866	0.5820244	-66.94837	2.524613	0	-1	1
1.218	-0.0002192797	-52.34877	-10.37322	0	-0.007948492	0.03490966	-1.876264E-12	-9.686339	2.11246E-13	-7.606953	0	-1.416169E-11	-0.1112873	1.490935E-12	0.1112873	1.490935E-12	1.416169E-11	-3.37071E-15	49.97266	0.01462075	-1.421085E-14	3.533997E-05	0.0001613204	-1.420942E-14	6.197902E-05	0.0001530745	15.86793	0.000165146	-3.552713E-12	-0.0001555309	-0.0006256159	-3.55272E-12	-0.0002585762	-0.0005905281	-3.236051E-12	9.669887	-1.651166	49.97266	1.218	-1	0	0	-1	-1.198108	18.96195	-12.87139	0.5816806	-66.77962	2.526125	0	-1	1
1.238	1.765127E-05	-53.61351	-10.51128	0	-0.007739936	0.03494633	4.500156E-13	-9.808005	-2.866816E-13	-7.735217	0	9.100758E-12	-0.101754	-3.418454E-12	0.101754	-3.418454E-12	-9.100758E-12	-4.303099E-15	49.9723	0.01477455	1.154632E-14	3.199838E-05	0.0001478894	1.154661E-14	5.672323E-05	0.000140277	15.86238	0.0001513115	4.218847E-12	-0.00017602	-0.0007417984	4.218846E-12	-0.0002998105	-0.0007009718	4.142922E-12	9.666318	-1.671807	49.9723	1.238	-1	0	0	-1	-1.197317	18.94834	-12.85429	0.5815083	-66.66277	2.52697	0	-1	1
1.258	7.660773E-06	-54.74311	-10.6362	0	-0.007324924	0.0350035	2.783031E-13	-9.917857	-4.99279E-14	-7.852669	0	3.942321E-12	-0.09086668	-2.535455E-12	0.09086668	-2.535455E-12	-3.942321E-12	-3.106605E-15	49.97197	0.01491274	7.993606E-15	2.831779E-05	0.0001320657	7.993474E-15	5.064109E-05	0.0001252147	15.85706	0.0001350676	6.217249E-12	-0.0001909211	-0.00082748	6.217249E-12	-0.0003305899	-0.0007822304	6.170311E-12	9.663067	-1.690418	49.97197	1.258	-1	0	0	-1	-1.196826	18.94475	-12.85326	0.5816394	-66.62977	2.526554	0	-1	1
1.278	-0.000250558	-55.80801	-10.75802	0	-0.006907601	0.03503533	-9.78218E-13	-10.01424	-4.105225E-14	-7.957851	0	-8.265042E-12	-0.0782206	-3.889981E-13	0.0782206	-3.889981E-13	8.265042E-12	-5.235085E-15	49.97169	0.0150335	7.105427E-15	2.418272E-05	0.0001136856	7.106253E-15	4.358342E-05	0.0001077484	15.85204	0.0001162292	1.065814E-11	-0.0002225861	-0.001000939	1.065813E-11	-0.0003932511	-0.0009469829	1.082307E-11	9.660148	-1.706837	49.97169	1.278	-1	0	0	-1	-1.196352	18.95311	-12.87277	0.5822466	-66.69075	2.524137	0	-1	1
1.298	-0.0006623819	-56.72465	-10.86421	8.44011E-07	-0.006656181	0.03503007	-8.856182E-13	-10.0945	4.715993E-14	-8.048788	0	2.23803E-13	-0.0628988	-4.081542E-14	0.0628988	-4.081542E-14	-2.23803E-13	-2.100634E-15	49.97145	0.01513363	-2.842171E-14	1.931563E-05	9.141723E-05	-2.842124E-14	3.503952E-05	8.66166E-05	15.84733	9.343556E-05	-1.421085E-11	-0.0002617016	-0.001210021	-1.421086E-11	-0.0004697334	-0.001145421	-1.406157E-11	9.657673	-1.720565	49.97145	1.298	-1	0	0	-1	-1.196407	18.97564	-12.91247	0.5831482	-66.87239	2.520312	0	-1	1
1.318	-0.001085191	-57.43982	-10.94789	-3.637979E-09	-0.00669825	0.03498199	-1.057819E-12	-10.15534	-2.664299E-14	-8.122412	0	-2.286549E-12	-0.04467407	-5.152195E-13	0.04467407	-5.152195E-13	2.286549E-12	-2.558395E-15	49.97127	0.01520938	2.842171E-14	1.364946E-05	6.492948E-05	2.84222E-14	2.488383E-05	6.150561E-05	15.84305	6.634866E-05	1.421085E-11	-0.0002989545	-0.001410954	1.421084E-11	-0.0005430469	-0.001336138	1.438912E-11	9.655767	-1.731012	49.97127	1.318	-1	0	0	-1	-1.196438	19.00015	-12.95345	0.584056	-67.06689	2.516355	0	-1	1
1.338	-0.001335771	-57.88358	-11.00003	0	-0.007057196	0.03489053	8.048863E-14	-10.19382	8.498416E-14	-8.175296	0	-2.846411E-12	-0.02427246	-4.122144E-13	0.02427246	-4.122144E-13	2.846411E-12	-1.179127E-15	49.97116	0.01525719	0	7.389113E-06	3.52771E-05	-7.131172E-20	1.351576E-05	3.341253E-05	15.83941	3.604265E-05	-2.842171E-11	-0.0003213063	-0.001523644	-2.84217E-11	-0.0005858866	-0.001442728	-2.843527E-11	9.654561	-1.737602	49.97116	1.338	-1	0	0	-1	-1.196339	19.01721	-12.9799	0.5846307	-67.19803	2.513686	0	-1	1
1.358	-0.001335479	-58.02625	-11.01666	-3.637979E-09	-0.007618441	0.03479526	-4.754366E-13	-10.20835	-2.50927E-14	-8.204808	0	-2.448231E-12	-0.003231271	-1.4074E-12	0.003231271	-1.4074E-12	2.448231E-12	-4.848823E-15	49.97112	0.01527524	-5.684342E-14	9.834766E-07	4.696194E-06	-5.68434E-14	1.800206E-06	4.447552E-06	15.83663	4.798069E-06	-5.684342E-11	-0.0003166496	-0.001517357	-5.684342E-11	-0.0005805555	-0.001437218	-5.676331E-11	9.654125	-1.740046	49.97112	1.358	-1	0	0	-1	-1.195948	19.01758	-12.97871	0.5846389	-67.19227	2.51339	0	-1	1
1.378	-0.001070595	-57.88605	-11.00034	3.637979E-09	-0.008167957	0.03473036	-8.195775E-13	-10.19919	-6.845584E-14	-8.210106	0	-4.699416E-12	0.016985	8.457324E-13	-0.016985	8.457324E-13	4.699416E-12	-4.830282E-15	49.97114	0.01526381	0	-5.16884E-06	-2.468657E-05	-1.647915E-19	-9.458433E-06	-2.338122E-05	15.83487	2.522189E-05	-1.421085E-11	-0.0002989545	-0.001419103	-1.421086E-11	-0.0005455121	-0.001343742	-1.407276E-11	9.654439	-1.738408	49.97114	1.378	-1	0	0	-1	-1.195431	19.00147	-12.95101	0.5840904	-67.05497	2.515533	0	-1	1
1.398	-0.0006404369	-57.49775	-10.95514	-3.637979E-09	-0.008477706	0.03471991	-3.03281E-13	-10.16792	4.84744E-14	-8.192061	0	-1.245476E-12	0.03538229	2.071577E-12	-0.03538229	2.071577E-12	1.245476E-12	-9.242865E-16	49.97124	0.01522501	0	-1.078844E-05	-5.142437E-05	-6.075496E-20	-1.969714E-05	-4.871221E-05	15.83417	5.254386E-05	0	-0.0002654269	-0.001262873	-1.494543E-18	-0.0004841979	-0.001196183	5.11098E-14	9.655447	-1.732992	49.97124	1.398	-1	0	0	-1	-1.194953	18.97506	-12.90824	0.5832209	-66.84011	2.519193	0	-1	1
1.418	-0.0002099345	-56.89917	-10.88613	0	-0.008422157	0.03476933	-1.838383E-12	-10.11705	3.184886E-13	-8.152713	0	-1.007244E-11	0.05137518	1.798915E-12	-0.05137518	1.798915E-12	1.007244E-11	-3.704394E-15	49.97139	0.01516175	-1.421085E-14	-1.573376E-05	-7.466879E-05	-1.421136E-14	-2.860541E-05	-7.074398E-05	15.83449	7.630845E-05	-3.552713E-12	-0.0002318993	-0.00107591	-3.552721E-12	-0.0004172875	-0.001018446	-3.242853E-12	9.657047	-1.72424	49.97139	1.418	-1	0	0	-1	-1.194771	18.94903	-12.86832	0.582379	-66.63818	2.522905	0	-1	1
1.438	3.67448E-05	-56.12783	-10.79827	0	-0.008020354	0.03486745	-2.168655E-12	-10.04954	2.69891E-13	-8.094804	0	-1.43E-11	0.064657	5.307673E-12	-0.064657	5.307673E-12	1.43E-11	-1.724248E-15	49.97158	0.01507756	-2.131628E-14	-1.990423E-05	-9.397231E-05	-2.13172E-14	-3.599697E-05	-8.905723E-05	15.83573	9.605713E-05	-7.993605E-12	-0.0001909211	-0.0008731149	-7.993614E-12	-0.0003403501	-0.0008264032	-7.628001E-12	9.659148	-1.712668	49.97158	1.438	-1	0	0	-1	-1.195123	18.93379	-12.84615	0.5818256	-66.53313	2.525453	0	-1	1
1.458	4.878615E-06	-55.22049	-10.69617	3.637979E-09	-0.007424663	0.03498437	1.350144E-12	-9.968593	-5.500385E-13	-8.021428	0	1.132934E-11	0.0751073	-3.839907E-12	-0.0751073	-3.839907E-12	-1.132934E-11	-1.559853E-15	49.97182	0.01497637	1.598721E-14	-2.327561E-05	-0.0001091617	1.598715E-14	-4.182102E-05	-0.0001034845	15.83776	0.0001116156	3.552713E-12	-0.0001490116	-0.0006665941	3.552713E-12	-0.0002621549	-0.0006307352	3.325036E-12	9.661634	-1.698824	49.97182	1.458	-1	0	0	-1	-1.195844	18.93266	-12.8458	0.5816844	-66.54348	2.526249	0	-1	1.032911
1.478	-0.0002559046	-54.21387	-10.58395	-3.637979E-09	-0.006849755	0.03506728	-3.956875E-13	-9.877456	6.413077E-14	-7.935848	0	2.681089E-13	0.08273606	8.770667E-13	-0.08273606	8.770667E-13	-2.681089E-13	-2.834108E-15	49.9721	0.014862	-7.105427E-15	-2.582744E-05	-0.0001202486	-7.105611E-15	-4.607223E-05	-0.0001140357	15.84045	0.000122991	0	-0.0001089647	-0.0004635658	-7.716697E-19	-0.0001868703	-0.0004380023	6.674336E-14	9.664399	-1.68326	49.9721	1.478	-1	0	0	-1	-1.196901	18.94636	-12.86878	0.5819896	-66.67575	2.525108	0	-1	1.032911
1.498	-0.000640925	-53.14149	-10.46581	0	-0.006474956	0.03510198	-4.087123E-13	-9.779305	-3.872313E-14	-7.841301	0	-1.750171E-12	0.08764299	1.225186E-12	-0.08764299	1.225186E-12	1.750171E-12	-5.007618E-15	49.97239	0.01473828	0	-2.757646E-05	-0.0001273807	-4.342829E-19	-4.881182E-05	-0.0001208458	15.84365	0.0001303315	-1.421085E-11	-7.171183E-05	-0.0002712477	-1.421085E-11	-0.0001167422	-0.0002551257	-1.414189E-11	9.667337	-1.666519	49.97239	1.498	-1	0	0	-1	-1.198051	18.97018	-12.90629	0.5825775	-66.88666	2.522646	0	-1	1.067567
1.518	-0.001010292	-52.03496	-10.34495	7.748894E-07	-0.006407327	0.03509572	-9.13827E-14	-9.677166	-9.302556E-14	-7.740926	0	-9.38351E-12	0.08998378	-2.449987E-13	-0.08998378	-2.449987E-13	9.38351E-12	-9.837625E-16	49.97268	0.01460908	-2.842171E-14	-2.854317E-05	-0.0001304387	-2.8422E-14	-5.006331E-05	-0.0001237846	15.84722	0.0001335252	-1.421085E-11	-3.073364E-05	-9.010545E-05	-1.421085E-11	-4.544273E-05	-8.365708E-05	-1.419543E-11	9.670364	-1.649111	49.97268	1.518	-1	0	0	-1	-1.199066	18.99477	-12.94244	0.5831275	-67.09758	2.520188	0	-1	1.067567
1.538	-0.001207847	-50.92527	-10.22506	-7.566995E-07	-0.006653484	0.03505161	6.616596E-13	-9.573847	-9.123267E-15	-7.637691	0	2.948453E-12	0.08997659	-2.34303E-12	-0.08997659	-2.34303E-12	-2.948453E-12	2.378221E-15	49.97299	0.01447783	-5.684342E-14	-2.8776E-05	-0.0001304285	-5.684286E-14	-5.00679E-05	-0.0001238259	15.85103	0.0001335651	-2.842171E-11	5.587935E-06	7.241032E-05	-2.842171E-11	1.75533E-05	7.047242E-05	-2.853342E-11	9.673385	-1.631516	49.97299	1.538	-1	0	0	-1	-1.199669	19.00834	-12.95993	0.5833343	-67.21243	2.51912	0	-1	1.099604
1.558	-0.001163241	-49.83789	-10.10826	0	-0.007093015	0.03500073	1.440278E-14	-9.471882	-2.147668E-13	-7.534306	0	1.419922E-12	0.08786897	-1.158985E-12	-0.08786897	-1.158985E-12	-1.419922E-12	-2.183019E-15	49.97329	0.01434779	0	-2.83327E-05	-0.0001273742	-4.651538E-19	-4.890757E-05	-0.0001209751	15.85496	0.0001304873	-2.842171E-11	3.72529E-05	0.000215834	-2.842171E-11	7.226343E-05	0.0002067609	-2.842414E-11	9.676328	-1.614162	49.97329	1.558	-1	0	0	-1	-1.199947	19.00629	-12.95193	0.5830351	-67.19814	2.520191	0	-1	1.131326
1.578	-0.0009045277	-48.7881	-9.996011	7.275957E-07	-0.007521845	0.03497262	1.004809E-12	-9.373528	-1.684849E-13	-7.433194	0	9.157354E-12	0.08388318	3.304917E-13	-0.08388318	3.304917E-13	-9.157354E-12	1.703888E-15	49.97358	0.0142218	2.842171E-14	-2.725422E-05	-0.0001215958	2.842217E-14	-4.669464E-05	-0.0001155333	15.85891	0.0001246127	1.421085E-11	6.798654E-05	0.0003501773	1.421085E-11	0.0001241122	0.0003344285	1.404111E-11	9.679136	-1.597421	49.97358	1.578	-1	0	0	-1	-1.199924	18.98975	-12.92184	0.5823314	-67.0646	2.523099	0	-1	1.131326
1.598	-0.0005181053	-47.78095	-9.889128	1.818989E-09	-0.00773488	0.03498439	5.820634E-13	-9.280993	-2.041578E-13	-7.336493	0	1.559533E-11	0.07787513	-2.549313E-12	-0.07787513	-2.549313E-12	-1.559533E-11	-8.901017E-16	49.97385	0.01410283	1.421085E-14	-2.548657E-05	-0.000112887	1.421089E-14	-4.335895E-05	-0.0001072989	15.86282	0.0001157283	-7.105427E-12	0.0001052394	0.0005024485	-7.105427E-12	0.0001848949	0.0004788984	-7.203781E-12	9.681765	-1.581643	49.97385	1.598	-1	0	0	-1	-1.199897	18.96823	-12.8847	0.5814938	-66.89233	2.526703	0	-1	1.159562
1.618	-0.0001524509	-46.86279	-9.792624	1.818989E-09	-0.007635979	0.03503581	-1.835991E-13	-9.196622	-8.155432E-14	-7.246542	0	2.356637E-12	0.06986458	-3.813254E-13	-0.06986458	-3.813254E-13	-2.356637E-12	-2.699339E-15	49.9741	0.01399399	-7.105427E-15	-2.301857E-05	-0.0001012748	-7.105696E-15	-3.890872E-05	-9.62941E-05	15.8666	0.0001038578	-1.065814E-11	0.0001369044	0.0006423797	-1.065814E-11	0.0002378116	0.0006122419	-1.062711E-11	9.684138	-1.567251	49.9741	1.618	-1	0	0	-1	-1.200086	18.94863	-12.85314	0.5807543	-66.74436	2.530004	0	-1	1.189167
1.638	4.298955E-05	-46.06173	-9.709641	-1.818989E-09	-0.007254411	0.03511733	4.102542E-13	-9.122576	2.405433E-13	-7.165655	0	7.007174E-12	0.06009644	3.4801E-12	-0.06009644	3.4801E-12	-7.007174E-12	1.080996E-15	49.97432	0.01389815	-5.329071E-15	-1.990981E-05	-8.711405E-05	-5.328465E-15	-3.346967E-05	-8.285553E-05	15.87018	8.936028E-05	-1.24345E-11	0.000167638	0.0007564667	-1.24345E-11	0.0002854533	0.0007203199	-1.250386E-11	9.686203	-1.554627	49.97432	1.638	-1	0	0	-1	-1.200478	18.93769	-12.83656	0.5803198	-66.66969	2.53205	0	-1	1.189167
1.658	9.627455E-06	-45.3773	-9.643221	-3.678542E-05	-0.006722879	0.03520465	3.178035E-13	-9.060555	-1.615796E-13	-7.095902	0	1.203857E-12	0.04910748	-1.113235E-12	-0.04910748	-1.113235E-12	-1.203857E-12	6.226691E-16	49.97449	0.01381767	1.687539E-14	-1.635402E-05	-7.099891E-05	1.687534E-14	-2.733075E-05	-6.753761E-05	15.87346	7.285808E-05	4.440892E-12	0.0001825392	0.0009124632	4.440893E-12	0.0003239547	0.000872332	4.387158E-12	9.68792	-1.543989	49.97449	1.658	-1	0	0	-1	-1.201079	18.93881	-12.83871	0.5802612	-66.69151	2.532473	0	-1	1.221141
1.678	-0.0002256192	-44.90571	-9.592505	0	-0.006230089	0.03526505	2.649782E-13	-9.011538	-1.531953E-13	-7.03874	0	-5.674626E-12	0.03756227	-9.419522E-13	-0.03756227	-9.419522E-13	5.674626E-12	-2.126619E-15	49.97464	0.01375392	0	-1.255423E-05	-5.430682E-05	-4.852082E-20	-2.090553E-05	-5.167009E-05	15.87633	5.573903E-05	-1.065814E-11	0.0001918524	0.0008388888	-1.065814E-11	0.0003208823	0.0007984837	-1.070295E-11	9.689235	-1.535775	49.97464	1.678	-1	0	0	-1	-1.201736	18.95057	-12.8584	0.5805851	-66.79797	2.531225	0	-1	1.251964
1.698	-0.0005701072	-44.55749	-9.558551	0	-0.005931377	0.03528803	-3.351375E-13	-8.975771	4.490614E-14	-6.994833	0	-1.153307E-13	0.0260599	-1.823171E-12	-0.0260599	-1.823171E-12	1.153307E-13	-2.591981E-15	49.97474	0.01370737	0	-8.73208E-06	-3.767619E-05	-5.530418E-20	-1.450327E-05	-3.585247E-05	15.87874	3.867485E-05	0	0.0001881271	0.000820728	1.192655E-18	0.0003138708	0.0007813267	5.667969E-14	9.690185	-1.529743	49.97474	1.698	-1	0	0	-1	-1.202493	18.97129	-12.89048	0.581138	-66.97408	2.528869	0	-1	1.251964
1.718	-0.0008866883	-44.35236	-9.538761	0	-0.005930088	0.03526619	9.112152E-13	-8.952924	-1.491339E-13	-6.964155	0	4.125889E-12	0.01501921	-1.570953E-12	-0.01501921	-1.570953E-12	-4.125889E-12	1.711554E-15	49.97481	0.01367752	0	-5.044043E-06	-2.171425E-05	7.646445E-20	-8.361824E-06	-2.066473E-05	15.88067	2.22924E-05	0	0.0001788139	0.0007764901	-2.709846E-18	0.000297475	0.0007392023	-1.541173E-13	9.690778	-1.525921	49.97481	1.718	-1	0	0	-1	-1.202919	18.99038	-12.91925	0.5816739	-67.1292	2.526499	0	-1	1.280729
1.738	-0.001053851	-44.27913	-9.532074	1.818989E-09	-0.006224145	0.03520877	1.990675E-13	-8.942279	6.576663E-14	-6.946203	0	3.283937E-12	0.004734985	-1.437436E-12	-0.004734985	-1.437436E-12	-3.283937E-12	-8.728201E-16	49.97484	0.01366368	-2.842171E-14	-1.590699E-06	-6.845687E-06	-2.842169E-14	-2.635454E-06	-6.515223E-06	15.8821	7.028068E-06	-2.842171E-11	0.0001648441	0.0007140915	-2.842171E-11	0.0002738384	0.0006797888	-2.845538E-11	9.691038	-1.524181	49.97484	1.738	-1	0	0	-1	-1.20303	19.00144	-12.93408	0.5819491	-67.21359	2.525167	0	-1	1.309636
1.758	-0.001019925	-44.32474	-9.536815	6.602931E-07	-0.006697843	0.03514447	-6.647395E-13	-8.942831	2.000543E-13	-6.940114	0	-4.829125E-12	-0.004588443	7.598664E-13	0.004588443	7.598664E-13	4.829125E-12	-4.69354E-15	49.97484	0.01366435	-2.842171E-14	1.54227E-06	6.633811E-06	-2.84217E-14	2.554741E-06	6.313426E-06	15.88306	6.81073E-06	0	0.0001499429	0.0006398186	6.38394E-19	0.0002475793	0.0006087324	1.124317E-13	9.690997	-1.524345	49.97484	1.758	-1	0	0	-1	-1.202801	18.99978	-12.9286	0.5818402	-67.19185	2.525461	0	-1	1.309636
1.778	-0.0007863772	-44.47457	-9.552256	-6.621121E-07	-0.00716119	0.03509443	-6.38412E-13	-8.953379	3.003242E-13	-6.944793	0	-8.788835E-12	-0.01281608	4.638285E-13	0.01281608	4.638285E-13	8.788835E-12	-3.899342E-15	49.97481	0.01367816	-2.842171E-14	4.304573E-06	1.852913E-05	-2.842173E-14	7.135824E-06	1.763343E-05	15.88357	1.902256E-05	1.421085E-11	0.0001303851	0.0005571637	1.421085E-11	0.0002155082	0.0005300828	1.431883E-11	9.690684	-1.526207	49.97481	1.778	-1	0	0	-1	-1.202298	18.98656	-12.90568	0.5814202	-67.07445	2.527174	0	-1	1.337349
1.798	-0.0004366423	-44.71397	-9.57646	0	-0.007425764	0.03507562	2.583989E-13	-8.972621	-4.781663E-14	-6.958992	0	1.542604E-12	-0.01986318	-1.164241E-12	0.01986318	-1.164241E-12	-1.542604E-12	9.708729E-16	49.97475	0.01370329	0	6.660819E-06	2.871733E-05	-2.590494E-20	1.105814E-05	2.732708E-05	15.88367	2.947968E-05	7.105427E-12	0.0001089647	0.0004698522	7.105426E-12	0.0001809106	0.0004471082	7.061726E-12	9.690136	-1.529545	49.97475	1.798	-1	0	0	-1	-1.201759	18.96776	-12.87543	0.5808647	-66.91492	2.529574	0	-1	1.365178
1.818	-0.0001183988	-45.0265	-9.608153	0	-0.007388137	0.03510193	1.528944E-13	-8.999169	-3.144396E-14	-6.981358	0	3.817786E-12	-0.02568705	-6.045527E-13	0.02568705	-6.045527E-13	-3.817786E-12	8.942187E-16	49.97467	0.01373787	3.552714E-15	8.596107E-06	3.713742E-05	3.552696E-15	1.429934E-05	3.533567E-05	15.88338	3.81193E-05	8.881783E-12	8.754431E-05	0.0003816094	8.881783E-12	0.0001461581	0.0003632183	8.855927E-12	9.689392	-1.534119	49.97467	1.818	-1	0	0	-1	-1.2014	18.95115	-12.85046	0.5804034	-66.77971	2.531651	0	-1	1.394178
1.838	4.390888E-05	-45.39824	-9.646234	1.818989E-09	-0.007080974	0.03515542	1.010323E-12	-9.031618	-6.192396E-14	-7.010483	0	6.175286E-12	-0.03028402	-9.810287E-13	0.03028402	-9.810287E-13	-6.175286E-12	6.216313E-16	49.97458	0.01378007	1.776357E-14	1.01123E-05	4.37838E-05	1.776332E-14	1.686009E-05	4.165354E-05	15.88276	4.49364E-05	1.421085E-11	6.705522E-05	0.0002922024	1.421085E-11	0.0001120937	0.0002780534	1.404001E-11	9.688486	-1.539691	49.97458	1.838	-1	0	0	-1	-1.201219	18.94196	-12.83825	0.5802004	-66.70721	2.532665	0	-1	1.394178
1.858	-1.881328E-05	-45.8133	-9.689167	-6.8394E-07	-0.006631311	0.03521562	-9.024918E-13	-9.068559	-7.358583E-14	-7.044967	0	-2.469805E-12	-0.03365698	3.936785E-13	0.03365698	3.936785E-13	2.469805E-12	-1.026141E-15	49.97447	0.01382807	-3.552714E-15	1.120754E-05	4.866067E-05	-3.552356E-15	1.873716E-05	4.628595E-05	15.88186	4.993466E-05	7.771561E-13	4.470348E-05	0.000204891	7.771575E-13	7.643884E-05	0.0001952839	9.297478E-13	9.687456	-1.546019	49.97447	1.858	-1	0	0	-1	-1.201279	18.94353	-12.843	0.5803273	-66.72285	2.532259	0	-1	1.422376
1.878	-0.0002764957	-46.25697	-9.73525	3.637979E-09	-0.006225382	0.0352515	1.925052E-13	-9.108612	-1.419361E-13	-7.083399	0	1.708287E-12	-0.03584779	-1.194876E-12	0.03584779	-1.194876E-12	-1.708287E-12	-2.902912E-15	49.97435	0.01388007	0	1.190044E-05	5.196407E-05	6.160965E-20	1.997662E-05	4.942489E-05	15.88072	5.330934E-05	7.105427E-12	2.607703E-05	0.0001213048	7.105427E-12	4.495152E-05	0.0001156469	7.072883E-12	9.686341	-1.552871	49.97435	1.878	-1	0	0	-1	-1.201527	18.95615	-12.86536	0.5808027	-66.82877	2.53032	0	-1	1.451682
1.898	-0.0006416521	-46.70412	-9.781173	1.818989E-09	-0.006020566	0.03524999	-2.824695E-13	-9.150503	-1.705518E-13	-7.12441	0	-1.130963E-12	-0.03701105	-1.660445E-12	0.03701105	-1.660445E-12	1.130963E-12	-3.94636E-15	49.97423	0.01393437	-2.842171E-14	1.224875E-05	5.36507E-05	-2.842145E-14	2.062486E-05	5.102004E-05	15.8794	5.503117E-05	0	1.303852E-05	5.960464E-05	2.876175E-19	2.235141E-05	5.677262E-05	4.774834E-14	9.685182	-1.560012	49.97423	1.898	-1	0	0	-1	-1.201695	18.97543	-12.89744	0.5815054	-66.98256	2.527347	0	-1	1.451682
1.918	-0.0009603203	-47.147	-9.826723	-7.021299E-07	-0.006113837	0.03520076	-5.529751E-13	-9.193291	-1.271667E-13	-7.166794	0	-1.178296E-12	-0.03752472	1.903386E-13	0.03752472	1.903386E-13	1.178296E-12	-3.602291E-15	49.97411	0.0139897	0	1.237541E-05	5.439483E-05	3.225053E-19	2.090687E-05	5.171896E-05	15.87797	5.578484E-05	1.421085E-11	1.862645E-06	2.072193E-05	1.421085E-11	5.14937E-06	2.015817E-05	1.430432E-11	9.683996	-1.56728	49.97411	1.918	-1	0	0	-1	-1.201765	18.9953	-12.9284	0.5821697	-67.13693	2.524392	0	-1	1.480018
1.938	-0.00113104	-47.58715	-9.871949	-7.112248E-07	-0.006490317	0.03512802	-1.998269E-12	-9.236372	1.0524E-13	-7.209791	0	-2.254394E-11	-0.0376019	9.003735E-13	0.0376019	9.003735E-13	2.254394E-11	-5.348903E-15	49.97398	0.01404531	-2.842171E-14	1.236051E-05	5.450705E-05	-2.842108E-14	2.094906E-05	5.181638E-05	15.87647	5.589097E-05	-2.842171E-11	-3.72529E-06	-5.355104E-06	-2.842171E-11	-4.536526E-06	-4.687735E-06	-2.808401E-11	9.682805	-1.574586	49.97398	1.938	-1	0	0	-1	-1.201599	19.00631	-12.94398	0.5825221	-67.2161	2.522699	0	-1	1.508567
1.958	-0.001068969	-48.02638	-9.917023	-7.148628E-07	-0.007025539	0.03504405	8.003959E-15	-9.279331	-1.125853E-13	-7.252903	0	7.781666E-14	-0.03734725	-9.342631E-13	0.03734725	-9.342631E-13	-7.781666E-14	-8.892452E-16	49.97385	0.01410072	2.842171E-14	1.223758E-05	5.413825E-05	2.842181E-14	2.080711E-05	5.145651E-05	15.87493	5.550413E-05	1.421085E-11	-8.381902E-06	-2.956949E-05	1.421085E-11	-1.304023E-05	-2.783098E-05	1.42095E-11	9.681613	-1.581869	49.97385	1.958	-1	0	0	-1	-1.20106	19.00332	-12.93744	0.5824652	-67.17812	2.52277	0	-1	1.508567
1.978	-0.0008126234	-48.46505	-9.962028	0	-0.007510956	0.03499123	-5.463249E-13	-9.321762	-1.270855E-13	-7.295754	0	-2.390949E-12	-0.0367003	-5.295505E-13	0.0367003	-5.295505E-13	2.390949E-12	-3.704659E-15	49.97373	0.0141553	0	1.198798E-05	5.320041E-05	3.129673E-19	2.0447E-05	5.055606E-05	15.87336	5.453435E-05	-1.421085E-11	-1.490116E-05	-6.216577E-05	-1.421085E-11	-2.477391E-05	-5.893116E-05	-1.411855E-11	9.680427	-1.589069	49.97373	1.978	-1	0	0	-1	-1.200395	18.98902	-12.91316	0.5820488	-67.04957	2.524441	0	-1	1.539103
1.998	-0.0004335387	-48.89697	-10.0069	-3.637979E-09	-0.007763409	0.03497447	7.871854E-13	-9.363152	-2.394389E-13	-7.337915	0	-4.84337E-13	-0.03555702	-8.414255E-13	0.03555702	-8.414255E-13	4.84337E-13	-2.480138E-15	49.97361	0.01420853	0	1.157261E-05	5.154265E-05	-5.668983E-20	1.980398E-05	4.897318E-05	15.87177	5.282585E-05	0	-2.514571E-05	-0.00010035	1.458149E-19	-4.113678E-05	-9.492205E-05	-1.329836E-13	9.679261	-1.596098	49.97361	1.998	-1	0	0	-1	-1.199658	18.96818	-12.88066	0.5814896	-66.87165	2.526849	0	-1	1.570009
2.018	-9.17398E-05	-49.31288	-10.05061	0	-0.007687098	0.03499896	-1.246289E-12	-9.402883	-1.18561E-14	-7.3788	0	-1.435639E-11	-0.03387532	2.37669E-12	0.03387532	2.37669E-12	1.435639E-11	-2.758086E-15	49.97349	0.01425947	-1.776357E-14	1.099333E-05	4.910538E-05	-1.776315E-14	1.886824E-05	4.664955E-05	15.87018	5.032089E-05	-1.065814E-11	-3.352761E-05	-0.0001394655	-1.065814E-11	-5.586239E-05	-0.0001321141	-1.044762E-11	9.678137	-1.602847	49.97349	2.018	-1	0	0	-1	-1.199257	18.95092	-12.85516	0.5810272	-66.73159	2.528931	0	-1	1.570009
2.038	5.535588E-05	-49.70411	-10.09186	0	-0.007334545	0.0350613	-9.559159E-13	-9.440365	2.541237E-13	-7.417799	0	-1.338268E-11	-0.03167863	1.302666E-12	0.03167863	1.302666E-12	1.338268E-11	-7.019015E-16	49.97338	0.01430747	-1.598721E-14	1.0252E-05	4.592072E-05	-1.598712E-14	1.764512E-05	4.361727E-05	15.8686	4.705121E-05	-8.881783E-12	-4.004687E-05	-0.0001753215	-8.881783E-12	-6.82609E-05	-0.0001663785	-8.720332E-12	9.677073	-1.609212	49.97338	2.038	-1	0	0	-1	-1.199054	18.94152	-12.8432	0.5808374	-66.65821	2.529894	0	-1	1.600738
2.058	-4.857388E-05	-50.0641	-10.1303	0	-0.006856559	0.03512996	9.062292E-13	-9.475034	-1.558737E-13	-7.454315	0	-4.108823E-13	-0.02902853	9.911074E-13	0.02902853	9.911074E-13	4.108823E-13	1.426944E-15	49.97328	0.01435181	1.776357E-15	9.369105E-06	4.207948E-05	1.776216E-15	1.616832E-05	3.996309E-05	15.86708	4.310989E-05	6.661338E-12	-4.656613E-05	-0.0002051238	6.661339E-12	-7.969787E-05	-0.0001946597	6.508293E-12	9.676087	-1.615096	49.97328	2.058	-1	0	0	-1	-1.199128	18.94376	-12.84979	0.5810072	-66.6808	2.529322	0	-1	1.632217
2.078	-0.0003532647	-50.38766	-10.16523	3.637979E-09	-0.006445293	0.03516876	-1.768127E-13	-9.506426	2.309532E-13	-7.48782	0	-1.1954E-12	-0.02600696	1.122258E-12	0.02600696	1.122258E-12	1.1954E-12	-2.885312E-15	49.97319	0.01439191	0	8.368865E-06	3.769854E-05	-1.072736E-19	1.448016E-05	3.579864E-05	15.86562	3.861629E-05	7.105427E-12	-5.308538E-05	-0.0002293382	7.105427E-12	-9.023344E-05	-0.0002174212	7.135285E-12	9.67519	-1.62042	49.97319	2.078	-1	0	0	-1	-1.199463	18.95828	-12.8756	0.5815425	-66.80438	2.52714	0	-1	1.632217
2.098	-0.0007426931	-50.67122	-10.19603	0	-0.006261436	0.0351625	-3.617938E-13	-9.534168	5.314898E-14	-7.517883	0	-4.099584E-13	-0.02270682	9.90945E-13	0.02270682	9.90945E-13	4.099584E-13	-2.78931E-15	49.9731	0.01442732	2.842171E-14	7.294118E-06	3.291573E-05	2.842176E-14	1.264539E-05	3.12529E-05	15.86427	3.371424E-05	-1.421085E-11	-5.494803E-05	-0.0002463348	-1.421085E-11	-9.499087E-05	-0.0002338308	-1.414976E-11	9.674399	-1.62512	49.9731	2.098	-1	0	0	-1	-1.199863	18.98047	-12.91183	0.5822721	-66.98674	2.524012	0	-1	1.661291
2.118	-0.001076879	-50.91228	-10.22199	7.603375E-07	-0.006389106	0.03511367	1.50093E-12	-9.558007	-2.55797E-13	-7.544176	0	-5.122623E-12	-0.01922694	-9.815269E-13	0.01922694	-9.815269E-13	5.122623E-12	3.086172E-15	49.97303	0.01445766	0	6.16163E-06	2.787076E-05	-1.559728E-19	1.070392E-05	2.646074E-05	15.86303	2.854374E-05	1.421085E-11	-5.867332E-05	-0.0002561137	1.421086E-11	-0.0001003855	-0.0002428158	1.395744E-11	9.673717	-1.629155	49.97303	2.118	-1	0	0	-1	-1.200045	19.00081	-12.94341	0.5829211	-67.1477	2.521122	0	-1	1.690837
2.138	-0.001213492	-51.10902	-10.24297	3.637979E-09	-0.006801555	0.03502951	3.780448E-13	-9.577804	-6.959625E-14	-7.566488	0	6.501941E-12	-0.01567445	-1.097027E-12	0.01567445	-1.097027E-12	-6.501941E-12	-5.402456E-15	49.97297	0.01448289	0	5.016103E-06	2.272148E-05	-2.998069E-20	8.726734E-06	2.157014E-05	15.86194	2.326858E-05	0	-5.7742E-05	-0.0002575107	3.455899E-19	-9.978347E-05	-0.0002443136	-6.3825E-14	9.673155	-1.632498	49.97297	2.138	-1	0	0	-1	-1.199879	19.01033	-12.95665	0.5832189	-67.21573	2.51966	0	-1	1.690837
2.158	-0.001119688	-51.26284	-10.2591	0	-0.007344835	0.03495072	-3.353881E-13	-9.593534	-5.515806E-14	-7.58472	0	-4.041812E-12	-0.01214871	-2.084102E-12	0.01214871	-2.084102E-12	4.041812E-12	-6.187576E-16	49.97293	0.01450288	-2.842171E-14	3.883615E-06	1.761038E-05	-2.842165E-14	6.764203E-06	1.671686E-05	15.86099	1.803352E-05	-1.421085E-11	-5.681067E-05	-0.0002533197	-1.421085E-11	-9.82338E-05	-0.0002403091	-1.415423E-11	9.672708	-1.63515	49.97293	2.158	-1	0	0	-1	-1.199455	19.00558	-12.94648	0.5830453	-67.16618	2.520204	0	-1	1.720791
2.178	-0.0008110007	-51.37411	-10.27054	0	-0.007807292	0.03490121	-1.339556E-12	-9.605285	2.165376E-13	-7.598899	0	-1.07213E-11	-0.008730732	2.736612E-12	0.008730732	2.736612E-12	1.07213E-11	-5.126643E-15	49.97289	0.01451789	0	2.78838E-06	1.265574E-05	6.581928E-20	4.861022E-06	1.201305E-05	15.8602	1.295928E-05	0	-5.308538E-05	-0.0002426095	-1.253276E-18	-9.282291E-05	-0.0002303505	2.261379E-13	9.672378	-1.637124	49.97289	2.178	-1	0	0	-1	-1.198841	18.98812	-12.91709	0.5825011	-67.01473	2.522423	0	-1	1.749787
2.198	-0.0004112197	-51.44495	-10.27752	0	-0.008001593	0.03490223	3.457583E-14	-9.61323	-2.212584E-13	-7.609149	0	-6.804987E-12	-0.005497398	-6.922994E-13	0.005497398	-6.922994E-13	6.804987E-12	-4.990964E-15	49.97287	0.01452793	-1.421085E-14	1.752749E-06	7.968396E-06	-1.421083E-14	3.05883E-06	7.563797E-06	15.85956	8.158889E-06	-7.105427E-12	-5.029142E-05	-0.0002272427	-7.105428E-12	-8.753392E-05	-0.0002156532	-7.111265E-12	9.672155	-1.638451	49.97287	2.198	-1	0	0	-1	-1.198263	18.9654	-12.88127	0.5818319	-66.82568	2.525319	0	-1	1.749787
