Time	Aircraft Simulation Net Global Force X	Aircraft Simulation Net Global Force Y	Aircraft Simulation Net Global Force Z	Aircraft Simulation Net Global Moment X	Aircraft Simulation Net Global Moment Y	Aircraft Simulation Net Global Moment Z	Aircraft Simulation Roll Angle	Aircraft Simulation Pitch Angle	Aircraft Simulation Heading Angle	Aircraft Simulation Angle Of Attack_Deg	Aircraft Simulation Angle Of Sideslip_Deg	Aircraft Simulation Roll Rate	Aircraft Simulation Pitch Rate	Aircraft Simulation Yaw Rate	Aircraft Simulation Angular Velocity X	Aircraft Simulation Angular Velocity Y	Aircraft Simulation Angular Velocity Z	Aircraft Simulation Position X	Aircraft Simulation Position Y	Aircraft Simulation Position Z	Aircraft Simulation Global Velocity X	Aircraft Simulation Global Velocity Y	Aircraft Simulation Global Velocity Z	Aircraft Simulation Local Velocity X	Aircraft Simulation Local Velocity Y	Aircraft Simulation Local Velocity Z	Aircraft Simulation Airspeed	Aircraft Simulation Ground Speed	Aircraft Simulation Acceleration X	Aircraft Simulation Acceleration Y	Aircraft Simulation Acceleration Z	Aircraft Simulation Local Acceleration X	Aircraft Simulation Local Acceleration Y	Aircraft Simulation Local Acceleration Z	Aircraft Simulation Imu Acceleration X	Aircraft Simulation Imu Acceleration Y	Aircraft Simulation Imu Acceleration Z	Aircraft Simulation Altitude	Aircraft Simulation Time	Electronic Speed Controller Input Value	Fin Input Value	Port Aileron Input Value	Port Flap Input Value	Propeller Total Thrust	Propeller Advance Ratio	Propeller Thrust Coefficient	Propeller Torque Coefficient	Propeller Propulsive Efficiency	Propeller Rps	Starboard Aileron Input Value	Starboard Flap Input Value	Tailplane Input Value
0.018	0.001404042	-59.72334	-0.4642935	-3.637979E-09	0.0002300445	0.05536443	-2.261487E-14	0.1014099	-3.355403E-14	-8.007899	0	-8.809605E-12	0.1649053	-6.976485E-13	-0.1649053	-6.976485E-13	8.809605E-12	-1.024625E-15	50.00027	-0.0001771003	-5.684342E-14	-9.215996E-05	-0.000227092	-5.684359E-14	-9.17579E-05	-0.0002272547	15.83232	0.00024508	0	-0.003732741	-0.009122107	-6.809118E-18	-0.00371659	-0.009128699	3.865231E-15	9.806269	0.008233288	50.00027	0.018	-1	0	0	-1	-1.187355	9.12473	-2.957748	0.3056671	-14.05247	5.246012	0	-1	0.5
0.038	6.734353E-06	-55.22359	-0.7725372	-8.221832E-07	-0.001440242	0.03958799	1.140176E-13	0.3479004	-5.803831E-14	-7.82512	0	6.647543E-12	0.2500376	4.946231E-13	-0.2500376	4.946231E-13	-6.647543E-12	-3.546303E-15	50.00093	-0.0006097257	1.798561E-14	-0.0001411587	-0.0003433743	1.798554E-14	-0.0001390711	-0.0003442251	15.83221	0.0003712569	1.121325E-11	-0.002195127	-0.005142676	1.121325E-11	-0.00216386	-0.00515591	1.119373E-11	9.807655	0.05441087	50.00093	0.038	-1	0	0	-1	-1.194704	15.6509	-8.749922	0.4950953	-44.0225	3.059479	0	-1	0.5
0.058	2.954431E-05	-51.78415	-0.9999557	0	-0.001213267	0.0365862	5.310225E-13	0.6802673	2.492312E-14	-7.543718	0	5.999398E-12	0.3220088	-1.591395E-13	-0.3220088	-1.591395E-13	-5.999398E-12	5.327509E-17	50.00182	-0.001197457	4.440892E-15	-0.0001842901	-0.0004409834	4.442743E-15	-0.0001790414	-0.0004431404	15.83681	0.0004779427	2.664535E-12	-0.002127141	-0.004762536	2.664556E-12	-0.002070446	-0.004787455	2.573643E-12	9.807239	0.1116847	50.00182	0.058	-1	0	0	-1	-1.198931	18.18446	-11.83707	0.5614724	-61.01498	2.635084	0	-1	0.5
0.078	-3.239734E-06	-47.45323	-1.295829	-1.818989E-09	-0.0004680855	0.03602339	-4.210201E-13	1.091644	-4.173236E-14	-7.17897	0	-3.182937E-12	0.388245	-5.779866E-14	-0.388245	-5.779866E-14	3.182937E-12	-1.722386E-15	50.00291	-0.001932159	-1.54321E-14	-0.0002259444	-0.0005302113	-1.543407E-14	-0.000215802	-0.0005344197	15.84416	0.0005763461	-9.492406E-12	-0.002029352	-0.004296744	-9.492423E-12	-0.001947123	-0.004334627	-9.420351E-12	9.806273	0.1825632	50.00291	0.078	-1	0	0	-1	-1.201726	18.77482	-12.62311	0.5759698	-65.4881	2.554696	0	-1	0.5
0.098	-0.0001955628	-42.23541	-1.67074	-3.637979E-09	0.0003197201	0.03591643	9.636515E-13	1.573914	7.914773E-14	-6.737134	0	-7.263779E-12	0.4460253	2.478299E-13	-0.4460253	2.478299E-13	7.263779E-12	9.985328E-16	50.00419	-0.002803355	0	-0.0002646223	-0.0006074181	5.007452E-18	-0.0002478386	-0.0006144572	15.85382	0.0006625569	-3.552713E-12	-0.001837499	-0.003608234	-3.552679E-12	-0.0017377	-0.003657343	-3.71761E-12	9.804562	0.2657912	50.00419	0.098	-1	0	0	-1	-1.204614	18.90756	-12.80318	0.578743	-66.5714	2.539712	0	-1	0.5
0.118	-0.0004000405	-36.33869	-2.126021	0	0.0009710212	0.03588611	2.414795E-13	2.115326	-4.864086E-14	-6.227716	0	2.949392E-12	0.4921721	-1.206636E-13	-0.4921721	-1.206636E-13	-2.949392E-12	-6.385519E-16	50.00562	-0.003794149	1.421085E-14	-0.000298257	-0.0006683855	1.421144E-14	-0.0002733829	-0.000678939	15.86527	0.0007319128	1.421085E-11	-0.001543667	-0.002733519	1.421086E-11	-0.001441718	-0.002788635	1.416954E-11	9.801873	0.359309	50.00562	0.118	-1	0	0	-1	-1.207459	18.95124	-12.86005	0.5792162	-66.96685	2.537081	0	-1	0.5
0.138	-0.0005279648	-29.94478	-2.655823	1.818989E-09	0.001413248	0.03589449	-9.343378E-13	2.701202	-4.412627E-15	-5.664024	0	-5.551754E-12	0.5248018	1.165202E-13	-0.5248018	1.165202E-13	5.551754E-12	-4.250199E-15	50.00715	-0.004881471	1.421085E-14	-0.0003252486	-0.0007086939	1.420605E-14	-0.0002914882	-0.0007232346	15.87788	0.0007797651	0	-0.001185108	-0.001775974	-1.807631E-17	-0.001100094	-0.001829852	1.597785E-13	9.798	0.4604905	50.00715	0.138	-1	0	0	-1	-1.210055	18.97149	-12.88133	0.5790181	-67.1723	2.537709	0	-1	0.5
0.158	-0.0005184807	-23.26244	-3.251215	-3.45608E-07	0.00166819	0.03592967	2.82143E-13	3.315582	5.164411E-15	-5.061672	0	2.504325E-12	0.5433362	1.993455E-13	-0.5433362	1.993455E-13	-2.504325E-12	-2.217694E-15	50.00874	-0.006038442	1.421085E-14	-0.0003445474	-0.0007295775	1.421241E-14	-0.0003017751	-0.0007482834	15.89094	0.0008068434	0	-0.0007790513	-0.0008204951	3.670157E-18	-0.0007302933	-0.0008641787	-4.822309E-14	9.79285	0.5665044	50.00874	0.158	-1	0	0	-1	-1.212305	18.9758	-12.87772	0.5783589	-67.24529	2.540423	0	-1	0.5
0.178	-0.000400092	-16.5106	-3.899249	0	0.001831485	0.03598629	-1.510663E-12	3.942474	-5.620087E-14	-4.437023	0	-1.181036E-11	0.5480587	3.400723E-13	-0.5480587	3.400723E-13	1.181036E-11	-4.63585E-15	50.01035	-0.007236466	-1.421085E-14	-0.0003555706	-0.0007317374	-1.42196E-14	-0.0003044188	-0.0007544529	15.90385	0.0008135539	0	-0.0003552995	9.243376E-05	-9.42257E-18	-0.000360814	6.778653E-05	2.580294E-13	9.786425	0.6745508	50.01035	0.178	-1	0	0	-1	-1.214267	18.96756	-12.85573	0.5773726	-67.2159	2.544652	0	-1	0.5
0.198	-0.0002440221	-9.747277	-4.590752	-1.751141E-05	0.002010001	0.03604564	1.115662E-12	4.566467	5.587036E-14	-3.806131	0	8.900154E-12	0.5397947	7.003341E-13	-0.5397947	7.003341E-13	-8.900154E-12	-6.829006E-16	50.01195	-0.00844644	7.105427E-15	-0.0003580595	-0.0007165854	7.111966E-15	-0.0002998718	-0.0007428178	15.91615	0.0008010626	-3.552713E-12	6.402842E-05	0.001942506	-3.552714E-12	-9.082804E-05	0.001941437	-3.743127E-12	9.778769	0.7829677	50.01195	0.198	-1	0	0	-1	-1.216107	18.95362	-12.82707	0.5762897	-67.14273	2.549422	0	-1	0.5
0.218	-0.0001153399	-3.297083	-5.292459	0	0.002273793	0.03608562	6.771683E-13	5.17337	1.965195E-14	-3.184163	0	-1.956106E-12	0.5196763	-6.909355E-14	-0.5196763	-6.909355E-14	1.956106E-12	-3.292294E-15	50.01348	-0.009639904	-3.552714E-15	-0.0003520402	-0.0006878951	-3.549067E-15	-0.0002885786	-0.0007168364	15.92751	0.0007727431	-7.105427E-12	0.0004864414	0.001658103	-7.105431E-12	0.0003349488	0.001695211	-7.220902E-12	9.770373	0.8862624	50.01348	0.218	-1	0	0	-1	-1.217841	18.94143	-12.80299	0.5753587	-67.08193	2.553637	0	-1	0.5
0.238	-3.053016E-05	2.786165	-5.978843	0	0.002670881	0.03604661	-6.07325E-13	5.752319	-4.286833E-14	-2.585386	0	5.132197E-12	0.4929753	5.222199E-13	-0.4929753	5.222199E-13	-5.132197E-12	-4.783855E-15	50.01494	-0.01079342	8.881784E-15	-0.0003405559	-0.0006487903	8.878396E-15	-0.0002738139	-0.0006796566	15.93751	0.0007327395	7.993605E-12	0.0006391201	0.001836568	7.993611E-12	0.0004518258	0.001891378	8.097072E-12	9.761053	0.9851304	50.01494	0.238	-1	0	0	-1	-1.217735	18.94142	-12.79523	0.5753134	-67.04652	2.5543	0	-1	0.5
0.258	2.83221E-05	8.513182	-6.66379	-4.547473E-10	0.003302853	0.03595586	1.943189E-13	6.299011	1.055036E-14	-2.017327	0	4.813428E-12	0.4637055	3.009952E-13	-0.4637055	3.009952E-13	-4.813428E-12	-6.188242E-16	50.0163	-0.01189607	-4.440892E-15	-0.0003261748	-0.0006067315	-4.439907E-15	-0.0002576369	-0.0006388555	15.94585	0.0006888491	-7.105427E-12	0.0007817288	0.001984532	-7.105429E-12	0.0005592726	0.00205832	-7.138499E-12	9.751336	1.078382	50.0163	0.258	-1	0	0	-1	-1.217507	18.95632	-12.80966	0.5757167	-67.12791	2.552622	0	-1	0.5
0.278	-4.392444E-05	13.82831	-7.337195	0	0.003969559	0.03586054	5.703454E-14	6.810699	2.229825E-14	-1.482987	0	-2.485808E-12	0.4322042	-7.552952E-13	-0.4322042	-7.552952E-13	2.485808E-12	1.105754E-16	50.01756	-0.01293987	-7.105427E-15	-0.000309085	-0.0005622162	-7.10497E-15	-0.000240231	-0.0005949031	15.95274	0.0006415766	8.881784E-13	0.0009157229	0.002114102	8.881769E-13	0.0006585505	0.002207779	8.784805E-13	9.741433	1.165571	50.01756	0.278	-1	0	0	-1	-1.217324	18.97108	-12.82626	0.5761275	-67.21924	2.550778	0	-1	0.5
0.298	-0.000258987	18.79345	-7.989714	9.094946E-10	0.004466972	0.03579206	-4.56439E-13	7.285126	-1.422475E-13	-0.9849385	0	-8.606674E-12	0.3988536	-1.09709E-12	-0.3988536	-1.09709E-12	8.606674E-12	-5.590167E-15	50.01873	-0.0139177	-7.105427E-15	-0.0002895617	-0.0005173117	-7.108478E-15	-0.0002216255	-0.0005498541	15.95838	0.0005928384	-3.552713E-12	0.001026783	0.002209446	-3.552702E-12	0.0007383213	0.002321813	-3.475183E-12	9.731547	1.246297	50.01873	0.298	-1	0	0	-1	-1.217229	18.9813	-12.8389	0.5764181	-67.28781	2.549422	0	-1	0.5
0.318	-0.0005246382	23.27617	-8.611638	3.483364E-07	0.004704565	0.03575351	-6.614058E-13	7.720367	-1.861111E-14	-0.5253494	0	-2.703869E-12	0.364064	-3.623529E-13	-0.364064	-3.623529E-13	2.703869E-12	-3.037971E-15	50.01979	-0.01482324	-2.842171E-14	-0.0002679126	-0.0004694124	-2.84242E-14	-0.0002024241	-0.0005011483	15.96301	0.0005404861	0	0.00113016	0.002283952	1.0128E-17	0.0008130935	0.002415073	1.122274E-13	9.721891	1.320273	50.01979	0.318	-1	0	0	-1	-1.21699	18.98608	-12.84549	0.5766219	-67.31545	2.548518	0	-1	0.5
0.338	-0.0007434056	27.51019	-9.210972	0	0.004736833	0.03574914	-3.478012E-13	8.114471	2.110532E-14	-0.1057109	0	3.038052E-12	0.3269551	8.944926E-13	-0.3269551	8.944926E-13	-3.038052E-12	-3.510176E-15	50.02074	-0.01565015	0	-0.0002435325	-0.0004203182	-9.485412E-19	-0.0001817658	-0.0004504849	15.96692	0.0004857731	0	0.001300592	0.002486282	4.769754E-18	0.0009366287	0.002644969	5.895797E-14	9.71272	1.387338	50.02074	0.338	-1	0	0	-1	-1.216818	18.99	-12.85141	0.5767947	-67.34023	2.547751	0	-1	0.5
0.358	-0.0007827174	31.27593	-9.765673	0	0.00472647	0.03573896	5.141121E-13	8.463745	1.485219E-13	0.2713043	0	1.311134E-12	0.2860183	1.112044E-12	-0.2860183	1.112044E-12	-1.311134E-12	-1.662962E-15	50.02159	-0.01638845	2.842171E-14	-0.0002153087	-0.0003666007	2.842409E-14	-0.0001590063	-0.000394298	15.97053	0.0004251516	2.842171E-11	0.001505483	0.002748566	2.842169E-11	0.001084544	0.002940214	2.833462E-11	9.704247	1.446809	50.02159	0.358	-1	0	0	-1	-1.216593	18.99483	-12.85834	0.5770043	-67.36923	2.546828	0	-1	0.5
0.378	-0.0006301891	34.52702	-10.25869	-2.728484E-09	0.004854766	0.03570091	-1.058182E-13	8.763336	-1.001167E-13	0.6012883	0	-6.001124E-12	0.2407344	-9.246474E-13	-0.2407344	-9.246474E-13	6.001124E-12	-4.868579E-16	50.0223	-0.01702587	2.842171E-14	-0.0001828549	-0.0003076401	2.842093E-14	-0.0001338502	-0.0003319073	15.97415	0.0003578803	1.421085E-11	0.001713168	0.003010733	1.421086E-11	0.001234472	0.003236593	1.422877E-11	9.696713	1.497825	50.0223	0.378	-1	0	0	-1	-1.21622	19.00002	-12.86515	0.5772486	-67.39475	2.545764	0	-1	0.5
0.398	-0.0003643823	37.15351	-10.66875	-3.637979E-09	0.00521003	0.03563567	-1.834783E-13	9.008759	-6.008736E-14	0.8791561	0	7.319344E-12	0.1920462	1.16103E-12	-0.1920462	1.16103E-12	-7.319344E-12	-3.223724E-15	50.02289	-0.01755074	1.421085E-14	-0.0001469422	-0.0002446882	1.421026E-14	-0.000106815	-0.0002646788	15.97794	0.0002854196	0	0.001850072	0.00316021	7.580957E-18	0.001332408	0.003410921	3.103464E-14	9.690321	1.539512	50.02289	0.398	-1	0	0	-1	-1.215899	19.00411	-12.87003	0.5774229	-67.41449	2.544946	0	-1	0.5
0.418	-9.967958E-05	39.10397	-10.98279	-1.818989E-09	0.005736094	0.0355437	-3.509712E-13	9.197388	-1.405196E-13	1.100934	0	-4.061495E-12	0.1422169	-6.567579E-13	-0.1422169	-6.567579E-13	4.061495E-12	-4.705447E-15	50.02334	-0.01795596	-1.065814E-14	-0.0001094341	-0.0001806575	-1.065907E-14	-7.915157E-05	-0.0001958264	15.98189	0.0002112178	-7.105427E-12	0.001883134	0.003154156	-7.105411E-12	0.001354775	0.003414598	-7.046091E-12	9.685234	1.571409	50.02334	0.418	-1	0	0	-1	-1.215649	19.00372	-12.8691	0.5774449	-67.40564	2.544776	0	-1	0.5
0.438	5.690822E-06	40.40254	-11.1989	6.020854E-07	0.006251798	0.0354699	7.240339E-13	9.329468	1.364906E-13	1.265337	0	4.760789E-12	0.09346076	1.702627E-12	-0.09346076	1.702627E-12	-4.760789E-12	-4.119804E-16	50.02365	-0.01824041	-8.881784E-16	-7.220171E-05	-0.0001187227	-8.872385E-16	-5.20004E-05	-0.000128857	15.98594	0.0001389538	-1.176836E-11	0.001833774	0.003034947	-1.176839E-11	0.001317519	0.003292078	-1.189071E-11	9.681557	1.593602	50.02365	0.438	-1	0	0	-1	-1.215618	18.99802	-12.86198	0.5772746	-67.36802	2.545447	0	-1	0.5
0.458	-0.0001167921	41.0998	-11.32077	1.818989E-09	0.006548916	0.03544264	6.272446E-13	9.407166	1.679161E-14	1.37363	0	1.584245E-12	0.04730645	2.619556E-13	-0.04730645	2.619556E-13	-1.584245E-12	9.444007E-16	50.02383	-0.01840815	0	-3.663264E-05	-5.991245E-05	3.059957E-19	-2.634735E-05	-6.509431E-05	15.99004	7.02243E-05	-7.105427E-12	0.001725741	0.002829591	-7.105441E-12	0.001240038	0.003073609	-7.211392E-12	9.679314	1.606511	50.02383	0.458	-1	0	0	-1	-1.21582	18.98879	-12.85135	0.5769773	-67.31432	2.546711	0	-1	0.5
0.478	-0.0004196055	41.25161	-11.35548	3.637979E-09	0.006513161	0.03547452	-3.631853E-13	9.434143	-1.454511E-13	1.428847	0	-1.366568E-12	0.004695842	-2.07097E-12	-0.004695842	-2.07097E-12	1.366568E-12	-4.691271E-15	50.0239	-0.01846649	1.421085E-14	-3.637746E-06	-5.947426E-06	1.421082E-14	-2.613678E-06	-6.463262E-06	15.99411	6.971734E-06	0	0.001583248	0.002585817	1.377778E-17	0.001137983	0.002810359	6.135616E-14	9.678454	1.610806	50.0239	0.478	-1	0	0	-1	-1.216161	18.97932	-12.84131	0.5766766	-67.26322	2.548064	0	-1	0.5
0.498	-0.0007670979	40.91473	-11.31073	1.818989E-09	0.006178158	0.03555088	2.880468E-13	9.414856	-3.877189E-14	1.43509	0	-2.76531E-12	-0.03381719	-4.583606E-13	0.03381719	-4.583606E-13	2.76531E-12	-3.061245E-15	50.02385	-0.01842479	0	2.619624E-05	4.28292E-05	-6.571958E-20	1.88373E-05	4.653751E-05	15.99811	5.020541E-05	-1.421085E-11	0.001414679	0.002315501	-1.421086E-11	0.001016849	0.002515726	-1.425951E-11	9.678874	1.607252	50.02385	0.498	-1	0	0	-1	-1.216628	18.97403	-12.8368	0.5764756	-67.24431	2.549001	0	-1	0.5
0.518	-0.001008245	40.14642	-11.19639	1.818989E-09	0.00570565	0.03563477	-5.79731E-13	9.354187	-7.586106E-14	1.397087	0	-5.829808E-12	-0.06793063	-5.001402E-13	0.06793063	-5.001402E-13	5.829808E-12	-2.027838E-15	50.02371	-0.01829378	-2.842171E-14	5.254336E-05	8.603325E-05	-2.842121E-14	3.786109E-05	9.342945E-05	16.00195	0.0001008093	-1.421085E-11	0.001235865	0.002031913	-1.421084E-11	0.0008891703	0.002205767	-1.41129E-11	9.680441	1.596692	50.02371	0.518	-1	0	0	-1	-1.217044	18.97387	-12.83815	0.576421	-67.25722	2.549303	0	-1	0.5
0.538	-0.001057851	39.00438	-11.02217	1.818989E-09	0.005290977	0.03570133	-1.36142E-13	9.257263	-5.588009E-14	1.319908	0	-4.270754E-12	-0.09751616	-6.963234E-13	0.09751616	-6.963234E-13	4.270754E-12	-1.103591E-15	50.02348	-0.01808479	-2.842171E-14	7.522479E-05	0.0001238743	-2.842146E-14	5.431771E-05	0.0001343622	16.00555	0.0001449262	0	0.0010496	0.001749489	3.499036E-18	0.0007544943	0.001895551	2.300971E-14	9.68299	1.580006	50.02348	0.538	-1	0	0	-1	-1.217352	18.97772	-12.84321	0.5764693	-67.29173	2.549123	0	-1	0.5
0.558	-0.000895075	37.54509	-10.79808	0	0.005074928	0.03572553	-3.533314E-13	9.129303	-8.874239E-14	1.208763	0	-7.195638E-12	-0.1225729	-1.617666E-12	0.1225729	-1.617666E-12	7.195638E-12	1.492139E-16	50.02317	-0.0178095	-2.842171E-14	9.421352E-05	0.0001557036	-2.842105E-14	6.831571E-05	0.0001686795	16.00883	0.0001819885	0	0.0008670613	0.001463573	6.114089E-18	0.0006238632	0.001582604	5.973606E-14	9.686359	1.558066	50.02317	0.558	-1	0	0	-1	-1.217525	18.9832	-12.84878	0.5765554	-67.33024	2.548752	0	-1	0.5
0.578	-0.0005937329	35.82377	-10.53468	-9.094946E-10	0.005095595	0.03570965	1.221718E-13	8.975433	4.049066E-14	1.068841	0	4.115445E-12	-0.1431936	1.110703E-12	0.1431936	1.110703E-12	-4.115445E-12	3.10182E-16	50.02281	-0.01747933	0	0.0001095831	0.0001824442	-2.990433E-19	7.977804E-05	0.0001973064	16.01173	0.0002128247	0	0.0006891786	0.001189299	-1.89638E-18	0.0004951963	0.001282256	-2.066364E-14	9.690375	1.531749	50.02281	0.578	-1	0	0	-1	-1.217608	18.98801	-12.85233	0.576611	-67.35941	2.548487	0	-1	0.5
0.598	-0.0002691072	33.89319	-10.24159	1.818989E-09	0.005283563	0.03567159	-2.552166E-13	8.800629	8.596582E-14	0.9052308	0	-7.103699E-12	-0.1595469	7.401573E-13	0.1595469	7.401573E-13	7.103699E-12	-1.584699E-16	50.02239	-0.01710546	0	0.0001214836	0.0002032802	9.122639E-20	8.895207E-05	0.0002194736	16.01417	0.0002368145	7.105427E-12	0.0005192123	0.0009234063	7.105427E-12	0.0003718211	0.0009919725	7.14861E-12	9.694876	1.501891	50.02239	0.598	-1	0	0	-1	-1.217711	18.9908	-12.85292	0.5765898	-67.37489	2.548536	0	-1	0.5
0.618	-5.271326E-05	31.80403	-9.927945	4.692992E-07	0.005507589	0.0356403	1.064065E-12	8.60968	7.443064E-14	0.7228197	0	1.099714E-11	-0.1718589	7.483929E-13	0.1718589	7.483929E-13	-1.099714E-11	1.21361E-15	50.02193	-0.01669851	1.598721E-14	0.0001301328	0.0002196226	1.598515E-14	9.578826E-05	0.0002366289	16.01611	0.0002552815	1.065814E-11	0.0003622845	0.0006752088	1.065813E-11	0.0002571215	0.0007218348	1.0478E-11	9.69971	1.469303	50.02193	0.618	-1	0	0	-1	-1.21778	18.98987	-12.84927	0.5764877	-67.3644	2.54897	0	-1	0.5
0.638	-9.020055E-07	29.59009	-9.599999	1.818989E-09	0.005618792	0.03563586	1.243457E-13	8.407043	-6.489755E-14	0.5262339	0	-1.458041E-12	-0.1803742	2.445909E-13	0.1803742	2.445909E-13	1.458041E-12	-8.002381E-16	50.02145	-0.01626825	-1.171285E-14	0.0001357673	0.0002311924	-1.171281E-14	0.000100507	0.0002485579	16.01752	0.0002681095	-8.909539E-12	0.0002114102	0.0004309695	-8.909539E-12	0.0001461288	0.0004572476	-8.9306E-12	9.704733	1.434722	50.02145	0.638	-1	0	0	-1	-1.218055	18.98715	-12.84434	0.5763033	-67.35048	2.549746	0	-1	0.5
0.658	-0.0001085271	27.27397	-9.262254	-4.083631E-07	0.005542275	0.03566283	4.582574E-13	8.197174	3.363523E-14	0.3197538	0	1.315033E-12	-0.1847572	1.909105E-13	0.1847572	1.909105E-13	-1.315033E-12	-3.557764E-15	50.02094	-0.01582454	7.105427E-15	0.0001382027	0.0002368109	7.104464E-15	0.0001030262	0.0002540964	16.01833	0.0002741886	5.32907E-12	4.889443E-05	0.0001573935	5.32907E-12	2.595371E-05	0.0001627568	5.25141E-12	9.7098	1.398873	50.02094	0.658	-1	0	0	-1	-1.218325	18.9835	-12.83942	0.5761279	-67.33223	2.550518	0	-1	0.5
0.678	-0.0003094915	24.93081	-8.926695	9.094946E-10	0.005295785	0.03571561	-1.063739E-12	7.985016	-1.259462E-13	0.1081128	0	-6.909634E-12	-0.1848241	-1.431872E-12	0.1848241	-1.431872E-12	6.909634E-12	-5.761325E-15	50.02043	-0.01537782	0	0.0001373719	0.0002376016	2.435191E-18	0.0001030339	0.0002543808	16.01849	0.000274455	-7.105427E-12	-0.0001136213	-0.0001201406	-7.105429E-12	-9.583053E-05	-0.0001347594	-6.925065E-12	9.714791	1.362611	50.02043	0.678	-1	0	0	-1	-1.21862	18.97979	-12.83519	0.5759695	-67.31539	2.551246	0	-1	0.5
0.698	-0.0004833339	22.62574	-8.602074	9.094946E-10	0.004955154	0.03576908	3.537975E-13	7.775421	1.883537E-14	-0.1037337	0	4.102481E-12	-0.1807181	1.023265E-13	0.1807181	1.023265E-13	-4.102481E-12	-2.060677E-15	50.01992	-0.01493847	0	0.0001334678	0.0002330123	-6.985169E-19	0.0001007164	0.0002489269	16.01802	0.00026853	7.105427E-12	-0.000257045	-0.000375905	7.105428E-12	-0.0002038253	-0.0004072248	7.045409E-12	9.719603	1.326794	50.01992	0.698	-1	0	0	-1	-1.218903	18.97767	-12.83318	0.5758643	-67.30965	2.551743	0	-1	0.5
0.718	-0.0005917872	20.39647	-8.298487	3.165632E-05	0.004614165	0.03582292	1.129785E-12	7.572845	1.720567E-13	-0.3109917	0	4.158585E-12	-0.1731336	1.01503E-12	0.1731336	1.01503E-12	-4.158585E-12	3.145436E-15	50.01943	-0.01451549	2.842171E-14	0.0001270724	0.0002238934	2.841913E-14	9.645798E-05	0.0002386871	16.01699	0.0002574406	2.842171E-11	-0.0003608875	-0.000235741	2.842171E-11	-0.0003266723	-0.000281245	2.822996E-11	9.724113	1.292545	50.01943	0.718	-1	0	0	-1	-1.219062	18.9775	-12.83334	0.5758395	-67.31276	2.551894	0	-1	0.5
0.738	-0.0005810742	18.36634	-8.01597	2.746674E-07	0.004335186	0.03585692	3.585867E-13	7.380646	2.089832E-14	-0.5096336	0	-6.313773E-12	-0.1630159	-8.168262E-13	0.1630159	-8.168262E-13	6.313773E-12	1.420343E-15	50.01896	-0.0141158	-1.421085E-14	0.000118935	0.0002108091	-1.42115E-14	9.086896E-05	0.0002243409	16.01552	0.0002420454	-7.105427E-12	-0.0004358589	-0.0007096677	-7.105424E-12	-0.0003410834	-0.0007597785	-7.166312E-12	9.72838	1.259437	50.01896	0.738	-1	0	0	-1	-1.219192	18.97923	-12.83547	0.5758585	-67.32788	2.551817	0	-1	0.5
0.758	-0.0004660386	16.46501	-7.760118	0	0.004138192	0.03587095	-4.810287E-13	7.201141	-3.203644E-14	-0.6967716	0	4.335453E-12	-0.1512479	5.465121E-13	0.1512479	5.465121E-13	-4.335453E-12	-1.092208E-15	50.01852	-0.01374395	-1.421085E-14	0.0001097317	0.000196168	-1.421004E-14	8.427595E-05	0.0002083758	16.01375	0.000224773	-7.105427E-12	-0.0004775356	-0.0007993075	-7.10543E-12	-0.0003735735	-0.0008528632	-7.02372E-12	9.732247	1.228858	50.01852	0.758	-1	0	0	-1	-1.219186	18.98123	-12.83744	0.5759055	-67.33976	2.551616	0	-1	0.5
0.778	-0.0003124941	14.72878	-7.529584	0	0.00401654	0.03588	5.256471E-13	7.035797	-1.2549E-14	-0.8704843	0	1.198143E-12	-0.1384362	-3.090539E-13	0.1384362	-3.090539E-13	-1.198143E-12	-1.046153E-15	50.01812	-0.01340272	1.421085E-14	9.991461E-05	0.0001795511	1.421019E-14	7.716908E-05	0.0001904375	16.01178	0.0002054788	7.105427E-12	-0.0004994217	-0.0008526258	7.10543E-12	-0.0003912231	-0.0009073793	7.016109E-12	9.735738	1.200716	50.01812	0.778	-1	0	0	-1	-1.219113	18.98301	-12.83892	0.5759547	-67.34807	2.551393	0	-1	0.5
0.798	-0.0001582597	13.16168	-7.324351	0	0.003950455	0.0358854	3.426552E-13	6.88559	6.936141E-14	-1.029566	0	4.507471E-12	-0.1250245	5.450613E-13	0.1250245	5.450613E-13	-4.507471E-12	-1.18693E-15	50.01775	-0.01309359	7.105427E-15	8.980511E-05	0.0001626331	7.104814E-15	6.965977E-05	0.0001722266	16.00968	0.0001857808	-3.552713E-12	-0.0005080364	-0.0008833594	-3.55271E-12	-0.0003984688	-0.0009378952	-3.610955E-12	9.738848	1.175155	50.01775	0.798	-1	0	0	-1	-1.219058	18.98364	-12.839	0.5759645	-67.34961	2.551327	0	-1	0.5
0.818	-4.496689E-05	11.76555	-7.143631	-4.547473E-10	0.003926019	0.03588615	1.01161E-12	6.750916	4.344978E-14	-1.173317	0	7.522856E-12	-0.1113487	-2.336613E-14	0.1113487	-2.336613E-14	-7.522856E-12	7.775994E-16	50.01741	-0.01281738	1.065814E-14	7.9636E-05	0.0001448437	1.065694E-14	6.205696E-05	0.0001532009	16.00754	0.0001652924	9.769962E-12	-0.0005073379	-0.000892207	9.76997E-12	-0.0003989383	-0.0009456602	9.597966E-12	9.741585	1.152254	50.01741	0.818	-1	0	0	-1	-1.218955	18.98216	-12.8367	0.575937	-67.33553	2.551447	0	-1	0.5
0.838	6.734723E-06	10.53938	-6.986969	1.564331E-07	0.003919091	0.03588701	-1.274065E-12	6.631958	-6.670828E-14	-1.301423	0	-7.798017E-12	-0.09767106	6.779462E-15	0.09767106	6.779462E-15	7.798017E-12	-4.382779E-15	50.01712	-0.012574	-2.237099E-14	6.958656E-05	0.000127424	-2.236964E-14	5.440455E-05	0.000134608	16.00541	0.0001451867	-8.520961E-12	-0.0004982575	-0.0008881324	-8.52097E-12	-0.0003923518	-0.0009397339	-8.304289E-12	9.743965	1.13203	50.01712	0.838	-1	0	0	-1	-1.219033	18.98013	-12.83439	0.5758585	-67.32538	2.551759	0	-1	0.5
0.858	-3.111445E-05	9.480781	-6.852441	4.547473E-10	0.003929256	0.035895	1.344557E-12	6.528564	2.396203E-14	-1.413866	0	8.075863E-12	-0.08420246	9.261824E-13	0.08420246	9.261824E-13	-8.075863E-12	1.252092E-15	50.01686	-0.01236294	1.953993E-14	5.978998E-05	0.0001098528	1.953878E-14	4.691217E-05	0.0001159384	16.00334	0.0001250699	1.953992E-11	-0.0004821922	-0.0008689239	1.953993E-11	-0.00038027	-0.0009181137	1.931121E-11	9.746005	1.114464	50.01686	0.858	-1	0	0	-1	-1.219053	18.97716	-12.83125	0.5757854	-67.30693	2.552092	0	-1	0.5
0.878	-0.0001078806	8.584672	-6.739704	4.547473E-10	0.003935977	0.03589837	-7.328171E-13	6.440369	-2.897548E-15	-1.510878	0	-1.247375E-11	-0.07111418	-3.605666E-14	0.07111418	-3.605666E-14	1.247375E-11	-3.251897E-15	50.01665	-0.01218329	-2.4869E-14	5.035126E-05	9.277766E-05	-2.486848E-14	3.962672E-05	9.784E-05	16.00137	0.0001055601	-1.065814E-11	-0.0004628673	-0.0008397037	-1.065814E-11	-0.0003657575	-0.0008863237	-1.053347E-11	9.747725	1.099492	50.01665	0.878	-1	0	0	-1	-1.219093	18.97483	-12.82922	0.5757354	-67.29387	2.552335	0	-1	0.5
0.898	-0.0001887828	7.844501	-6.647111	1.177796E-07	0.003920967	0.03589817	-1.142256E-13	6.366852	-3.815734E-14	-1.592886	0	-2.239375E-13	-0.05854311	-9.402432E-13	0.05854311	-9.402432E-13	2.239375E-13	4.458722E-16	50.01647	-0.01203381	0	4.135026E-05	7.660035E-05	1.160068E-19	3.26007E-05	8.071339E-05	15.99953	8.704859E-05	3.552713E-12	-0.000439235	-0.0008048955	3.552712E-12	-0.0003472678	-0.0008486396	3.572149E-12	9.749147	1.087021	50.01647	0.898	-1	0	0	-1	-1.219125	18.97363	-12.82865	0.5757201	-67.28837	2.552426	0	-1	0.5
0.918	-0.0002712143	7.252848	-6.573018	9.094946E-10	0.003865298	0.03590933	9.777682E-13	6.307373	2.969425E-14	-1.66047	0	1.518918E-12	-0.04659923	-2.888339E-13	0.04659923	-2.888339E-13	-1.518918E-12	2.522036E-15	50.01632	-0.01191305	0	3.284891E-05	6.097276E-05	-4.744691E-19	2.595148E-05	6.421253E-05	15.99784	6.925841E-05	3.552713E-12	-0.0004130415	-0.0007608905	3.55272E-12	-0.0003269484	-0.0008016623	3.386322E-12	9.750292	1.076945	50.01632	0.918	-1	0	0	-1	-1.219169	18.97387	-12.82975	0.5757358	-67.29318	2.552363	0	-1	0.5
0.938	-0.0002921196	6.800674	-6.516757	1.009539E-07	0.003758973	0.03591512	1.10139E-12	6.261108	9.478363E-14	-1.714344	0	1.652762E-11	-0.03536945	1.356516E-12	0.03536945	1.356516E-12	-1.652762E-11	-1.621917E-15	50.0162	-0.01181918	1.421085E-14	2.489425E-05	4.627905E-05	1.42104E-14	1.969859E-05	4.871796E-05	15.99631	5.254973E-05	0	-0.0003852183	-0.0007121125	7.045974E-18	-0.0003052578	-0.0007498766	-1.874447E-13	9.751181	1.069125	50.0162	0.938	-1	0	0	-1	-1.21912	18.9743	-12.83063	0.5757693	-67.2954	2.552224	0	-1	0.5
0.958	-0.0002783293	6.5472	-6.483212	4.547473E-10	0.00361672	0.03593305	3.772661E-13	6.227112	-3.665979E-14	-1.755234	0	1.021002E-11	-0.02533547	-2.939695E-14	0.02533547	-2.939695E-14	-1.021002E-11	-1.518762E-15	50.01612	-0.01175034	2.131628E-14	1.781178E-05	3.314996E-05	2.131621E-14	1.411091E-05	3.488641E-05	15.99499	3.763216E-05	3.552713E-12	-0.000311993	-0.0005791662	3.552715E-12	-0.0002473301	-0.0006095908	3.488502E-12	9.751872	1.06348	50.01612	0.958	-1	0	0	-1	-1.219187	18.97542	-12.83185	0.5757726	-67.30539	2.552172	0	-1	0.5
0.978	-0.0002110961	6.470874	-6.470074	9.094946E-10	0.003483203	0.03594596	-1.116625E-12	6.202759	-4.182898E-14	-1.784431	0	-6.357121E-12	-0.01848349	-2.338503E-13	0.01848349	-2.338503E-13	6.357121E-12	-5.011288E-15	50.01606	-0.011701	-1.421085E-14	1.298403E-05	2.418482E-05	-1.421064E-14	1.029491E-05	2.544612E-05	15.99405	2.744978E-05	-3.552713E-12	-0.0001771841	-0.0003291061	-3.552716E-12	-0.0001405878	-0.0003463237	-3.362651E-12	9.752429	1.059599	50.01606	0.978	-1	0	0	-1	-1.21913	18.97535	-12.83102	0.5757675	-67.30134	2.552196	0	-1	0.5
0.998	-0.0001166087	6.475499	-6.466755	0	0.003405608	0.03595283	1.394434E-12	6.183594	4.660793E-14	-1.80554	0	9.740897E-12	-0.01601485	5.983597E-13	0.01601485	5.983597E-13	-9.740897E-12	4.248542E-16	50.01601	-0.01166221	1.421085E-14	1.124316E-05	2.095453E-05	1.421062E-14	8.920633E-06	2.204366E-05	15.99358	2.378026E-05	7.105427E-12	-1.14087E-05	-2.118759E-05	7.105427E-12	-9.060108E-06	-2.22932E-05	6.868066E-12	9.752915	1.056659	50.01601	0.998	-1	0	0	-1	-1.219041	18.97438	-12.82903	0.5757473	-67.28988	2.5523	0	-1	0.5
1.018	-2.78108E-05	6.454262	-6.460941	1.364242E-09	0.003399395	0.03595354	4.263796E-13	6.164307	2.033576E-14	-1.823634	0	4.870549E-12	-0.01810966	2.97481E-13	0.01810966	2.97481E-13	-4.870549E-12	4.790537E-16	50.01596	-0.0116232	-7.105427E-15	1.270557E-05	2.369541E-05	-7.105511E-15	1.008769E-05	2.492273E-05	15.99358	2.688687E-05	-3.552713E-12	0.0001351582	0.0002530869	-3.552714E-12	0.0001072002	0.0002661369	-3.625296E-12	9.753386	1.053666	50.01596	1.018	-1	0	0	-1	-1.219123	18.97359	-12.82769	0.5756892	-67.28683	2.55252	0	-1	0.5
1.038	1.059821E-05	6.315607	-6.442262	9.094946E-10	0.003466013	0.03595132	-6.089901E-14	6.140411	4.616083E-14	-1.844042	0	-1.036903E-12	-0.02349563	8.031653E-13	0.02349563	8.031653E-13	1.036903E-12	-2.974097E-15	50.0159	-0.0115748	-1.021405E-14	1.647184E-05	3.074273E-05	-1.021406E-14	1.308893E-05	3.232826E-05	15.99388	3.487745E-05	2.88658E-12	0.0002222368	0.0004157191	2.886579E-12	0.0001764944	0.0004371056	2.896947E-12	9.753895	1.049765	50.0159	1.038	-1	0	0	-1	-1.219178	18.97203	-12.82567	0.575629	-67.27771	2.552778	0	-1	0.5
1.058	-6.156199E-06	6.037523	-6.408129	9.003997E-08	0.003568966	0.03594492	-1.24761E-13	6.109161	1.338336E-14	-1.870604	0	-6.659534E-14	-0.03045654	2.214782E-13	0.03045654	2.214782E-13	6.659534E-14	-4.072575E-15	50.01582	-0.01151167	-5.995204E-15	2.133055E-05	3.985059E-05	-5.995177E-15	1.696838E-05	4.189435E-05	15.99429	4.520025E-05	3.38618E-12	0.0002532033	0.0004753237	3.38618E-12	0.0002011799	0.000499571	3.40742E-12	9.754491	1.044511	50.01582	1.058	-1	0	0	-1	-1.219216	18.97041	-12.82388	0.5755845	-67.26781	2.552996	0	-1	0.5
1.078	-5.763365E-05	5.662655	-6.359335	-8.412825E-08	0.003658667	0.03593604	-6.930102E-13	6.069672	-4.685976E-14	-1.905153	0	-7.346813E-12	-0.03774253	-3.243591E-13	0.03774253	-3.243591E-13	7.346813E-12	-2.562969E-15	50.01573	-0.0114319	-1.065814E-14	2.64002E-05	4.95275E-05	-1.065785E-14	2.101528E-05	5.204135E-05	15.99466	5.612436E-05	8.881784E-13	0.0002465676	0.0004650792	8.881811E-13	0.000196009	0.0004885434	1.006171E-12	9.755202	1.037774	50.01573	1.078	-1	0	0	-1	-1.219345	18.96999	-12.82403	0.5755577	-67.27019	2.553117	0	-1	0.5
1.098	-0.0001301296	5.124549	-6.299005	0	0.003702829	0.03593169	-1.148187E-12	6.022003	-9.427858E-14	-1.948095	0	-4.868551E-12	-0.04463971	-5.144907E-13	0.04463971	-5.144907E-13	4.868551E-12	-3.493242E-15	50.01561	-0.01133575	-3.552714E-15	3.117649E-05	5.857903E-05	-3.552119E-15	2.485889E-05	6.152651E-05	15.99491	6.635869E-05	0	0.0002277084	0.000433065	4.340147E-18	0.0001810187	0.0004545642	1.955084E-13	9.756047	1.029626	50.01561	1.098	-1	0	0	-1	-1.219388	18.97003	-12.82473	0.5755697	-67.27262	2.553092	0	-1	0.5
1.118	-0.0001878379	4.526586	-6.228082	0	0.003673535	0.03593247	1.936536E-13	5.966919	-5.845506E-14	-1.998974	0	-4.52498E-12	-0.05077705	-9.30005E-13	0.05077705	-9.30005E-13	4.52498E-12	6.811726E-16	50.01547	-0.01122464	-2.131628E-14	3.539934E-05	6.66324E-05	-2.131631E-14	2.828085E-05	6.99513E-05	15.995	7.545191E-05	3.552713E-12	0.0001963926	0.0003760215	3.552713E-12	0.0001562397	0.0003944	3.519736E-12	9.757008	1.020183	50.01547	1.118	-1	0	0	-1	-1.219466	18.97095	-12.82647	0.5755903	-67.28263	2.552999	0	-1	0.5
1.138	-0.0002195912	3.856393	-6.149149	4.547473E-10	0.003567488	0.03594541	5.333403E-13	5.905334	-2.35852E-14	-2.056926	0	-1.163961E-12	-0.05597692	-3.484591E-13	0.05597692	-3.484591E-13	1.163961E-12	1.324442E-15	50.01532	-0.01110075	0	3.894698E-05	7.345574E-05	-2.600289E-19	3.118277E-05	7.7073E-05	15.99492	8.314213E-05	3.552713E-12	0.0001613516	0.0003117602	3.552712E-12	0.0001284198	0.0003267065	3.46188E-12	9.758069	1.009632	50.01532	1.138	-1	0	0	-1	-1.219467	18.97138	-12.82722	0.5756063	-67.28622	2.552926	0	-1	0.5
1.158	-0.0002057755	3.128987	-6.063444	-4.638423E-08	0.003401008	0.03596334	1.922332E-14	5.83847	2.771708E-14	-2.120886	0	3.405097E-12	-0.0601704	5.767665E-13	0.0601704	5.767665E-13	-3.405097E-12	-3.936208E-15	50.01515	-0.01096632	7.105427E-15	4.177296E-05	7.895869E-05	7.105378E-15	3.352426E-05	8.279843E-05	15.99466	8.93278E-05	1.421085E-11	0.0001250882	0.0002448214	1.421085E-11	9.953511E-05	0.0002562759	1.420758E-11	9.759212	0.9981706	50.01515	1.158	-1	0	0	-1	-1.219469	18.97103	-12.82671	0.5755895	-67.28426	2.552979	0	-1	0.5
1.178	-0.000151033	2.358049	-5.97371	0	0.00321188	0.03598289	2.049394E-13	5.767426	1.991426E-14	-2.189692	0	-2.573305E-12	-0.06335296	-2.596817E-13	0.06335296	-2.596817E-13	2.573305E-12	8.401874E-16	50.01497	-0.01082368	-7.105427E-15	4.387961E-05	8.313521E-05	-7.105582E-15	3.53032E-05	8.712386E-05	15.99424	9.40047E-05	0	8.946517E-05	0.0001795124	-3.162541E-19	7.097302E-05	0.0001875941	-3.491176E-14	9.760413	0.985999	50.01497	1.178	-1	0	0	-1	-1.219437	18.96917	-12.8241	0.5755351	-67.27034	2.553205	0	-1	0.5
1.198	-9.389725E-05	1.55704	-5.880897	0	0.003048905	0.03600666	5.869885E-13	5.693329	3.070242E-14	-2.262189	0	-7.857914E-12	-0.06555685	-3.257282E-13	0.06555685	-3.257282E-13	7.857914E-12	1.560169E-15	50.01479	-0.01067516	-3.552714E-14	4.529482E-05	8.627772E-05	-3.552756E-14	3.651228E-05	9.034555E-05	15.99365	9.744468E-05	-1.776357E-11	5.573383E-05	0.0001172302	-1.776357E-11	4.382919E-05	0.000122181	-1.786357E-11	9.761652	0.9733141	50.01479	1.198	-1	0	0	-1	-1.219407	18.96616	-12.82009	0.5754505	-67.24847	2.553574	0	-1	0.5
1.218	-1.738E-05	0.7375224	-5.786429	4.547473E-10	0.002952554	0.03601569	4.593118E-13	5.61734	-8.591594E-15	-2.337248	0	-8.040343E-13	-0.06683945	-5.354876E-13	0.06683945	-5.354876E-13	8.040343E-13	-2.383852E-15	50.0146	-0.01052314	-7.993606E-15	4.606435E-05	8.796575E-05	-7.993891E-15	3.723271E-05	9.205228E-05	15.99293	9.929701E-05	-8.881783E-12	2.459273E-05	5.85569E-05	-8.881783E-12	1.874286E-05	6.068293E-05	-8.960048E-12	9.76291	0.9603016	50.0146	1.218	-1	0	0	-1	-1.219428	18.96292	-12.81609	0.5753549	-67.22721	2.553994	0	-1	0.5
1.238	3.342802E-05	-0.08939276	-5.691865	0	0.002949192	0.03601813	6.411972E-14	5.540375	-7.378856E-14	-2.413825	0	9.636146E-12	-0.06726963	-2.074187E-13	0.06726963	-2.074187E-13	-9.636146E-12	-5.275281E-16	50.0144	-0.01036942	1.154632E-14	4.624249E-05	8.853129E-05	1.154639E-14	3.747901E-05	9.25823E-05	15.99207	9.988072E-05	1.332268E-11	-3.696186E-06	4.307366E-06	1.332268E-11	-4.094784E-06	3.930387E-06	1.331175E-11	9.764168	0.9471329	50.0144	1.238	-1	0	0	-1	-1.219447	18.96031	-12.81317	0.5752879	-67.21046	2.554305	0	-1	0.5
1.258	5.744983E-05	-0.9138359	-5.598237	0	0.003032792	0.03600839	-1.498144E-12	5.46344	-1.701291E-13	-2.49093	0	-1.198129E-11	-0.06692386	-1.376112E-12	0.06692386	-1.376112E-12	1.198129E-11	-5.227693E-15	50.01421	-0.01021597	-1.24345E-14	4.588616E-05	8.807657E-05	-1.243326E-14	3.729189E-05	9.20453E-05	15.99111	9.931275E-05	-7.105427E-12	-2.901652E-05	-4.41214E-05	-7.105428E-12	-2.468388E-05	-4.668365E-05	-6.850086E-12	9.76541	0.9339691	50.01421	1.258	-1	0	0	-1	-1.219434	18.95898	-12.81207	0.5752743	-67.20155	2.554401	0	-1	0.5
1.278	5.579845E-05	-1.689744	-5.509824	0	0.003161415	0.03599394	3.549727E-14	5.387207	-2.379467E-14	-2.567616	0	-4.245403E-13	-0.06620777	1.883882E-13	0.06620777	1.883882E-13	4.245403E-13	-1.35332E-15	50.01402	-0.01006423	-2.4869E-14	4.527869E-05	8.73867E-05	-2.486898E-14	3.687429E-05	9.125174E-05	15.99009	9.84205E-05	-1.332268E-11	-2.767774E-05	-4.190951E-05	-1.332268E-11	-2.362076E-05	-4.432295E-05	-1.332873E-11	9.766645	0.9209788	50.01402	1.278	-1	0	0	-1	-1.219523	18.95977	-12.8139	0.5752963	-67.21141	2.554311	0	-1	0.5
1.298	2.945234E-05	-2.439825	-5.424671	0	0.003267804	0.0359811	2.505587E-13	5.311646	-5.616849E-14	-2.643444	0	9.16859E-14	-0.06585336	-4.478963E-13	0.06585336	-4.478963E-13	-9.16859E-14	-1.006593E-15	50.01383	-0.009913966	-2.664535E-15	4.492153E-05	8.691894E-05	-2.66461E-15	3.668231E-05	9.070421E-05	15.98907	9.784092E-05	-4.884981E-12	-7.741618E-06	-3.376044E-06	-4.884981E-12	-7.395845E-06	-4.07821E-06	-4.927697E-12	9.767868	0.9081345	50.01383	1.298	-1	0	0	-1	-1.219599	18.96165	-12.81728	0.5753552	-67.22887	2.554054	0	-1	0.5
1.318	-2.170921E-05	-3.182224	-5.340731	4.729372E-08	0.003289025	0.03598078	9.334768E-15	5.235992	7.741187E-14	-2.718818	0	1.069786E-12	-0.06626675	7.830259E-13	0.06626675	7.830259E-13	-1.069786E-12	-3.722359E-15	50.01364	-0.009763926	2.220446E-15	4.508917E-05	8.746446E-05	2.220322E-15	3.691917E-05	9.121425E-05	15.9881	9.840257E-05	2.664535E-12	2.182787E-05	5.261972E-05	2.664535E-12	1.693481E-05	5.439213E-05	2.662943E-12	9.769083	0.8952976	50.01364	1.318	-1	0	0	-1	-1.219598	18.96315	-12.81994	0.5754145	-67.24125	2.553788	0	-1	0.5
1.338	-6.474295E-05	-3.947471	-5.255432	0	0.003186234	0.03599158	-9.300375E-13	5.159393	-3.356014E-14	-2.794641	0	-1.125811E-11	-0.06742918	-7.893177E-13	0.06742918	-7.893177E-13	1.125811E-11	-3.910456E-15	50.01345	-0.009612143	-1.421085E-14	4.57603E-05	8.899928E-05	-1.421019E-14	3.75715E-05	9.275375E-05	15.98717	0.0001000744	3.552713E-12	4.086177E-05	9.150244E-05	3.552714E-12	3.246772E-05	9.480627E-05	3.711307E-12	9.770287	0.8822745	50.01345	1.338	-1	0	0	-1	-1.219577	18.96293	-12.82012	0.5754177	-67.24106	2.553748	0	-1	0.5
1.358	-9.284677E-05	-4.75416	-5.166224	-7.094058E-08	0.00295909	0.03601331	1.394834E-12	5.081207	1.212462E-13	-2.871812	0	1.019744E-11	-0.06884015	6.801311E-13	0.06884015	6.801311E-13	-1.019744E-11	-1.280489E-15	50.01325	-0.009457618	7.105427E-15	4.659384E-05	9.112339E-05	7.104301E-15	3.834015E-05	9.4892E-05	15.98622	0.0001023448	5.32907E-12	3.376044E-05	7.892958E-05	5.329069E-12	2.663717E-05	8.160948E-05	5.091189E-12	9.771475	0.8689293	50.01325	1.358	-1	0	0	-1	-1.219523	18.96004	-12.81661	0.5753466	-67.22067	2.554041	0	-1	0.5
1.378	-0.0001110402	-5.594185	-5.072171	0	0.002657552	0.03604317	4.118306E-13	5.001892	6.017984E-14	-2.950691	0	5.329336E-13	-0.06934154	-1.811012E-13	0.06934154	-1.811012E-13	-5.329336E-13	4.050854E-16	50.01305	-0.009301007	-3.552714E-15	4.680711E-05	9.178743E-05	-3.553088E-15	3.862605E-05	9.551892E-05	15.98515	0.0001030332	-5.32907E-12	-9.19681E-06	-6.170012E-06	-5.32907E-12	-8.623832E-06	-6.948371E-06	-5.399314E-12	9.772634	0.8553118	50.01305	1.378	-1	0	0	-1	-1.219246	18.95578	-12.81104	0.5752908	-67.18291	2.554307	0	-1	0.5
1.398	-7.709449E-05	-6.436375	-4.978836	0	0.00240001	0.03606785	-3.494904E-13	4.922821	4.673704E-14	-3.030217	0	-5.431716E-12	-0.06849152	2.163866E-13	0.06849152	2.163866E-13	5.431716E-12	-8.818421E-16	50.01285	-0.00914523	-3.552714E-15	4.610745E-05	9.066192E-05	-3.552555E-15	3.815732E-05	9.428414E-05	15.98391	0.0001017127	-1.065814E-11	-5.564652E-05	-9.743962E-05	-1.065814E-11	-4.707959E-05	-0.0001018554	-1.059852E-11	9.773767	0.8417319	50.01285	1.398	-1	0	0	-1	-1.219052	18.95205	-12.80643	0.5752292	-67.15269	2.554564	0	-1	0.5
1.418	-1.640086E-05	-7.258802	-4.888342	0	0.002278206	0.0360805	1.139379E-12	4.845612	6.899965E-14	-3.108844	0	4.412777E-12	-0.06629021	-1.950666E-13	0.06629021	-1.950666E-13	-4.412777E-12	-1.80037E-15	50.01265	-0.008993298	1.421085E-14	4.450721E-05	8.774851E-05	1.421001E-14	3.693594E-05	9.119446E-05	15.98253	9.839051E-05	8.881783E-12	-9.941868E-05	-0.000184169	8.881785E-12	-8.350643E-05	-0.0001919088	8.687401E-12	9.774856	0.8284678	50.01265	1.418	-1	0	0	-1	-1.218797	18.94915	-12.80294	0.5752177	-67.12544	2.554644	0	-1	0.5
1.438	4.735679E-05	-8.04336	-4.802452	-1.200533E-07	0.002316783	0.03607049	-4.021011E-13	4.771698	-8.009456E-15	-3.185009	0	-6.02226E-12	-0.06284551	-1.609023E-13	0.06284551	-1.609023E-13	6.02226E-12	-4.714053E-15	50.01247	-0.008848175	-5.329071E-15	4.2086E-05	8.342834E-05	-5.328813E-15	3.50001E-05	8.664014E-05	15.98104	9.34426E-05	2.664535E-12	-0.000138185	-0.0002627494	2.664534E-12	-0.0001158491	-0.0002733337	2.733142E-12	9.775884	0.8157778	50.01247	1.438	-1	0	0	-1	-1.218568	18.9483	-12.80236	0.5752661	-67.1138	2.554461	0	-1	0.5
1.458	8.075674E-05	-8.774926	-4.722678	1.818989E-09	0.002479899	0.03604133	7.221404E-13	4.702454	1.985115E-14	-3.257284	0	1.348505E-11	-0.05832263	6.537034E-13	0.05832263	6.537034E-13	-1.348505E-11	-9.183629E-16	50.01229	-0.008712426	1.776357E-14	3.896281E-05	7.742411E-05	1.776313E-14	3.248435E-05	8.03577E-05	15.97949	8.667522E-05	1.24345E-11	-0.0001700828	-0.000328815	1.24345E-11	-0.0001425537	-0.0003416518	1.231127E-11	9.776836	0.8038921	50.01229	1.458	-1	0	0	-1	-1.218336	18.94997	-12.80538	0.5753992	-67.11996	2.553918	0	-1	0.5
1.478	3.937502E-05	-9.441113	-4.650624	0	0.002675413	0.03601799	8.638162E-13	4.638947	3.043622E-14	-3.324424	0	3.869E-12	-0.05291667	7.70979E-13	0.05291667	7.70979E-13	-3.869E-12	-1.553527E-15	50.01213	-0.00858815	0	3.527291E-05	7.024792E-05	-4.817091E-19	2.947596E-05	7.287054E-05	15.97792	7.860628E-05	-4.440892E-12	-0.0001953449	-0.0003810855	-4.440889E-12	-0.0001638841	-0.0003956359	-4.588305E-12	9.7777	0.7930021	50.01213	1.478	-1	0	0	-1	-1.218206	18.95438	-12.81255	0.5755956	-67.15028	2.553066	0	-1	0.5
1.498	-3.437466E-05	-10.03322	-4.586653	0	0.002801494	0.03599161	-5.411872E-13	4.582092	-5.645401E-14	-3.385405	0	-1.529246E-11	-0.0468344	-7.698266E-13	0.0468344	-7.698266E-13	1.529246E-11	-5.061932E-15	50.01199	-0.008476987	-1.598721E-14	3.115647E-05	6.217312E-05	-1.59869E-14	2.609005E-05	6.446341E-05	15.97637	6.954295E-05	-2.220446E-12	-0.0002132729	-0.0004200265	-2.220448E-12	-0.0001790364	-0.0004357218	-2.128084E-12	9.778467	0.7832584	50.01199	1.498	-1	0	0	-1	-1.21812	18.95985	-12.82127	0.5758083	-67.19057	2.552107	0	-1	0.5
1.518	-0.0001383624	-10.54366	-4.531678	-1.582521E-07	0.002785501	0.03598615	9.445591E-13	4.532501	3.507517E-14	-3.439439	0	1.387764E-12	-0.04029483	5.668499E-13	0.04029483	5.668499E-13	-1.387764E-12	4.811664E-16	50.01186	-0.00838019	-3.552714E-15	2.675876E-05	5.349191E-05	-3.553116E-15	2.244789E-05	5.543922E-05	15.97488	5.98115E-05	1.776357E-12	-0.0002244487	-0.0004438334	1.77636E-12	-0.000188673	-0.0004601824	1.615142E-12	9.779133	0.7747721	50.01186	1.518	-1	0	0	-1	-1.217929	18.96387	-12.82744	0.5759908	-67.21584	2.551294	0	-1	0.5
1.538	-0.0002119518	-10.97075	-4.485563	0	0.00261168	0.03599835	1.471734E-12	4.490601	7.591467E-14	-3.485993	0	4.473259E-12	-0.03349579	3.521754E-13	0.03349579	3.521754E-13	-4.473259E-12	3.297307E-15	50.01175	-0.008298397	0	2.221065E-05	4.446623E-05	-5.382526E-19	1.866095E-05	4.606872E-05	15.97348	4.970471E-05	0	-0.0002288725	-0.0004554749	5.54837E-18	-0.0001925082	-0.0004719964	-2.512066E-13	9.779693	0.7676079	50.01175	1.538	-1	0	0	-1	-1.21777	18.9653	-12.82965	0.5760665	-67.22366	2.550907	0	-1	0.5
1.558	-0.0002344322	-11.312	-4.448711	0	0.002335791	0.03602702	3.593427E-13	4.456543	-1.107521E-14	-3.524757	0	1.043107E-11	-0.02662743	5.850887E-13	0.02662743	5.850887E-13	-1.043107E-11	-3.343596E-15	50.01167	-0.008232072	0	1.763506E-05	3.544975E-05	-8.613946E-20	1.482718E-05	3.671286E-05	15.97219	3.959394E-05	0	-0.0002277084	-0.000455766	1.113596E-18	-0.0001916054	-0.0004720816	-6.133839E-14	9.780149	0.7617957	50.01167	1.558	-1	0	0	-1	-1.217622	18.96331	-12.82676	0.5760218	-67.20663	2.55104	0	-1	0.5
1.578	-0.0001782754	-11.572	-4.420455	1.718945E-07	0.002060269	0.03604993	9.269148E-13	4.430328	3.255705E-14	-3.555644	0	9.147091E-12	-0.01986312	1.388831E-13	0.01986312	1.388831E-13	-9.147091E-12	-2.283993E-15	50.0116	-0.008181021	1.421085E-14	1.314282E-05	2.644421E-05	1.421066E-14	1.106083E-05	2.738043E-05	15.97105	2.953015E-05	3.552713E-12	-0.0002225861	-0.0004471512	3.552717E-12	-0.0001873801	-0.0004630092	3.394488E-12	9.780501	0.7573264	50.0116	1.578	-1	0	0	-1	-1.217419	18.95847	-12.81969	0.5759068	-67.16586	2.551532	0	-1	0.5
1.598	-9.117746E-05	-11.76433	-4.400065	0	0.001886945	0.03607197	7.594849E-13	4.411804	1.945959E-14	-3.57879	0	9.731823E-12	-0.01313956	4.089378E-13	0.01313956	4.089378E-13	-9.731823E-12	1.814053E-15	50.01155	-0.008144945	1.065814E-14	8.687843E-06	1.749326E-05	1.065804E-14	7.316444E-06	1.810974E-05	15.97004	1.953184E-05	-1.776357E-12	-0.0002230517	-0.0004483154	-1.776354E-12	-0.0001879045	-0.0004641451	-1.906005E-12	9.780745	0.7541625	50.01155	1.598	-1	0	0	-1	-1.217273	18.95288	-12.81194	0.5757676	-67.1217	2.552149	0	-1	0.5
1.618	3.397943E-06	-11.87944	-4.387804	-9.094946E-10	0.00188153	0.03607488	1.708412E-12	4.401001	6.631171E-14	-3.594234	0	1.359379E-11	-0.00637744	-9.381829E-14	0.00637744	-9.381829E-14	-1.359379E-11	-1.770604E-15	50.01153	-0.008123949	1.509903E-14	4.215166E-06	8.490519E-06	1.509892E-14	3.551206E-06	8.78894E-06	15.96916	9.479269E-06	3.108624E-12	-0.0002239831	-0.0004516332	3.10863E-12	-0.000188666	-0.0004674892	2.816984E-12	9.780886	0.7523158	50.01153	1.618	-1	0	0	-1	-1.217184	18.94881	-12.80651	0.5756747	-67.08969	2.552597	0	-1	0.5
1.638	5.989011E-05	-11.91222	-4.384208	-1.818989E-09	0.002037834	0.03606114	4.520259E-13	4.397949	6.111602E-14	-3.601927	0	3.966497E-12	0.0004029774	-3.790752E-13	-0.0004029774	-3.790752E-13	-3.966497E-12	2.184828E-15	50.01152	-0.008117989	1.953993E-14	-2.658926E-07	-5.364418E-07	1.953993E-14	-2.239734E-07	-5.552519E-07	15.96842	5.987225E-07	5.32907E-12	-0.0002225861	-0.0004490139	5.329072E-12	-0.0001874987	-0.0004647604	5.251906E-12	9.780928	0.7518013	50.01152	1.638	-1	0	0	-1	-1.217195	18.94788	-12.80564	0.5756596	-67.08357	2.552696	0	-1	0.5
1.658	5.976925E-05	-11.85645	-4.389737	1.818989E-09	0.002296373	0.03603412	4.671318E-13	4.402618	-6.801871E-14	-3.601832	0	1.96136E-12	0.007003908	-7.612349E-13	-0.007003908	-7.612349E-13	-1.96136E-12	-1.764641E-15	50.01153	-0.008127034	-2.131628E-14	-4.629139E-06	-9.324634E-06	-2.131626E-14	-3.899678E-06	-9.652474E-06	15.96782	1.041046E-05	-1.332268E-11	-0.0002123415	-0.0004281755	-1.332267E-11	-0.0001788463	-0.0004432124	-1.340242E-11	9.780874	0.7526172	50.01153	1.658	-1	0	0	-1	-1.217228	18.95045	-12.80974	0.5757549	-67.10307	2.55232	0	-1	0.5
1.678	3.553282E-07	-11.7152	-4.404152	9.094946E-10	0.002550597	0.03600549	-1.527027E-13	4.414551	4.054116E-14	-3.594131	0	3.617297E-13	0.01311658	4.840615E-13	-0.01311658	4.840615E-13	-3.617297E-13	2.38666E-17	50.01156	-0.00815025	-6.328271E-15	-8.672476E-06	-1.746218E-05	-6.328278E-15	-7.302642E-06	-1.807792E-05	15.9674	1.949717E-05	-4.718447E-12	-0.0001920853	-0.0003867317	-4.718447E-12	-0.0001617478	-0.0004003696	-4.69238E-12	9.780735	0.7546979	50.01156	1.678	-1	0	0	-1	-1.217369	18.95595	-12.8182	0.5759143	-67.14827	2.551627	0	-1	0.5
1.698	-8.898734E-05	-11.49962	-4.426257	0	0.00270673	0.03598529	7.011145E-13	4.433044	-2.379073E-14	-3.579375	0	6.763949E-13	0.01848637	-1.758439E-13	-0.01848637	-1.758439E-13	-6.763949E-13	2.333211E-15	50.01161	-0.008186251	0	-1.223059E-05	-2.46116E-05	1.157173E-19	-1.029167E-05	-2.548332E-05	15.96717	2.748305E-05	-1.065814E-11	-0.0001650769	-0.0003317836	-1.065814E-11	-0.0001389381	-0.0003435505	-1.077782E-11	9.780514	0.7579117	50.01161	1.698	-1	0	0	-1	-1.21747	18.96192	-12.82691	0.5760857	-67.19502	2.550866	0	-1	0.5
1.718	-0.0001758754	-11.22334	-4.45479	9.094946E-10	0.002704608	0.03598325	1.321812E-12	4.457153	2.473194E-14	-3.55841	0	-3.45345E-12	0.02296116	-4.977864E-13	-0.02296116	-4.977864E-13	3.45345E-12	3.546441E-15	50.01167	-0.008233204	0	-1.520384E-05	-3.056868E-05	3.080816E-19	-1.278227E-05	-3.165778E-05	15.96712	3.41409E-05	-1.421085E-11	-0.0001345761	-0.0002692686	-1.421085E-11	-0.0001132433	-0.0002789126	-1.443648E-11	9.780219	0.7620891	50.01167	1.718	-1	0	0	-1	-1.217576	18.96592	-12.83245	0.5761728	-67.22813	2.550426	0	-1	0.5
1.738	-0.0002190932	-10.92857	-4.488229	0	0.002551902	0.03599716	3.229925E-13	4.485748	-7.299265E-16	-3.532264	0	5.897296E-12	0.02646931	6.358358E-15	-0.02646931	6.358358E-15	-5.897296E-12	-9.228724E-16	50.01174	-0.008288994	1.421085E-14	-1.754425E-05	-3.51381E-05	1.421094E-14	-1.474232E-05	-3.640263E-05	15.96725	3.927451E-05	1.421085E-11	-9.941868E-05	-0.0001967419	1.421085E-11	-8.372671E-05	-0.0002039149	1.415572E-11	9.779867	0.7670486	50.01174	1.738	-1	0	0	-1	-1.217561	18.96592	-12.83169	0.5761495	-67.22681	2.550487	0	-1	0.5
1.758	-0.0002183652	-10.54261	-4.525652	0	0.002316821	0.03602912	3.564895E-13	4.517761	-5.017799E-14	-3.50203	0	1.848931E-12	0.02899286	-8.21717E-14	-0.02899286	-8.21717E-14	-1.848931E-12	-1.09103E-15	50.01182	-0.008351386	-1.421085E-14	-1.923786E-05	-3.848842E-05	-1.421079E-14	-1.614642E-05	-3.988417E-05	15.96753	4.302852E-05	0	-7.031485E-05	-0.0001383014	2.472333E-19	-5.920261E-05	-0.0001434103	-6.08471E-14	9.779461	0.7725736	50.01182	1.758	-1	0	0	-1	-1.217612	18.96235	-12.82588	0.5759947	-67.20177	2.551117	0	-1	0.5
1.778	-0.0001575689	-10.16379	-4.56561	0	0.002102058	0.0360592	4.259176E-13	4.552063	-1.865949E-14	-3.468855	0	1.624616E-12	0.03055299	-4.411144E-13	-0.03055299	-4.411144E-13	-1.624616E-12	9.13726E-16	50.01191	-0.008418337	7.105427E-15	-2.029771E-05	-4.055945E-05	7.105541E-15	-1.701468E-05	-4.204244E-05	15.96794	4.535489E-05	7.105427E-12	-3.911554E-05	-7.537891E-05	7.105427E-12	-3.300971E-05	-7.824555E-05	7.032733E-12	9.779023	0.7784923	50.01191	1.778	-1	0	0	-1	-1.217657	18.95662	-12.81714	0.5757824	-67.16047	2.552034	0	-1	0.5
1.798	-6.297776E-05	-9.775264	-4.606744	-1.455191E-07	0.002001785	0.03607449	-5.195505E-13	4.587585	-5.480074E-14	-3.433838	0	1.807008E-12	0.03119975	-3.109321E-13	-0.03119975	-3.109321E-13	-1.807008E-12	-5.249517E-15	50.012	-0.008487657	5.329071E-15	-2.075289E-05	-4.141813E-05	5.328873E-15	-1.737367E-05	-4.294531E-05	15.96846	4.632649E-05	-2.664535E-12	-9.662471E-06	-1.688022E-05	-2.664535E-12	-8.281389E-06	-1.759897E-05	-2.575864E-12	9.778563	0.7846129	50.012	1.798	-1	0	0	-1	-1.2177	18.9509	-12.80869	0.5755897	-67.11843	2.55292	0	-1	0.5
1.818	1.825286E-05	-9.387479	-4.647852	9.094946E-10	0.002059946	0.036077	-1.170638E-12	4.623291	-4.250461E-14	-3.398038	0	-7.306883E-12	0.03100726	-7.043105E-13	-0.03100726	-7.043105E-13	7.306883E-12	-3.682785E-15	50.01209	-0.008557484	-1.332268E-14	-2.065068E-05	-4.116236E-05	-1.332306E-14	-1.726564E-05	-4.269295E-05	15.96906	4.605204E-05	-1.598721E-11	1.664739E-05	3.614695E-05	-1.598721E-11	1.367964E-05	3.737118E-05	-1.578743E-11	9.778094	0.7907619	50.01209	1.818	-1	0	0	-1	-1.217807	18.94766	-12.80399	0.5754675	-67.09657	2.553501	0	-1	0.5
1.838	6.705213E-05	-9.010181	-4.688381	1.346052E-07	0.002261654	0.03606286	7.306798E-13	4.658295	-5.824347E-14	-3.362419	0	1.116974E-11	0.03006044	4.534946E-13	-0.03006044	4.534946E-13	-1.116974E-11	-1.325801E-15	50.01218	-0.008625939	2.309264E-14	-2.004462E-05	-3.990566E-05	2.309281E-14	-1.673756E-05	-4.140172E-05	15.96972	4.465701E-05	7.993605E-12	4.051253E-05	8.317874E-05	7.993605E-12	3.362352E-05	8.619412E-05	7.868913E-12	9.777629	0.7967842	50.01218	1.838	-1	0	0	-1	-1.217969	18.94786	-12.80423	0.5754417	-67.10155	2.553647	0	-1	0.5
1.858	7.573963E-05	-8.652194	-4.727166	0	0.002540852	0.0360315	-7.805232E-14	4.691772	1.94457E-14	-3.327857	0	7.887159E-13	0.02847182	2.929073E-13	-0.02847182	2.929073E-13	-7.887159E-13	-1.694855E-15	50.01226	-0.008691549	2.131628E-14	-1.900713E-05	-3.77968E-05	2.131627E-14	-1.585183E-05	-3.922484E-05	15.97042	4.230684E-05	8.881783E-12	6.065238E-05	0.0001225271	8.881783E-12	5.042697E-05	0.0001270776	8.895103E-12	9.777179	0.8025417	50.01226	1.858	-1	0	0	-1	-1.218104	18.95119	-12.80889	0.5755255	-67.12794	2.553325	0	-1	0.5
1.878	3.409386E-05	-8.319905	-4.763283	0	0.002798386	0.03600241	-4.935022E-13	4.723114	-4.09805E-14	-3.295093	0	-8.426934E-13	0.02635327	-6.939733E-14	-0.02635327	-6.939733E-14	8.426934E-13	-2.51559E-15	50.01234	-0.008752927	-4.440892E-15	-1.761271E-05	-3.498443E-05	-4.441043E-15	-1.467226E-05	-3.631588E-05	15.97113	3.916782E-05	2.220446E-12	7.671769E-05	0.0001542503	2.220446E-12	6.375612E-05	0.0001600435	2.304655E-12	9.776752	0.8079214	50.01234	1.878	-1	0	0	-1	-1.218255	18.95641	-12.81629	0.575659	-67.16963	2.552746	0	-1	0.5
1.898	-3.6903E-05	-8.011352	-4.796884	0	0.002944706	0.03598545	4.476777E-13	4.75174	3.633368E-14	-3.264723	0	-6.304346E-12	0.02377805	-6.791383E-14	-0.02377805	-6.791383E-14	6.304346E-12	2.396219E-16	50.01242	-0.008809045	-8.881784E-15	-1.590746E-05	-3.156601E-05	-8.881661E-15	-1.32379E-05	-3.277527E-05	15.97185	3.534771E-05	2.220446E-12	9.371433E-05	0.0001873122	2.220445E-12	7.787556E-05	0.0001944316	2.144059E-12	9.776361	0.8128403	50.01242	1.898	-1	0	0	-1	-1.218416	18.96157	-12.82346	0.5757772	-67.21173	2.552201	0	-1	0.5
1.918	-0.000114721	-7.728683	-4.827206	-9.094946E-10	0.002932831	0.03598867	-2.59074E-13	4.777039	-2.258714E-14	-3.237276	0	8.539371E-12	0.02060957	7.137199E-13	-0.02060957	7.137199E-13	-8.539371E-12	-1.183143E-15	50.01248	-0.008858711	1.421085E-14	-1.379964E-05	-2.735923E-05	1.421079E-14	-1.147326E-05	-2.841341E-05	15.97256	3.064242E-05	3.552713E-12	0.0001152512	0.0002298038	3.552714E-12	9.571305E-05	0.0002386035	3.596918E-12	9.776019	0.8172027	50.01248	1.918	-1	0	0	-1	-1.218503	18.96421	-12.82674	0.5758216	-67.23309	2.551965	0	-1	0.5
1.938	-0.0001564479	-7.486922	-4.853137	1.127773E-07	0.002775676	0.03600553	3.210423E-13	4.798309	-2.645982E-14	-3.213421	0	4.663836E-12	0.01678792	1.632283E-13	-0.01678792	1.632283E-13	-4.663836E-12	7.855998E-16	50.01254	-0.008900464	0	-1.124898E-05	-2.228632E-05	4.207214E-20	-9.345335E-06	-2.314917E-05	15.97328	2.496436E-05	3.552713E-12	0.0001374865	0.0002728775	3.552713E-12	0.0001141788	0.0002834217	3.497938E-12	9.775733	0.8208767	50.01254	1.938	-1	0	0	-1	-1.218519	18.96325	-12.82473	0.5757656	-67.22569	2.552182	0	-1	0.5
1.958	-0.0001594385	-7.299531	-4.873667	0	0.002543327	0.0360348	8.574677E-13	4.814819	-7.668454E-15	-3.193919	0	8.875833E-12	0.01237656	6.291555E-14	-0.01237656	6.291555E-14	-8.875833E-12	-2.00624E-17	50.01258	-0.008932859	7.105427E-15	-8.298317E-06	-1.638266E-05	7.105528E-15	-6.893943E-06	-1.702138E-05	15.97398	1.836447E-05	7.105427E-12	0.0001543667	0.000305823	7.105425E-12	0.0001281525	0.0003177007	6.95913E-12	9.775511	0.8237268	50.01258	1.958	-1	0	0	-1	-1.218531	18.95943	-12.81876	0.5756207	-67.1978	2.552788	0	-1	0.5
1.978	-0.0001168209	-7.177999	-4.886963	1.818989E-09	0.002331706	0.0360628	6.576964E-13	4.826019	6.67891E-14	-3.17947	0	2.569762E-12	0.007628232	5.591512E-13	-0.007628232	5.591512E-13	-2.569762E-12	1.609137E-15	50.0126	-0.008954868	3.552714E-15	-5.116453E-06	-1.009763E-05	3.552774E-15	-4.248795E-06	-1.049228E-05	15.97463	1.131991E-05	0	0.0001613516	0.0003179302	-1.909156E-18	0.0001340319	0.0003303777	-1.122114E-13	9.775355	0.8256515	50.0126	1.978	-1	0	0	-1	-1.218544	18.95433	-12.81127	0.5754482	-67.16058	2.553549	0	-1	0.5
1.998	-4.321912E-05	-7.123527	-4.893174	0	0.002228248	0.03607807	-2.133355E-14	4.831757	-1.647902E-14	-3.170471	0	-3.459305E-12	0.002863874	-7.48785E-13	-0.002863874	-7.48785E-13	3.459305E-12	-1.543704E-15	50.01262	-0.008966148	0	-1.921551E-06	-3.790949E-06	-1.684363E-21	-1.59541E-06	-3.939329E-06	15.97521	4.250135E-06	1.776357E-12	0.0001570443	0.0003102468	1.776357E-12	0.000130354	0.0003223722	1.779997E-12	9.77527	0.8266205	50.01262	1.998	-1	0	0	-1	-1.218569	18.95001	-12.80515	0.5753098	-67.12936	2.554184	0	-1	0.5
2.018	3.022913E-05	-7.130903	-4.893073	-1.064109E-07	0.002274503	0.03607491	7.941589E-13	4.832153	1.025504E-16	-3.166956	0	3.764565E-12	-0.001661656	9.008537E-14	0.001661656	9.008537E-14	-3.764565E-12	2.620833E-15	50.01262	-0.008966923	7.993606E-15	1.114793E-06	2.199784E-06	7.993593E-15	9.255275E-07	2.285872E-06	15.97568	2.466133E-06	-9.769962E-12	0.0001464505	0.0002890592	-9.769963E-12	0.0001215804	0.0003003684	-9.905453E-12	9.775255	0.8266662	50.01262	2.018	-1	0	0	-1	-1.218588	18.94794	-12.8023	0.5752499	-67.11411	2.554488	0	-1	0.5
2.038	8.022216E-05	-7.19317	-4.886693	0	0.002453952	0.03605598	2.008805E-12	4.827606	7.625912E-14	-3.168651	0	1.575348E-11	-0.005777513	1.330706E-12	0.005777513	1.330706E-12	-1.575348E-11	4.988874E-16	50.01261	-0.008957937	1.065814E-14	3.875466E-06	7.647555E-06	1.065802E-14	3.218114E-06	7.946577E-06	15.97603	8.573467E-06	3.552713E-12	0.0001305016	0.0002579763	3.552709E-12	0.0001083278	0.0002680439	3.209988E-12	9.775307	0.825859	50.01261	2.038	-1	0	0	-1	-1.218611	18.94884	-12.80362	0.5752822	-67.12041	2.554381	0	-1	0.5
2.058	7.983956E-05	-7.302687	-4.875091	1.073204E-07	0.002695685	0.03602608	-4.433644E-13	4.818665	-1.03861E-13	-3.175095	0	-2.776208E-12	-0.009375876	-6.904687E-13	0.009375876	-6.904687E-13	2.776208E-12	-3.410695E-15	50.01258	-0.008940384	-1.065814E-14	6.287359E-06	1.24108E-05	-1.065808E-14	5.222596E-06	1.289509E-05	15.97626	1.391255E-05	-1.598721E-11	0.0001116423	0.0002211891	-1.598721E-11	9.266724E-05	0.0002297856	-1.591157E-11	9.77542	0.8242952	50.01258	2.058	-1	0	0	-1	-1.218599	18.95222	-12.80854	0.5754066	-67.14366	2.553878	0	-1	0.5
2.078	3.376328E-05	-7.451865	-4.859449	0	0.002899797	0.03600059	1.561405E-12	4.805969	-1.379311E-14	-3.185695	0	6.049401E-12	-0.0123924	5.260313E-14	0.0123924	5.260313E-14	-6.049401E-12	-5.887383E-16	50.01255	-0.008915454	4.440892E-15	8.307165E-06	1.640362E-05	4.440708E-15	6.903635E-06	1.704193E-05	15.97638	1.838716E-05	9.325873E-12	9.185168E-05	0.0001813751	9.325871E-12	7.633284E-05	0.0001884329	9.059472E-12	9.775586	0.8220868	50.01255	2.078	-1	0	0	-1	-1.218652	18.95739	-12.81619	0.5755653	-67.18353	2.553171	0	-1	0.5
2.098	-4.481666E-05	-7.632501	-4.840057	1.145963E-07	0.002983761	0.03598649	2.349041E-12	4.790192	1.039166E-13	-3.199784	0	1.361148E-11	-0.01479458	6.849074E-13	0.01479458	6.849074E-13	-1.361148E-11	1.957856E-15	50.01252	-0.00888449	2.4869E-14	9.912532E-06	1.964043E-05	2.486862E-14	8.237789E-06	2.03996E-05	15.97638	2.200011E-05	-3.108624E-12	7.101334E-05	0.0001410954	-3.108627E-12	5.898281E-05	0.0001465327	-3.509417E-12	9.775794	0.8193535	50.01252	2.098	-1	0	0	-1	-1.218636	18.96173	-12.82251	0.5757069	-67.21553	2.552525	0	-1	0.5
2.118	-0.0001222469	-7.836586	-4.818353	9.094946E-10	0.002906856	0.03599161	-7.602888E-14	4.772064	-2.024278E-14	-3.216663	0	2.903185E-13	-0.01657921	2.421416E-14	0.01657921	2.421416E-14	-2.903185E-13	1.520332E-16	50.01247	-0.008848876	3.552714E-15	1.110067E-05	2.200925E-05	3.552734E-15	9.231196E-06	2.285644E-05	15.97629	2.465019E-05	3.552713E-12	5.0175E-05	0.00010035	3.552713E-12	4.165277E-05	0.0001041763	3.565686E-12	9.776036	0.8162167	50.01247	2.118	-1	0	0	-1	-1.218573	18.96372	-12.82529	0.5757771	-67.229	2.552181	0	-1	0.5
2.138	-0.0001745528	-8.056168	-4.794572	9.094946E-10	0.002694966	0.03601524	-2.153344E-13	4.752258	4.634279E-14	-3.235613	0	-1.661508E-12	-0.01776668	7.744386E-13	0.01776668	7.744386E-13	1.661508E-12	-7.138893E-16	50.01242	-0.008810043	0	1.188787E-05	2.358551E-05	1.810403E-20	9.892998E-06	2.448931E-05	15.9761	2.641208E-05	-3.552713E-12	3.073364E-05	6.193294E-05	-3.552713E-12	2.549699E-05	6.426624E-05	-3.515971E-12	9.776301	0.8127987	50.01242	2.138	-1	0	0	-1	-1.21849	18.96263	-12.82358	0.5757484	-67.21949	2.552265	0	-1	0.5
2.158	-0.000163532	-8.285168	-4.769849	9.094946E-10	0.002428091	0.03604189	-1.02172E-12	4.731445	-9.823219E-14	-3.255951	0	-5.216719E-12	-0.01839562	-8.884065E-13	0.01839562	-8.884065E-13	5.216719E-12	-4.288417E-15	50.01237	-0.008769244	-1.421085E-14	1.229998E-05	2.442067E-05	-1.421063E-14	1.024371E-05	2.535203E-05	15.97584	2.734335E-05	-7.105427E-12	1.257285E-05	2.58442E-05	-7.105426E-12	1.039823E-05	2.679321E-05	-6.931087E-12	9.776581	0.8092116	50.01237	2.158	-1	0	0	-1	-1.218352	18.95868	-12.81775	0.5756459	-67.18693	2.552701	0	-1	0.5
2.178	-0.0001089747	-8.516177	-4.744787	0	0.002207213	0.03606696	1.080402E-12	4.710266	1.139799E-13	-3.277035	0	1.074024E-11	-0.01850712	9.993676E-13	0.01850712	9.993676E-13	-1.074024E-11	-9.576279E-17	50.01231	-0.008727744	7.105427E-15	1.23654E-05	2.456829E-05	7.105184E-15	1.030616E-05	2.550073E-05	15.97552	2.750462E-05	5.32907E-12	-3.841705E-06	-7.101334E-06	5.32907E-12	-3.245589E-06	-7.39282E-06	5.144712E-12	9.776866	0.8055618	50.01231	2.178	-1	0	0	-1	-1.218245	18.95369	-12.81071	0.5755127	-67.14788	2.55329	0	-1	0.5
2.198	-2.751383E-05	-8.743641	-4.720507	-1.300577E-07	0.00211481	0.03607843	5.758977E-13	4.68924	5.931502E-14	-3.298269	0	5.850303E-12	-0.01815692	2.519223E-13	0.01815692	2.519223E-13	-5.850303E-12	2.4693E-15	50.01226	-0.008686602	1.687539E-14	1.212233E-05	2.410379E-05	1.687526E-14	1.011123E-05	2.501413E-05	15.97515	2.698043E-05	3.552713E-12	-1.851003E-05	-3.57395E-05	3.552714E-12	-1.552632E-05	-3.713309E-05	3.45444E-12	9.777149	0.8019449	50.01226	2.198	-1	0	0	-1	-1.218189	18.94981	-12.80553	0.5754119	-67.11873	2.553748	0	-1	0.5
