Time	Aircraft Simulation Roll Angle	Aircraft Simulation Pitch Angle	Aircraft Simulation Heading Angle	Aircraft Simulation Angle Of Attack_Deg	Aircraft Simulation Angle Of Sideslip_Deg	Aircraft Simulation Roll Rate	Aircraft Simulation Pitch Rate	Aircraft Simulation Yaw Rate	Aircraft Simulation Angular Velocity X	Aircraft Simulation Angular Velocity Y	Aircraft Simulation Angular Velocity Z	Aircraft Simulation Position X	Aircraft Simulation Position Y	Aircraft Simulation Position Z	Aircraft Simulation Global Velocity X	Aircraft Simulation Global Velocity Y	Aircraft Simulation Global Velocity Z	Aircraft Simulation Local Velocity X	Aircraft Simulation Local Velocity Y	Aircraft Simulation Local Velocity Z	Aircraft Simulation Airspeed	Aircraft Simulation Ground Speed	Aircraft Simulation Acceleration X	Aircraft Simulation Acceleration Y	Aircraft Simulation Acceleration Z	Aircraft Simulation Local Acceleration X	Aircraft Simulation Local Acceleration Y	Aircraft Simulation Local Acceleration Z	Aircraft Simulation Imu Acceleration X	Aircraft Simulation Imu Acceleration Y	Aircraft Simulation Imu Acceleration Z	Aircraft Simulation Altitude	Aircraft Simulation Time	Aircraft Simulation Net Global Force X	Aircraft Simulation Net Global Force Y	Aircraft Simulation Net Global Force Z	Aircraft Simulation Net Global Moment X	Aircraft Simulation Net Global Moment Y	Aircraft Simulation Net Global Moment Z	Electronic Speed Controller Input Value	Fin Input Value	Port Aileron Input Value	Port Flap Input Value	Propeller Total Thrust	Propeller Advance Ratio	Propeller Thrust Coefficient	Propeller Torque Coefficient	Propeller Propulsive Efficiency	Propeller Rps	Starboard Aileron Input Value	Starboard Flap Input Value	Tailplane Input Value
0.1	-0.002209086	118.7175	10.92503	0	0.00142311	0.03609916	1.411675E-12	-0.3046874	-9.178348E-15	9.642802	0	1.451587E-11	0.09499136	-1.363778E-13	-0.09499136	-1.363778E-13	-1.451587E-11	2.069406E-15	49.99918	0.0005293489	5.684342E-14	-5.218014E-05	-0.0001311754	5.68447E-14	-5.287696E-05	-0.000130896	15.76339	0.0001411728	2.842171E-11	-0.002473593	-0.006190966	2.842177E-11	-0.00250648	-0.006177725	2.818007E-11	9.807355	-0.05834509	49.99918	0.1	-1	0	2.539374E-13	-1	-1.19511	18.63788	-12.58166	0.576216	-64.76928	2.551847	-2.539374E-13	-1	-0.3155722
0.2	-0.0009239796	130.3797	11.38881	7.275957E-09	0.0001785146	0.03583125	-4.743899E-13	0.3664246	1.136949E-13	10.38076	0	1.509728E-12	-0.031263	5.778423E-13	0.031263	5.778423E-13	-1.509728E-12	-3.516648E-15	50.00098	-0.0006423444	-2.842171E-14	1.76914E-05	4.293304E-05	-2.842165E-14	1.741647E-05	4.30453E-05	15.7409	4.643524E-05	-1.421085E-11	0.002482906	0.006029382	-1.421085E-11	0.002444295	0.006045138	-1.412962E-11	9.812244	0.06878281	50.00098	0.2	-1	0	-1.014042E-12	-1	-1.193282	18.78463	-12.80039	0.5809947	-65.86792	2.528014	1.014042E-12	-1	0.3699951
0.3	-0.002394866	120.5496	11.08693	0	0.001315555	0.03610842	-7.2459E-13	-0.147895	-1.713424E-14	9.851889	0	-6.818443E-12	0.006198587	-2.949613E-13	-0.006198587	-2.949613E-13	6.818443E-12	-1.744529E-15	49.9996	0.0002574772	0	-3.430992E-06	-8.535571E-06	-4.622102E-20	-3.453014E-06	-8.526687E-06	15.76418	9.199331E-06	-2.842171E-11	-0.001998618	-0.004973262	-2.842174E-11	-0.002011449	-0.004968087	-2.829767E-11	9.807956	-0.03029016	49.9996	0.3	-1	0	-5.767634E-14	-1	-1.196624	18.64918	-12.60645	0.5763028	-64.92648	2.550951	5.767634E-14	-1	-0.1486053
0.4	-0.0007686109	128.6121	11.40193	1.913577E-06	0.0003471812	0.03582003	-4.434006E-13	0.2799683	-1.533902E-14	10.26849	0	-2.404745E-13	0.01458688	-2.284386E-13	-0.01458688	-2.284386E-13	2.404745E-13	-4.893701E-15	50.00075	-0.0004901737	0	-8.221716E-06	-2.003228E-05	-6.823093E-20	-8.123734E-06	-2.007222E-05	15.7412	2.165384E-05	2.842171E-11	0.001654029	0.004037516	2.842172E-11	0.001634281	0.00404555	2.849764E-11	9.811517	0.05198015	50.00075	0.4	-1	0	-4.172422E-13	-1	-1.192345	18.78689	-12.79263	0.5810686	-65.8275	2.527788	4.172422E-13	-1	0.2782898
0.5	-0.002542739	122.2899	11.20392	-1.826265E-06	0.001145712	0.03607906	-2.076219E-12	-0.05273675	4.653128E-15	9.965065	0	-2.265544E-11	-0.02617692	2.472779E-13	0.02617692	2.472779E-13	2.265544E-11	-4.171096E-15	49.99986	9.196997E-05	-1.136868E-13	1.454726E-05	3.60487E-05	-1.136863E-13	1.458043E-05	3.60353E-05	15.7624	3.887328E-05	-5.684342E-11	-0.001270324	-0.00314787	-5.684346E-11	-0.001273221	-0.003146699	-5.648798E-11	9.808723	-0.01217612	49.99986	0.5	-1	0	-5.209472E-13	-1	-1.196365	18.65588	-12.62381	0.5767615	-64.98754	2.548919	5.209472E-13	-1	-0.04973659
0.6	-0.0006292777	127.0736	11.39131	-1.899025E-06	0.0005300129	0.03585466	1.017773E-12	0.1958618	1.875221E-14	10.17551	0	9.328605E-12	0.03148414	2.587054E-13	-0.03148414	2.587054E-13	-9.328605E-12	6.78148E-16	50.00053	-0.0003425479	0	-1.768023E-05	-4.335633E-05	3.256178E-19	-1.753191E-05	-4.341651E-05	15.74402	4.682266E-05	1.421085E-11	0.0009573995	0.002358341	1.421084E-11	0.0009493321	0.002361601	1.403658E-11	9.810892	0.03589665	50.00053	0.6	-1	0	4.968019E-14	-1	-1.192789	18.77576	-12.76972	0.5804556	-65.74007	2.530524	-4.968019E-14	-1	0.1922607
0.7	-0.002687523	123.601	11.27313	7.275957E-09	0.0009414955	0.03604029	7.835268E-13	0.02175903	3.435533E-14	10.04075	0	-9.450612E-13	-0.02986935	5.689324E-14	0.02986935	5.689324E-14	9.450612E-13	1.979123E-15	50.00006	-3.793836E-05	0	1.664832E-05	4.113326E-05	-2.521184E-19	1.663271E-05	4.113957E-05	15.75894	4.437467E-05	0	-0.0007078051	-0.001744367	1.071621E-17	-0.000707143	-0.001744636	-1.341422E-13	9.809293	0.001978287	50.00006	0.7	-1	0	7.744858E-13	-1	-1.195854	18.67033	-12.64858	0.5774483	-65.08797	2.545879	-7.744858E-13	-1	0.025177
0.8	-0.0004920886	126.134	11.37009	-7.275957E-09	0.0007454084	0.03586713	7.431446E-13	0.1530151	-2.955463E-14	10.1344	0	-2.147881E-12	0.0298701	-5.745602E-13	-0.0298701	-5.745602E-13	2.147881E-12	6.85756E-16	50.00041	-0.0002674907	0	-1.674145E-05	-4.113419E-05	1.944983E-19	-1.663153E-05	-4.117876E-05	15.74645	4.441056E-05	0	0.0005029141	0.001237495	-5.841735E-18	0.0004996072	0.001238834	-1.272443E-13	9.810465	0.02743931	50.00041	0.8	-1	0	-9.886339E-13	-1	-1.192536	18.76739	-12.75319	0.5801461	-65.66066	2.531897	9.886339E-13	-1	0.1495972
0.9	-0.002805579	124.4429	11.29617	0	0.0007118917	0.03602958	1.379964E-12	0.06628418	-4.698553E-14	10.08343	0	8.583242E-12	-0.02786479	1.242872E-13	0.02786479	1.242872E-13	-8.583242E-12	-1.503146E-15	50.00018	-0.0001157075	1.136868E-13	1.556799E-05	3.837282E-05	1.136865E-13	1.552359E-05	3.83908E-05	15.75645	4.141057E-05	1.705302E-10	-0.0003278255	-0.0008093193	1.705303E-10	-0.0003268891	-0.000809698	1.70294E-10	9.809667	0.01053858	50.00018	0.9	-1	0	-3.967872E-13	-1	-1.196558	18.67748	-12.66191	0.5775906	-65.16545	2.545287	3.967872E-13	-1	0.06948853
1	-0.0003672088	125.4684	11.3539	0	0.0009803019	0.03587719	1.252557E-12	0.1187134	-6.981939E-15	10.10326	0	8.118165E-12	0.02542578	-9.742164E-14	-0.02542578	-9.742164E-14	-8.118165E-12	1.938251E-15	50.00032	-0.0002074093	0	-1.423433E-05	-3.501447E-05	3.053268E-19	-1.416175E-05	-3.504389E-05	15.74867	3.779721E-05	0	0.0001899898	0.000472879	-4.074361E-18	0.0001890096	0.0004732716	-2.144625E-13	9.810168	0.02080008	50.00032	1	-1	0	-3.206793E-13	-1	-1.191969	18.75857	-12.73826	0.5799419	-65.57608	2.532777	3.206793E-13	-1	0.1158142
1.1	-0.002925503	124.9381	11.3131	0	0.00047055	0.03599991	1.113296E-12	0.09057617	-1.910163E-14	10.1042	0	1.855241E-12	-0.02262769	-4.513752E-13	0.02262769	-4.513752E-13	-1.855241E-12	1.588718E-15	50.00024	-0.0001582056	2.273737E-13	1.265109E-05	3.116066E-05	2.273734E-13	1.260181E-05	3.118062E-05	15.75468	3.363088E-05	1.136868E-10	-9.685754E-05	-0.0002302695	1.136868E-10	-9.649337E-05	-0.0002304223	1.134962E-10	9.809892	0.01527873	50.00024	1.1	-1	0	-6.457504E-14	-1	-1.196359	18.69247	-12.68556	0.5781789	-65.27311	2.542701	6.457504E-14	-1	0.09317017
1.2	-0.0002604474	125.0741	11.34034	-1.855369E-06	0.001213235	0.03592186	1.05914E-12	0.0947876	4.594655E-14	10.08405	0	8.13506E-14	0.01797518	2.271763E-13	-0.01797518	2.271763E-13	-8.13506E-14	1.969313E-15	50.00026	-0.000165537	-7.105427E-15	-1.005456E-05	-2.475409E-05	-7.105222E-15	-1.00136E-05	-2.477069E-05	15.7506	2.671814E-05	-1.065814E-11	1.67638E-05	4.400499E-05	-1.065814E-11	1.669099E-05	4.403266E-05	-1.083948E-11	9.810004	0.01627181	50.00026	1.2	-1	0	-1.048554E-12	-1	-1.192639	18.74121	-12.71185	0.5791779	-65.46584	2.536119	1.048554E-12	-1	0.0927124
1.3	-0.003015404	125.1451	11.3237	-7.275957E-09	0.0002167924	0.03595581	-3.72538E-13	0.1025696	4.37308E-14	10.11032	0	-9.458444E-13	-0.01303306	4.5297E-13	0.01303306	4.5297E-13	9.458444E-13	-9.595856E-16	50.00028	-0.0001792014	0	7.286668E-06	1.794798E-05	3.347028E-20	7.254524E-06	1.7961E-05	15.75315	1.937074E-05	0	5.587935E-06	1.559965E-05	2.424481E-20	5.559998E-06	1.560963E-05	6.378468E-14	9.80999	0.0175786	50.00028	1.3	-1	0	2.642457E-13	-1	-1.195841	18.70951	-12.71071	0.5788876	-65.382	2.539635	-2.642457E-13	-1	0.1040649
1.4	-0.0001701066	125.0082	11.33469	7.275957E-09	0.001460603	0.03593859	1.140244E-12	0.09417725	-4.486954E-14	10.08833	0	5.302129E-12	0.009905471	-9.095867E-14	-0.009905471	-9.095867E-14	-5.302129E-12	2.384748E-15	50.00026	-0.0001644343	7.105427E-15	-5.535781E-06	-1.364062E-05	7.105526E-15	-5.513354E-06	-1.36497E-05	15.75141	1.472112E-05	7.105427E-12	-2.980232E-05	-7.031485E-05	7.105427E-12	-2.968671E-05	-7.036373E-05	6.910199E-12	9.809958	0.01605333	50.00026	1.4	-1	0	2.990474E-13	-1	-1.192269	18.73034	-12.6954	0.5788897	-65.37569	2.537369	-2.990474E-13	-1	0.0930481
1.5	-0.003101183	125.2195	11.32624	1.862645E-06	-3.310631E-05	0.03595004	-4.023954E-14	0.1052856	2.235637E-14	10.10979	0	-1.315341E-12	-0.007681621	4.523254E-13	0.007681621	4.523254E-13	1.315341E-12	-1.116973E-15	50.00028	-0.0001839399	1.136868E-13	4.291534E-06	1.057843E-05	1.136868E-13	4.272086E-06	1.05863E-05	15.7525	1.14158E-05	5.684342E-11	4.470348E-05	0.0001166481	5.684342E-11	4.448902E-05	0.0001167301	5.685031E-11	9.810028	0.01814574	50.00028	1.5	-1	0	-1.144635E-13	-1	-1.196697	18.71974	-12.72559	0.5790168	-65.47971	2.539058	1.144635E-13	-1	0.1061707
1.6	-8.720716E-05	124.9111	11.33084	-7.275957E-09	0.00170294	0.03595106	8.811368E-14	0.08990479	-2.472388E-14	10.08664	0	4.920254E-13	0.005739032	1.497421E-14	-0.005739032	1.497421E-14	-4.920254E-13	-2.201398E-16	50.00024	-0.0001570433	-3.552714E-15	-3.20375E-06	-7.903203E-06	-3.552712E-15	-3.191343E-06	-7.908221E-06	15.75203	8.527874E-06	-3.552713E-12	-7.636844E-05	-0.0001923181	-3.552713E-12	-7.606654E-05	-0.0001924377	-3.5678E-12	9.809913	0.01520299	50.00024	1.6	-1	0	-8.66409E-13	-1	-1.191625	18.71691	-12.67574	0.5786198	-65.25808	2.53865	8.66409E-13	-1	0.08926392
1.7	-0.003169721	125.3014	11.33072	0	-0.0002735241	0.03591746	3.827394E-13	0.1099243	1.390941E-14	10.11222	0	9.690912E-12	-0.004111805	4.733679E-13	0.004111805	4.733679E-13	-9.690912E-12	-3.858177E-15	50.0003	-0.0001920313	0	2.302229E-06	5.662907E-06	-1.668119E-20	2.291361E-06	5.667313E-06	15.75192	6.113E-06	5.684342E-11	8.381902E-05	0.00021304	5.684342E-11	8.341014E-05	0.0002132004	5.677788E-11	9.810066	0.01903392	50.0003	1.7	-1	0	7.28676E-13	-1	-1.196476	18.73596	-12.74923	0.5796049	-65.59158	2.536469	-7.28676E-13	-1	0.1103821
1.8	-2.278231E-05	124.8989	11.32791	-1.855369E-06	0.001931841	0.03599132	-5.782134E-13	0.08737183	3.098851E-14	10.08646	0	-1.018674E-12	0.001785911	5.384776E-13	-0.001785911	5.384776E-13	1.018674E-12	-2.514825E-15	50.00024	-0.000152573	-5.329071E-15	-9.983778E-07	-2.459157E-06	-5.329079E-15	-9.946262E-07	-2.460677E-06	15.75253	2.654094E-06	-1.776357E-12	-8.195638E-05	-0.0002009328	-1.776357E-12	-8.164984E-05	-0.0002010576	-1.677358E-12	9.809907	0.01475992	50.00024	1.8	-1	0	-3.715777E-13	-1	-1.192306	18.70354	-12.65627	0.5779904	-65.1822	2.541327	3.715777E-13	-1	0.08718872
1.9	-0.003223408	125.2203	11.33074	-7.275957E-09	-0.0005121204	0.03589369	-2.990405E-13	0.105072	2.804124E-14	10.10535	0	-4.235245E-12	-0.00065098	2.196049E-13	0.00065098	2.196049E-13	4.235245E-12	-4.354424E-15	50.00028	-0.000183478	0	3.613532E-07	8.96398E-07	1.4387E-21	3.597089E-07	8.970591E-07	15.75184	9.664913E-07	5.684342E-11	5.401671E-05	0.0001378357	5.684342E-11	5.376388E-05	0.0001379345	5.689462E-11	9.810038	0.01812543	50.00028	1.9	-1	0	-1.862367E-13	-1	-1.196353	18.74449	-12.76163	0.5799496	-65.6462	2.535106	1.862367E-13	-1	0.1051331
2	2.780321E-05	125.026	11.33091	0	0.002160191	0.03599932	2.767116E-14	0.09570313	-3.653022E-14	10.0957	0	2.242519E-12	0.0001071417	-4.51002E-13	-0.0001071417	-4.51002E-13	-2.242519E-12	1.042049E-15	50.00026	-0.0001671016	-5.329071E-15	-5.587935E-08	-1.47149E-07	-5.329071E-15	-5.563347E-08	-1.472421E-07	15.75226	1.574018E-07	5.939693E-12	-2.607703E-05	-7.636844E-05	5.939693E-12	-2.594942E-05	-7.64119E-05	5.934955E-12	9.809961	0.0163107	50.00026	2	-1	0	1.062167E-12	-1	-1.191819	18.69412	-12.64271	0.5778019	-65.1008	2.54217	-1.062167E-12	-1	0.09570313
2.1	-0.003268122	125.1537	11.32853	-7.275957E-09	-0.000734268	0.03587802	2.519369E-13	0.1012878	-2.999654E-14	10.10131	0	3.680606E-12	-0.000105073	6.507316E-15	0.000105073	6.507316E-15	-3.680606E-12	-7.185537E-16	50.00027	-0.0001769066	0	5.960464E-08	1.44355E-07	-1.853914E-22	5.934935E-08	1.444601E-07	15.75199	1.561764E-07	0	2.793968E-05	6.402842E-05	-8.88351E-20	2.782644E-05	6.407771E-05	-4.313586E-14	9.810013	0.01740691	50.00027	2.1	-1	0	-6.574201E-13	-1	-1.196921	18.76057	-12.78417	0.5802852	-65.78051	2.533471	6.574201E-13	-1	0.1013184
2.2	6.354765E-05	125.0313	11.32983	-7.275957E-09	0.002368854	0.03603334	2.254769E-13	0.09429932	-1.623816E-14	10.09471	0	2.955667E-12	-0.0006046041	1.185545E-13	0.0006046041	1.185545E-13	-2.955667E-12	-1.333622E-15	50.00026	-0.0001647025	-8.881784E-15	3.352761E-07	8.326024E-07	-8.881785E-15	3.339052E-07	8.331531E-07	15.75239	8.975727E-07	3.552713E-12	-2.607703E-05	-5.820766E-05	3.552713E-12	-2.598118E-05	-5.82505E-05	3.514108E-12	9.809961	0.01608927	50.00026	2.2	-1	0	1.124257E-13	-1	-1.192212	18.6792	-12.6215	0.5772325	-65.00378	2.544725	-1.124257E-13	-1	0.09439087
2.3	-0.003294068	125.1928	11.33104	7.275957E-09	-0.0009383784	0.03584431	-5.703566E-13	0.1045227	-1.015245E-13	10.10348	0	-2.059329E-12	0.001619008	-6.858625E-13	-0.001619008	-6.858625E-13	2.059329E-12	-5.165514E-15	50.00028	-0.000182569	0	-9.052455E-07	-2.229586E-06	-1.292154E-20	-9.01177E-07	-2.231234E-06	15.75166	2.406351E-06	0	4.284083E-05	0.0001019798	6.053127E-19	4.265474E-05	0.0001020578	9.765507E-14	9.810027	0.01799658	50.00028	2.3	-1	0	3.391168E-13	-1	-1.196594	18.77641	-12.80684	0.5808669	-65.88672	2.530882	-3.391168E-13	-1	0.1043396
2.4	8.302632E-05	125.0208	11.32923	-7.275957E-09	0.002564712	0.03604651	3.290984E-13	0.09436035	3.475925E-15	10.09584	0	1.748307E-12	-0.002375859	-2.244808E-13	0.002375859	-2.244808E-13	-1.748307E-12	3.820706E-17	50.00026	-0.0001648515	-3.552714E-15	1.326203E-06	3.271736E-06	-3.552721E-15	1.320813E-06	3.273916E-06	15.75256	3.530308E-06	7.993605E-12	-3.539025E-05	-7.98609E-05	7.993605E-12	-3.525867E-05	-7.991908E-05	7.937258E-12	9.809952	0.01607769	50.00026	2.4	-1	0	-1.255425E-13	-1	-1.192008	18.66947	-12.60803	0.5769789	-64.92911	2.545866	1.255425E-13	-1	0.09463501
2.5	-0.003306955	125.133	11.3289	-1.877197E-06	-0.001132286	0.03583977	8.662474E-14	0.09936523	3.890216E-14	10.09814	0	-1.946883E-12	0.002002714	-3.379369E-15	-0.002002714	-3.379369E-15	1.946883E-12	-1.441867E-15	50.00027	-0.0001735389	0	-1.121312E-06	-2.758577E-06	3.561056E-21	-1.116527E-06	-2.760518E-06	15.75188	2.977766E-06	5.684342E-11	2.421439E-05	5.308538E-05	5.684342E-11	2.412229E-05	5.31273E-05	5.682858E-11	9.810009	0.01706589	50.00027	2.5	-1	0	-3.097218E-13	-1	-1.197173	18.78439	-12.81791	0.5809703	-65.95997	2.530402	3.097218E-13	-1	0.09912109
2.6	8.699117E-05	125.0944	11.33263	-7.275957E-09	0.002747499	0.03605076	-3.949382E-13	0.09970093	9.56259E-15	10.10007	0	-2.68565E-12	-0.0005985882	-1.183648E-13	0.0005985882	-1.183648E-13	2.68565E-12	-8.697235E-16	50.00027	-0.0001741648	-3.552714E-15	3.278255E-07	8.246861E-07	-3.552712E-15	3.263899E-07	8.252554E-07	15.75212	8.874553E-07	-1.24345E-11	-3.72529E-06	-6.286427E-06	-1.24345E-11	-3.714345E-06	-6.2929E-06	-1.236688E-11	9.809981	0.01706538	50.00027	2.6	-1	0	-7.43346E-13	-1	-1.191493	18.66279	-12.59875	0.5769001	-64.86696	2.546253	7.43346E-13	-1	0.09976196
2.7	-0.003302562	125.1018	11.32733	-1.455191E-08	-0.001302117	0.03581572	1.059188E-12	0.09875488	-5.306835E-14	10.09872	0	7.859767E-12	4.663874E-05	-6.68577E-13	-4.663874E-05	-6.68577E-13	-7.859767E-12	1.57417E-15	50.00027	-0.0001724809	0	-2.607703E-08	-6.37956E-08	4.209466E-22	-2.596705E-08	-6.384045E-08	15.75211	6.891944E-08	0	3.72529E-06	6.519258E-06	-6.262086E-20	3.714049E-06	6.525668E-06	-1.813507E-13	9.80999	0.0169136	50.00027	2.7	-1	0	-1.635428E-13	-1	-1.197019	18.79704	-12.83546	0.5813928	-66.04674	2.528508	1.635428E-13	-1	0.09875488
2.8	7.299257E-05	125.0745	11.33113	0	0.002907024	0.03608528	1.063574E-13	0.09658813	2.471061E-16	10.0969	0	-1.370771E-12	-0.0005330589	-3.433706E-13	0.0005330589	-3.433706E-13	1.370771E-12	-2.187344E-15	50.00026	-0.0001686662	1.065814E-14	2.942979E-07	7.343479E-07	1.065814E-14	2.930597E-07	7.348429E-07	15.75227	7.911245E-07	1.776357E-12	-5.587935E-06	-1.164153E-05	1.776357E-12	-5.568304E-06	-1.165093E-05	1.758147E-12	9.80998	0.01652412	50.00026	2.8	-1	0	-1.094825E-12	-1	-1.192076	18.64863	-12.57936	0.5763307	-64.78193	2.548838	1.094825E-12	-1	0.09664917
2.9	-0.003282325	125.1154	11.32935	0	-0.001452706	0.03578314	2.202724E-13	0.1008301	-1.989169E-14	10.09963	0	5.727765E-12	0.002023571	-4.446748E-13	-0.002023571	-4.446748E-13	-5.727765E-12	-4.336701E-15	50.00027	-0.0001761615	1.136868E-13	-1.132488E-06	-2.786517E-06	1.136868E-13	-1.127582E-06	-2.788506E-06	15.75182	3.007858E-06	5.684342E-11	5.587935E-06	1.513399E-05	5.684342E-11	5.56129E-06	1.51438E-05	5.68057E-11	9.809991	0.01728109	50.00027	2.9	-1	0	-3.994014E-13	-1	-1.196503	18.81156	-12.85536	0.5819527	-66.13656	2.526005	3.994014E-13	-1	0.1006165
3	4.661268E-05	125.0911	11.33112	-1.455191E-08	0.003053939	0.03609617	-1.04958E-13	0.09832764	3.652656E-14	10.09978	0	6.750144E-12	-0.002406468	1.158139E-14	0.002406468	1.158139E-14	-6.750144E-12	-4.557644E-15	50.00027	-0.0001717359	1.598721E-14	1.348555E-06	3.314111E-06	1.598721E-14	1.342865E-06	3.316421E-06	15.75236	3.577979E-06	8.881783E-12	-1.862645E-06	-5.587935E-06	8.881783E-12	-1.853051E-06	-5.591124E-06	8.899754E-12	9.809984	0.01683205	50.00027	3	-1	0	4.877658E-14	-1	-1.191906	18.64087	-12.5694	0.5761511	-64.72387	2.549666	-4.877658E-14	-1	0.09863281
3.1	-0.003252997	125.0828	11.3273	1.455191E-08	-0.001586082	0.03578573	6.329052E-13	0.09692383	-5.424005E-14	10.09593	0	-1.818988E-12	0.00166432	-3.095135E-15	-0.00166432	-3.095135E-15	1.818988E-12	1.235756E-15	50.00026	-0.0001692623	1.136868E-13	-9.350479E-07	-2.291519E-06	1.136869E-13	-9.311705E-07	-2.293098E-06	15.75204	2.474949E-06	5.684342E-11	-5.587935E-06	-2.793967E-06	5.684342E-11	-5.583201E-06	-2.803415E-06	5.673505E-11	9.80998	0.01659042	50.00026	3.1	-1	0	-8.413466E-13	-1	-1.197166	18.81634	-12.86167	0.5819174	-66.18983	2.526085	8.413466E-13	-1	0.09671021
3.2	2.472262E-06	125.0825	11.33274	-7.275957E-09	0.003176423	0.03609426	2.826687E-14	0.09924316	1.862749E-14	10.09929	0	2.045966E-12	-5.304714E-05	2.30918E-13	5.304714E-05	2.30918E-13	-2.045966E-12	-2.435131E-15	50.00027	-0.0001733154	-7.438494E-15	2.980232E-08	7.264316E-08	-7.438494E-15	2.967645E-08	7.269468E-08	15.7521	7.851883E-08	-1.348921E-11	-9.313225E-06	-2.142042E-05	-1.348921E-11	-9.276107E-06	-2.143652E-05	-1.349405E-11	9.809977	0.01697115	50.00027	3.2	-1	0	2.054152E-13	-1	-1.191359	18.63625	-12.56341	0.5761625	-64.67571	2.549688	-2.054152E-13	-1	0.09924316
3.3	-0.003204766	125.1249	11.32791	0	-0.001690824	0.03576451	-8.813473E-13	0.1002808	-3.792127E-14	10.10049	0	-5.441157E-12	-0.0003800022	-9.190254E-13	0.0003800022	-9.190254E-13	5.441157E-12	-3.603556E-15	50.00027	-0.0001751631	-1.136868E-13	2.086163E-07	5.229376E-07	-1.136868E-13	2.077007E-07	5.233019E-07	15.75207	5.630138E-07	-5.684342E-11	9.313225E-06	3.073364E-05	-5.684342E-11	9.259419E-06	3.07499E-05	-5.669252E-11	9.809995	0.0172008	50.00027	3.3	-1	0	1.094674E-12	-1	-1.196891	18.82687	-12.87589	0.5822833	-66.25842	2.5244	-1.094674E-12	-1	0.1003418
3.4	-5.658584E-05	125.0567	11.33092	-7.275957E-09	0.003273719	0.03612829	-1.367399E-13	0.09573364	-7.297711E-15	10.09591	0	1.059087E-12	-0.0002726771	-2.256051E-13	0.0002726771	-2.256051E-13	-1.059087E-12	-3.127283E-15	50.00026	-0.0001671463	-1.065814E-14	1.490116E-07	3.75323E-07	-1.065814E-14	1.483843E-07	3.755714E-07	15.75229	4.038215E-07	-1.998401E-12	-1.67638E-05	-3.445893E-05	-1.998401E-12	-1.670621E-05	-3.448689E-05	-1.974989E-12	9.80997	0.01635584	50.00026	3.4	-1	0	-5.716343E-13	-1	-1.192128	18.62372	-12.54664	0.5756083	-64.60809	2.552215	5.716343E-13	-1	0.09576416
3.5	-0.003138373	125.0891	11.32872	-7.275957E-09	-0.001774191	0.03573803	3.907991E-13	0.09951782	-3.568903E-14	10.09872	0	6.608827E-12	0.001376589	-4.432771E-13	-0.001376589	-4.432771E-13	-6.608827E-12	-2.356524E-16	50.00027	-0.0001738369	0	-7.674098E-07	-1.895707E-06	4.031008E-21	-7.641156E-07	-1.897037E-06	15.75195	2.045146E-06	0	-3.72529E-06	-1.210719E-05	1.772425E-20	-3.704253E-06	-1.211365E-05	-6.691126E-14	9.809982	0.01702901	50.00027	3.5	-1	0	3.631717E-13	-1	-1.196258	18.83738	-12.88983	0.5827392	-66.31526	2.522368	-3.631717E-13	-1	0.09936523
3.6	-0.0001311809	125.1199	11.33219	0	0.003354002	0.03613285	7.655311E-13	0.1001282	3.842286E-15	10.10109	0	6.01789E-12	-0.001616893	2.379139E-13	0.001616893	2.379139E-13	-6.01789E-12	-8.514304E-16	50.00027	-0.0001749247	1.776357E-14	9.015203E-07	2.226327E-06	1.776356E-14	8.976276E-07	2.227899E-06	15.75219	2.40193E-06	3.552713E-12	9.313225E-06	2.351589E-05	3.552713E-12	9.272108E-06	2.353213E-05	3.421642E-12	9.809995	0.01716976	50.00027	3.6	-1	0	-7.588389E-14	-1	-1.191893	18.61846	-12.54025	0.5755327	-64.56541	2.552613	7.588389E-14	-1	0.1003418
3.7	-0.003067179	125.0671	11.32684	-7.275957E-09	-0.001838014	0.03574674	1.85079E-12	0.09640503	-1.608954E-13	10.09593	0	5.600597E-12	0.0008381212	-9.000991E-13	-0.0008381212	-9.000991E-13	-5.600597E-12	-1.076844E-15	50.00026	-0.0001683533	0	-4.693866E-07	-1.153909E-06	1.185921E-20	-4.674442E-07	-1.154697E-06	15.75215	1.245724E-06	-5.684342E-11	-9.313225E-06	-2.235174E-05	-5.684342E-11	-9.275601E-06	-2.236738E-05	-5.71603E-11	9.809977	0.01648476	50.00026	3.7	-1	0	-3.803024E-13	-1	-1.196968	18.83994	-12.89214	0.5825902	-66.35311	2.52289	3.803024E-13	-1	0.09631348
3.8	-0.0002199952	125.0634	11.33211	0	0.003404033	0.03613264	7.912821E-13	0.09783936	3.438227E-14	10.09798	0	4.995108E-12	-0.0001875591	8.532314E-15	0.0001875591	8.532314E-15	-4.995108E-12	1.68393E-15	50.00026	-0.0001709014	2.131628E-14	1.005828E-07	2.58442E-07	2.131628E-14	1.001414E-07	2.586134E-07	15.75218	2.773251E-07	7.105427E-12	-2.048909E-05	-3.981404E-05	7.105427E-12	-2.042108E-05	-3.984896E-05	6.969947E-12	9.809966	0.01671183	50.00026	3.8	-1	0	6.140671E-13	-1	-1.191403	18.61258	-12.53299	0.5755215	-64.50893	2.552828	-6.140671E-13	-1	0.09786987
3.9	-0.002977785	125.1532	11.32926	-7.275957E-09	-0.001869921	0.03572992	1.327778E-13	0.1021118	-1.637588E-13	10.10205	0	-2.10731E-13	4.949456E-05	-1.36462E-12	-4.949456E-05	-1.36462E-12	2.10731E-13	-9.777651E-16	50.00027	-0.0001783967	0	-3.352761E-08	-6.798655E-08	-1.168982E-22	-3.340638E-08	-6.80462E-08	15.75193	7.580417E-08	0	2.421439E-05	6.263144E-05	1.23153E-19	2.410271E-05	6.267449E-05	-2.273363E-14	9.810009	0.01754789	50.00027	3.9	-1	0	-9.844552E-13	-1	-1.196559	18.84781	-12.90226	0.582891	-66.39865	2.52147	9.844552E-13	-1	0.1021118
4	-0.0003227146	125.0379	11.33008	-1.455191E-08	0.003432292	0.03616092	9.377152E-13	0.0949707	-3.05773E-15	10.09545	0	1.16671E-11	-0.0007357728	1.93515E-14	0.0007357728	1.93515E-14	-1.16671E-11	-2.202637E-15	50.00026	-0.0001658946	2.842171E-14	4.135072E-07	1.013279E-06	2.84217E-14	4.11827E-07	1.013963E-06	15.75237	1.094405E-06	1.421085E-11	-2.421439E-05	-6.030313E-05	1.421085E-11	-2.411439E-05	-6.034319E-05	1.40503E-11	9.809963	0.01620076	50.00026	4	-1	0	3.992396E-13	-1	-1.192293	18.6056	-12.52436	0.5751085	-64.48664	2.554661	-3.992396E-13	-1	0.09506226
4.1	-0.002873836	125.101	11.3287	0	-0.001881602	0.03572178	6.992736E-13	0.09921265	-8.927359E-14	10.09877	0	8.527287E-12	0.0007134252	-4.399925E-13	-0.0007134252	-4.399925E-13	-8.527287E-12	2.01488E-15	50.00027	-0.0001732856	0	-4.023314E-07	-9.825453E-07	3.358613E-21	-4.006296E-07	-9.832404E-07	15.75202	1.061728E-06	5.684342E-11	1.862645E-06	1.117587E-05	5.684342E-11	1.843292E-06	1.117908E-05	5.672369E-11	9.809988	0.01699631	50.00027	4.1	-1	0	1.111559E-12	-1	-1.196151	18.84755	-12.90057	0.5829633	-66.38082	2.521204	-1.111559E-12	-1	0.09912109
4.2	-0.0004379246	125.1233	11.33262	1.877197E-06	0.003442144	0.03615773	6.542619E-14	0.1006775	8.250461E-16	10.10099	0	-2.941243E-12	-0.000528733	-2.325423E-13	0.000528733	-2.325423E-13	2.941243E-12	-2.713197E-15	50.00027	-0.0001758486	-2.842171E-14	3.017485E-07	7.278286E-07	-2.842171E-14	3.00469E-07	7.283577E-07	15.75206	7.879001E-07	-1.421085E-11	1.490116E-05	2.374872E-05	-1.421085E-11	1.48594E-05	2.377487E-05	-1.422206E-11	9.81	0.01726356	50.00027	4.2	-1	0	-4.017004E-13	-1	-1.192043	18.60382	-12.52345	0.5751629	-64.46962	2.554487	4.017004E-13	-1	0.1007385
4.3	-0.002765127	125.0745	11.32696	0	-0.001870328	0.03572713	3.093888E-13	0.09707642	-1.750336E-14	10.0972	0	1.421089E-14	-0.0001796229	2.504863E-17	0.0001796229	2.504863E-17	-1.421089E-14	1.039298E-15	50.00026	-0.0001695752	-2.273737E-13	1.005828E-07	2.472661E-07	-2.273737E-13	1.001637E-07	2.474362E-07	15.75221	2.669409E-07	-1.705302E-10	-5.587935E-06	-1.67638E-05	-1.705302E-10	-5.559523E-06	-1.677325E-05	-1.705832E-10	9.80998	0.0166051	50.00026	4.3	-1	0	5.260043E-13	-1	-1.196577	18.85319	-12.90665	0.5829372	-66.43494	2.52106	-5.260043E-13	-1	0.09710693
4.4	-0.0005657023	125.0894	11.33111	7.275957E-09	0.003419773	0.03617823	1.642794E-12	0.09710693	6.109092E-14	10.09715	0	1.111959E-11	-5.500001E-05	2.462242E-13	5.500001E-05	2.462242E-13	-1.111959E-11	-4.58641E-16	50.00026	-0.000169605	1.421085E-14	3.352761E-08	7.543713E-08	1.421085E-14	3.339969E-08	7.549385E-08	15.7522	8.255217E-08	0	5.587935E-06	1.396984E-06	-1.616396E-19	5.585559E-06	1.406454E-06	-2.812738E-13	9.809992	0.01663015	50.00026	4.4	-1	0	4.62787E-13	-1	-1.192653	18.59705	-12.51559	0.57486	-64.43969	2.555941	-4.62787E-13	-1	0.09713745
4.5	-0.002639827	125.1538	11.33025	-7.275957E-09	-0.001827806	0.03571347	3.786585E-13	0.1025696	-8.024955E-14	10.10206	0	-5.521644E-14	0.0007544592	-9.096E-13	-0.0007544592	-9.096E-13	5.521644E-14	-1.722471E-16	50.00028	-0.0001791269	0	-4.246831E-07	-1.039356E-06	1.33862E-21	-4.22822E-07	-1.040115E-06	15.75184	1.122772E-06	0	2.607703E-05	6.332993E-05	-8.288832E-20	2.596363E-05	6.33765E-05	-6.483268E-14	9.81001	0.01762271	50.00028	4.5	-1	0	-3.786587E-13	-1	-1.196031	18.85802	-12.91204	0.5831616	-66.45414	2.519958	3.786587E-13	-1	0.102478
4.6	-0.0007007658	125.0456	11.32942	1.855369E-06	0.00337631	0.03617736	9.583103E-13	0.09558105	-4.593839E-14	10.09641	0	9.11701E-12	-0.001339663	-4.395178E-13	0.001339663	-4.395178E-13	-9.11701E-12	2.593131E-16	50.00026	-0.0001669228	2.842171E-14	7.487833E-07	1.84495E-06	2.84217E-14	7.457048E-07	1.846196E-06	15.7524	1.991109E-06	1.421085E-11	-2.421439E-05	-5.70435E-05	1.421085E-11	-2.41192E-05	-5.708382E-05	1.404678E-11	9.809963	0.01630664	50.00026	4.6	-1	0	8.71523E-14	-1	-1.192671	18.59592	-12.51595	0.5748826	-64.43509	2.555924	-8.71523E-14	-1	0.09573364
4.7	-0.002506602	125.121	11.32874	-7.275957E-09	-0.001768165	0.03572893	2.90188E-13	0.09890747	3.723101E-14	10.09834	0	5.770384E-12	0.0009046061	-4.447909E-13	-0.0009046061	-4.447909E-13	-5.770384E-12	-5.522641E-16	50.00027	-0.0001727045	-1.136868E-13	-5.066395E-07	-1.245644E-06	-1.136868E-13	-5.044883E-07	-1.246517E-06	15.75201	1.344735E-06	-5.684342E-11	1.67638E-05	4.447065E-05	-5.684342E-11	1.668701E-05	4.449952E-05	-5.68931E-11	9.810003	0.01697993	50.00027	4.7	-1	0	-4.628033E-13	-1	-1.196382	18.85447	-12.90509	0.5828964	-66.43608	2.521007	4.628033E-13	-1	0.09881592
4.8	-0.0008445809	125.1008	11.33237	0	0.00331016	0.03616468	-6.399221E-13	0.09988403	3.398944E-14	10.09963	0	-5.464065E-12	0.0004292762	-9.520243E-15	-0.0004292762	-9.520243E-15	5.464065E-12	-4.600741E-15	50.00027	-0.0001744777	-2.842171E-14	-2.421439E-07	-5.909242E-07	-2.842171E-14	-2.411134E-07	-5.913454E-07	15.75202	6.386118E-07	-1.421085E-11	0	-4.423782E-06	-1.421085E-11	7.711589E-09	-4.423775E-06	-1.410129E-11	9.809985	0.01709649	50.00027	4.8	-1	0	-8.191659E-13	-1	-1.19239	18.59835	-12.52124	0.5750928	-64.44717	2.555083	8.191659E-13	-1	0.099823
4.9	-0.002366269	125.1026	11.32789	7.275957E-09	-0.001682351	0.0357256	4.036327E-13	0.09887695	-2.363855E-14	10.09946	0	5.130111E-12	-0.000984134	8.86053E-15	0.000984134	8.86053E-15	-5.130111E-12	-2.676517E-15	50.00027	-0.0001727045	0	5.476177E-07	1.35554E-06	-3.282071E-21	5.452774E-07	1.356483E-06	15.7522	1.461976E-06	0	1.862645E-06	1.280568E-05	-7.682856E-21	1.840542E-06	1.280888E-05	-6.910861E-14	9.809988	0.01694298	50.00027	4.9	-1	0	-6.462712E-13	-1	-1.196021	18.85506	-12.90395	0.5829322	-66.42824	2.520738	6.462712E-13	-1	0.09899902
5	-0.0009966004	125.0669	11.3303	0	0.003216792	0.03618251	-1.444913E-13	0.09603882	2.426624E-14	10.09577	0	2.84598E-13	0.0004672454	-2.268958E-13	-0.0004672454	-2.268958E-13	-2.84598E-13	-3.251469E-15	50.00026	-0.0001676977	2.842171E-14	-2.607703E-07	-6.435439E-07	2.842171E-14	-2.596913E-07	-6.439801E-07	15.7522	6.943702E-07	2.842171E-11	-7.45058E-06	-2.561137E-05	2.842171E-11	-7.407643E-06	-2.562382E-05	2.844645E-11	9.809979	0.0164166	50.00026	5	-1	0	1.011639E-12	-1	-1.193183	18.59403	-12.51736	0.5748405	-64.4405	2.556329	-1.011639E-12	-1	0.09597778
5.1	-0.002214714	125.13	11.33046	0	-0.001569568	0.03571493	7.709227E-13	0.1017151	6.210418E-14	10.10105	0	9.634138E-12	0.001073427	4.718365E-13	-0.001073427	4.718365E-13	-9.634138E-12	-1.801984E-15	50.00027	-0.0001776963	0	-6.03497E-07	-1.478475E-06	9.687361E-21	-6.008714E-07	-1.479544E-06	15.75186	1.596902E-06	2.842171E-11	1.303852E-05	3.72529E-05	2.842171E-11	1.297236E-05	3.727599E-05	2.828971E-11	9.809999	0.01745233	50.00027	5.1	-1	0	-5.006005E-13	-1	-1.195324	18.85679	-12.90448	0.5830848	-66.4197	2.519951	5.006005E-13	-1	0.101593
5.2	-0.001152135	125.074	11.32956	1.869921E-06	0.003106492	0.03617554	-3.974813E-13	0.09732056	-1.219245E-14	10.09825	0	-9.783773E-12	-0.001516653	-2.440035E-13	0.001516653	-2.440035E-13	9.783773E-12	-4.954327E-15	50.00026	-0.0001700222	0	8.456409E-07	2.088957E-06	6.286415E-21	8.420913E-07	2.09039E-06	15.75233	2.25363E-06	0	-1.303852E-05	-2.956949E-05	-9.63966E-20	-1.298827E-05	-2.959159E-05	6.805528E-14	9.809973	0.01663394	50.00026	5.2	-1	0	9.438251E-13	-1	-1.19322	18.59631	-12.52311	0.574985	-64.46183	2.555781	-9.438251E-13	-1	0.09750366
5.3	-0.002063639	125.1006	11.32876	-7.275957E-09	-0.001443873	0.03574111	2.348655E-13	0.09796143	5.971267E-14	10.09745	0	-1.450282E-12	0.0008355994	4.522649E-13	-0.0008355994	4.522649E-13	1.450282E-12	-2.42207E-15	50.00026	-0.0001710951	0	-4.693866E-07	-1.150183E-06	3.114735E-21	-4.674193E-07	-1.150984E-06	15.75207	1.242274E-06	2.842171E-11	7.45058E-06	2.258457E-05	2.842171E-11	7.411955E-06	2.259728E-05	2.83815E-11	9.809994	0.01679548	50.00026	5.3	-1	0	4.311692E-13	-1	-1.195754	18.84862	-12.89068	0.5826485	-66.36953	2.521754	-4.311692E-13	-1	0.09786987
5.4	-0.001311622	125.0684	11.33133	-1.869921E-06	0.002967473	0.03615311	1.662164E-13	0.09838867	-3.892628E-14	10.09798	0	3.930076E-12	0.0007509227	-4.480009E-13	-0.0007509227	-4.480009E-13	-3.930076E-12	7.698488E-17	50.00027	-0.0001718104	0	-4.209578E-07	-1.033768E-06	5.137226E-22	-4.191818E-07	-1.03449E-06	15.75206	1.116191E-06	0	-1.67638E-05	-4.284083E-05	1.931296E-20	-1.669021E-05	-4.286956E-05	-2.845898E-14	9.809969	0.01680427	50.00027	5.4	-1	0	-5.456445E-13	-1	-1.192879	18.60281	-12.53414	0.5753493	-64.50027	2.554291	5.456445E-13	-1	0.09829712
5.5	-0.00190326	125.1379	11.32956	-7.275957E-09	-0.001290306	0.03574356	2.711069E-14	0.1010437	6.003894E-15	10.1017	0	5.83045E-13	-0.001164923	-2.263453E-13	0.001164923	-2.263453E-13	-5.83045E-13	-1.064411E-15	50.00027	-0.0001765043	0	6.556511E-07	1.605134E-06	-4.770936E-22	6.528195E-07	1.606288E-06	15.7521	1.733879E-06	2.842171E-11	2.607703E-05	5.145557E-05	2.842171E-11	2.598625E-05	5.150147E-05	2.841707E-11	9.810011	0.01735092	50.00027	5.5	-1	0	8.717918E-13	-1	-1.195323	18.8458	-12.88487	0.5825925	-66.33606	2.521867	-8.717918E-13	-1	0.1011658
5.6	-0.001473356	125.0431	11.32906	0	0.002812704	0.03616804	7.992307E-13	0.09487915	-3.913046E-14	10.09463	0	5.727343E-12	0.0004833752	-2.178963E-13	-0.0004833752	-2.178963E-13	-5.727343E-12	-5.307276E-16	50.00026	-0.0001657009	0	-2.682209E-07	-6.6543E-07	3.271634E-21	-2.671186E-07	-6.658732E-07	15.75226	7.174535E-07	0	-1.862645E-05	-5.448237E-05	2.213563E-19	-1.85362E-05	-5.451314E-05	-1.368413E-13	9.809968	0.0161908	50.00026	5.6	-1	0	-1.421526E-13	-1	-1.193873	18.60131	-12.53475	0.5751472	-64.5209	2.555293	1.421526E-13	-1	0.09481812
5.7	-0.001737112	125.1035	11.33044	-7.275957E-09	-0.001119294	0.03573628	9.159423E-13	0.1004028	-3.825594E-15	10.09997	0	1.045917E-11	0.0007062408	1.831621E-14	-0.0007062408	1.831621E-14	-1.045917E-11	-2.735883E-15	50.00027	-0.0001753867	5.684342E-14	-3.911555E-07	-9.727664E-07	5.684343E-14	-3.894503E-07	-9.734504E-07	15.75196	1.048464E-06	0	3.72529E-06	9.080394E-06	-5.869252E-20	3.709373E-06	9.086908E-06	-1.568245E-13	9.809989	0.01719902	50.00027	5.7	-1	0	-5.495419E-13	-1	-1.194488	18.84316	-12.87857	0.5826388	-66.28909	2.521603	5.495419E-13	-1	0.1003113
5.8	-0.001635119	125.106	11.33004	1.848093E-06	0.002642065	0.03615052	1.537194E-12	0.09933472	2.573173E-14	10.09991	0	1.976727E-11	-0.0009659526	3.429776E-14	0.0009659526	3.429776E-14	-1.976727E-11	-7.098934E-16	50.00027	-0.0001734793	0	5.401671E-07	1.329929E-06	-1.502758E-20	5.378605E-07	1.330863E-06	15.75217	1.435441E-06	0	1.862645E-06	2.561137E-06	-5.100409E-20	1.858202E-06	2.564362E-06	-2.631931E-13	9.809988	0.01701079	50.00027	5.8	-1	0	-1.041606E-13	-1	-1.193869	18.60775	-12.54641	0.575438	-64.57061	2.554101	1.041606E-13	-1	0.09945679
5.9	-0.00157776	125.0789	11.32877	0	-0.0009388929	0.03576876	-1.863885E-13	0.09713745	-7.37091E-15	10.09701	0	4.66231E-12	0.0001958586	-6.742182E-13	-0.0001958586	-6.742182E-13	-4.66231E-12	-2.854875E-15	50.00026	-0.0001696348	0	-1.15484E-07	-2.696179E-07	-4.088782E-22	-1.150268E-07	-2.698133E-07	15.75217	2.933093E-07	-2.842171E-11	-1.862645E-06	-4.190951E-06	-2.842171E-11	-1.855538E-06	-4.194103E-06	-2.83898E-11	9.809984	0.01662484	50.00026	5.9	-1	0	7.221473E-13	-1	-1.195025	18.8323	-12.86077	0.5820802	-66.22279	2.523915	-7.221473E-13	-1	0.09710693
6	-0.001796426	125.054	11.33006	7.275957E-09	0.002445362	0.03612696	4.421157E-13	0.09735107	1.557565E-14	10.09708	0	4.270356E-12	0.000535447	7.25185E-15	-0.000535447	7.25185E-15	-4.270356E-12	3.235158E-16	50.00026	-0.0001700521	0	-3.054738E-07	-7.376075E-07	2.547992E-21	-3.042201E-07	-7.381254E-07	15.75214	7.983602E-07	-2.842171E-11	-2.421439E-05	-5.634501E-05	-2.842171E-11	-2.411861E-05	-5.638607E-05	-2.849741E-11	9.809962	0.01661227	50.00026	6	-1	0	4.641817E-14	-1	-1.193565	18.61426	-12.55805	0.5758203	-64.61022	2.552591	-4.641817E-14	-1	0.09729004
6.1	-0.001413111	125.1598	11.33104	1.862645E-06	-0.000732949	0.03577435	-1.375537E-12	0.1025085	-2.91668E-14	10.10289	0	-9.265463E-12	-0.0007180246	-1.659472E-14	0.0007180246	-1.659472E-14	9.265463E-12	-4.515788E-15	50.00027	-0.0001790375	0	3.986061E-07	9.890646E-07	1.003059E-20	3.968358E-07	9.897761E-07	15.75198	1.066366E-06	-2.842171E-11	2.607703E-05	7.497146E-05	-2.842171E-11	2.594285E-05	7.5018E-05	-2.818619E-11	9.81001	0.01762675	50.00027	6.1	-1	0	3.121619E-13	-1	-1.194466	18.82689	-12.85103	0.5819738	-66.16575	2.52428	-3.121619E-13	-1	0.1026001
6.2	-0.001956421	125.0312	11.32782	-7.275957E-09	0.002237688	0.03613285	1.071409E-12	0.09451294	-2.006754E-14	10.09455	0	6.587472E-12	2.417932E-05	-4.43882E-13	-2.417932E-05	-4.43882E-13	-6.587472E-12	1.61206E-15	50.00026	-0.0001650751	1.136868E-13	-1.862645E-08	-3.352761E-08	1.136868E-13	-1.857112E-08	-3.355829E-08	15.75233	3.835421E-08	5.684342E-11	-2.980232E-05	-7.217749E-05	5.684342E-11	-2.968322E-05	-7.222655E-05	5.665997E-11	9.809958	0.01610994	50.00026	6.2	-1	0	5.19176E-13	-1	-1.194631	18.61915	-12.5672	0.575779	-64.67894	2.552801	-5.19176E-13	-1	0.09451294
6.3	-0.001248943	125.1034	11.33079	-7.275957E-09	-0.0005174493	0.03578464	-2.587292E-13	0.09954834	-6.259203E-14	10.09951	0	5.471171E-12	2.945663E-05	9.504702E-15	-2.945663E-05	9.504702E-15	-5.471171E-12	-4.428906E-15	50.00027	-0.0001738071	0	-1.490116E-08	-4.051253E-08	-1.112283E-22	-1.483076E-08	-4.053836E-08	15.75207	4.316607E-08	0	9.313225E-06	1.699664E-05	6.048987E-20	9.283684E-06	1.701279E-05	4.429878E-14	9.809995	0.01705901	50.00027	6.3	-1	0	8.824241E-13	-1	-1.193837	18.81447	-12.83117	0.5816953	-66.05149	2.525568	-8.824241E-13	-1	0.09951782
6.4	-0.002113601	125.1199	11.33045	-7.275957E-09	0.002020424	0.0361076	6.603475E-13	0.1004333	3.32083E-14	10.10034	0	4.257721E-12	0.0001192737	1.211482E-13	-0.0001192737	1.211482E-13	-4.257721E-12	-2.225359E-15	50.00027	-0.0001753867	0	-7.078052E-08	-1.643784E-07	9.077135E-22	-7.04923E-08	-1.645022E-07	15.75202	1.789697E-07	-5.684342E-11	5.587935E-06	1.629814E-05	-5.684342E-11	5.55936E-06	1.630791E-05	-5.695648E-11	9.809991	0.01721048	50.00027	6.4	-1	0	-1.732384E-13	-1	-1.194545	18.62961	-12.58446	0.5762126	-64.75534	2.550959	1.732384E-13	-1	0.1004028
6.5	-0.001090935	125.0764	11.32905	-7.275957E-09	-0.0002955835	0.035813	5.380334E-14	0.097229	-7.290236E-14	10.09774	0	-1.206762E-12	-0.0008355164	-6.841692E-13	0.0008355164	-6.841692E-13	1.206762E-12	-1.565346E-15	50.00026	-0.0001698285	0	4.582107E-07	1.150649E-06	1.035624E-21	4.562573E-07	1.151425E-06	15.75227	1.238527E-06	2.842171E-11	-9.313225E-06	-1.047738E-05	2.842171E-11	-9.29543E-06	-1.049317E-05	2.84125E-11	9.809977	0.01663828	50.00026	6.5	-1	0	6.407292E-13	-1	-1.194213	18.80715	-12.81825	0.5812618	-66.00854	2.527237	-6.407292E-13	-1	0.09732056
6.6	-0.002260158	125.1155	11.32899	0	0.00178441	0.03610267	-8.536994E-13	0.0970459	2.913372E-15	10.09669	0	-4.253143E-12	0.0005714074	-2.061476E-13	-0.0005714074	-2.061476E-13	4.253143E-12	-2.220601E-15	50.00026	-0.0001694858	5.684342E-14	-3.241003E-07	-7.869676E-07	5.684342E-14	-3.227669E-07	-7.875154E-07	15.75214	8.510928E-07	5.684342E-11	9.313225E-06	3.003515E-05	5.684342E-11	9.262339E-06	3.005088E-05	5.698958E-11	9.809996	0.01664593	50.00026	6.6	-1	0	3.687276E-13	-1	-1.195235	18.63461	-12.59443	0.5762971	-64.81455	2.550685	-3.687276E-13	-1	0.09698486
6.7	-0.0009345484	125.1548	11.33225	-1.455191E-08	-5.457267E-05	0.03581803	2.647107E-13	0.1026611	-5.664449E-14	10.10262	0	4.369831E-12	-2.436878E-05	7.829031E-15	2.436878E-05	7.829031E-15	-4.369831E-12	5.661733E-16	50.00028	-0.0001793206	0	7.450581E-09	3.352761E-08	-9.98152E-25	7.390501E-09	3.354091E-08	15.75191	3.434548E-08	1.421085E-11	2.607703E-05	6.798654E-05	1.421085E-11	2.595519E-05	6.803315E-05	1.416553E-11	9.81001	0.01764344	50.00028	6.7	-1	0	-5.969138E-13	-1	-1.193563	18.80018	-12.80634	0.5811317	-65.93751	2.527724	5.969138E-13	-1	0.1026611
6.8	-0.002408636	125.0449	11.32722	-7.275957E-09	0.001537888	0.03608127	1.416743E-12	0.0954895	-1.176871E-14	10.09586	0	1.345585E-11	-0.0005722523	4.375387E-14	0.0005722523	4.375387E-14	-1.345585E-11	3.038785E-15	50.00026	-0.0001667142	1.136868E-13	3.20375E-07	7.874332E-07	1.136868E-13	3.190623E-07	7.87966E-07	15.75233	8.501125E-07	2.842171E-11	-2.235174E-05	-6.123445E-05	2.842171E-11	-2.224967E-05	-6.127162E-05	2.817914E-11	9.809965	0.01628652	50.00026	6.8	-1	0	1.262101E-13	-1	-1.195353	18.64649	-12.61238	0.5766979	-64.90316	2.548995	-1.262101E-13	-1	0.09555054
6.9	-0.0007857993	125.1199	11.33091	-1.455191E-08	0.0001856769	0.03585203	-2.489559E-13	0.09887695	2.777816E-14	10.09875	0	-1.068062E-11	0.0001547599	6.636909E-13	-0.0001547599	6.636909E-13	1.068062E-11	-4.32461E-15	50.00027	-0.0001726747	-2.842171E-14	-8.940697E-08	-2.132729E-07	-2.842171E-14	-8.903879E-08	-2.134268E-07	15.75208	2.312551E-07	-2.842171E-11	1.862645E-05	4.586763E-05	-2.842171E-11	1.854727E-05	4.589971E-05	-2.837908E-11	9.810005	0.01697519	50.00027	6.9	-1	0	-1.483851E-13	-1	-1.193823	18.78576	-12.78367	0.5805448	-65.83683	2.53024	1.483851E-13	-1	0.09884644
7	-0.002545912	125.1064	11.33007	-7.275957E-09	0.001288723	0.03604791	2.186624E-13	0.1000977	-6.014372E-15	10.09945	0	4.45722E-12	0.001109407	-1.911689E-13	-0.001109407	-1.911689E-13	-4.45722E-12	-8.214316E-16	50.00027	-0.0001748353	-1.136868E-13	-6.258488E-07	-1.527835E-06	-1.136868E-13	-6.231784E-07	-1.528926E-06	15.75194	1.65105E-06	-5.684342E-11	-3.72529E-06	-2.328306E-07	-5.684342E-11	-3.724878E-06	-2.39339E-07	-5.688085E-11	9.809981	0.01713955	50.00027	7	-1	0	2.95316E-13	-1	-1.195153	18.6607	-12.63449	0.577263	-65.00277	2.546551	-2.95316E-13	-1	0.09997559
7.1	-0.0006438392	125.0953	11.33007	-7.275957E-09	0.0004341171	0.03586542	-9.29799E-13	0.09851074	-3.407091E-14	10.09949	0	9.928138E-14	-0.001673035	1.138305E-13	0.001673035	1.138305E-13	-9.928138E-14	-5.771884E-15	50.00027	-0.000172019	0	9.387732E-07	2.304092E-06	1.654029E-20	9.348105E-07	2.305703E-06	15.75228	2.487998E-06	1.421085E-11	1.862645E-06	6.984919E-06	1.421085E-11	1.850634E-06	6.988111E-06	1.437005E-11	9.809988	0.0168724	50.00027	7.1	-1	0	-7.222598E-13	-1	-1.193416	18.77586	-12.76779	0.5802698	-65.7515	2.531382	7.222598E-13	-1	0.09869385
7.2	-0.002676741	125.0746	11.32807	0	0.001028143	0.0360432	1.190837E-13	0.09637451	-2.485312E-14	10.0957	0	-1.243162E-12	0.00116897	-1.726241E-13	-0.00116897	-1.726241E-13	1.243162E-12	-6.691594E-16	50.00026	-0.0001683235	-2.273737E-13	-6.519258E-07	-1.609325E-06	-2.273737E-13	-6.492177E-07	-1.61042E-06	15.75212	1.736357E-06	-1.136868E-10	-3.72529E-06	-1.792796E-05	-1.136868E-10	-3.695127E-06	-1.79342E-05	-1.137072E-10	9.809982	0.01648422	50.00026	7.2	-1	0	-2.607586E-13	-1	-1.195953	18.6679	-12.64634	0.577359	-65.07803	2.54621	2.607586E-13	-1	0.09625244
7.3	-0.000511293	125.1251	11.33287	-1.862645E-06	0.0006878527	0.03587054	2.381802E-14	0.1014709	-9.015172E-14	10.10123	0	1.201419E-12	0.0003696083	-3.389335E-13	-0.0003696083	-3.389335E-13	-1.201419E-12	-2.430134E-15	50.00027	-0.0001772195	0	-2.123415E-07	-5.094334E-07	-7.136694E-22	-2.11439E-07	-5.098087E-07	15.75194	5.519161E-07	0	1.303852E-05	3.236346E-05	4.552579E-20	1.298118E-05	3.23865E-05	-4.077994E-15	9.809999	0.01740607	50.00027	7.3	-1	0	1.121573E-13	-1	-1.19266	18.76818	-12.75479	0.5801502	-65.67123	2.531869	-1.121573E-13	-1	0.1014404
7.4	-0.002794587	125.0799	11.32742	0	0.0007710448	0.0360178	8.813481E-13	0.09762573	5.624962E-14	10.09812	0	-1.875831E-12	-0.0008210001	-3.183245E-15	0.0008210001	-3.183245E-15	1.875831E-12	1.791656E-15	50.00026	-0.0001704842	-1.136868E-13	4.582107E-07	1.130626E-06	-1.136869E-13	4.562838E-07	1.131405E-06	15.75225	1.219947E-06	-5.684342E-11	-1.117587E-05	-2.444722E-05	-5.684342E-11	-1.11342E-05	-2.446622E-05	-5.699432E-11	9.809975	0.01668892	50.00026	7.4	-1	0	5.708191E-13	-1	-1.195955	18.68123	-12.66669	0.5778345	-65.17567	2.544165	-5.708191E-13	-1	0.09771729
7.5	-0.0003905932	125.0931	11.33102	7.275957E-09	0.0009353271	0.03590874	9.155223E-14	0.09759521	-2.325813E-14	10.09749	0	-1.242964E-12	0.0001625947	-2.863349E-13	-0.0001625947	-2.863349E-13	1.242964E-12	-9.182826E-16	50.00026	-0.0001704544	0	-9.313226E-08	-2.244487E-07	5.709313E-23	-9.274981E-08	-2.24607E-07	15.75215	2.430038E-07	0	3.72529E-06	1.44355E-05	-5.34828E-23	3.700697E-06	1.444182E-05	-1.567526E-14	9.80999	0.01672388	50.00026	7.5	-1	0	6.013517E-13	-1	-1.193073	18.75166	-12.72962	0.5794761	-65.56013	2.534809	-6.013517E-13	-1	0.0975647
7.6	-0.002903219	125.0809	11.32919	0	0.0005099408	0.03597863	5.858512E-13	0.09906006	-1.007266E-14	10.09822	0	5.578145E-12	0.001431444	-2.177459E-13	-0.001431444	-2.177459E-13	-5.578145E-12	-1.349331E-16	50.00027	-0.0001729876	-1.136868E-13	-7.972121E-07	-1.971144E-06	-1.136868E-13	-7.938035E-07	-1.972519E-06	15.75197	2.126254E-06	-5.684342E-11	-1.117587E-05	-2.910383E-05	-5.684342E-11	-1.112554E-05	-2.91231E-05	-5.694372E-11	9.809975	0.01692911	50.00027	7.6	-1	0	8.903354E-13	-1	-1.195589	18.69786	-12.6913	0.5784944	-65.28583	2.541309	-8.903354E-13	-1	0.09887695
7.7	-0.0002801586	125.124	11.33152	7.275957E-09	0.001188245	0.03592204	6.108298E-14	0.1002502	-1.100247E-14	10.10134	0	6.557734E-13	-0.001851929	-1.69381E-13	0.001851929	-1.69381E-13	-6.557734E-13	-2.120276E-15	50.00027	-0.0001751184	-7.105427E-15	1.031905E-06	2.550893E-06	-7.105428E-15	1.02744E-06	2.552694E-06	15.75221	2.751705E-06	-3.552713E-12	1.117587E-05	3.608875E-05	-3.552713E-12	1.11127E-05	3.610825E-05	-3.563172E-12	9.809997	0.01720207	50.00027	7.7	-1	0	-8.170892E-13	-1	-1.192653	18.74131	-12.71371	0.5792087	-65.47227	2.535948	8.170892E-13	-1	0.1004639
7.8	-0.003002441	125.0567	11.32703	0	0.0002512223	0.03597594	6.91051E-13	0.09558105	-7.468824E-14	10.09491	0	1.471532E-11	0.001164398	2.453166E-14	-0.001164398	2.453166E-14	-1.471532E-11	-2.492446E-15	50.00026	-0.000166893	-1.136868E-13	-6.593764E-07	-1.603737E-06	-1.136868E-13	-6.567004E-07	-1.604835E-06	15.75216	1.733999E-06	-1.705302E-10	-1.67638E-05	-3.888271E-05	-1.705302E-10	-1.669892E-05	-3.891062E-05	-1.706486E-10	9.80997	0.01632452	50.00026	7.8	-1	0	1.58998E-13	-1	-1.196498	18.70568	-12.70371	0.5785621	-65.36935	2.541033	-1.58998E-13	-1	0.09542847
7.9	-0.0001821247	125.0914	11.33257	-7.275957E-09	0.00143498	0.03592751	-2.787945E-13	0.09976196	-4.864523E-14	10.0997	0	-1.036946E-12	0.0001106146	-2.576007E-13	-0.0001106146	-2.576007E-13	1.036946E-12	-1.66071E-15	50.00027	-0.0001742542	0	-5.960464E-08	-1.522712E-07	-4.180199E-22	-5.933943E-08	-1.523748E-07	15.75205	1.635214E-07	7.105427E-12	1.862645E-06	-5.122274E-06	7.105427E-12	1.871561E-06	-5.119023E-06	7.153161E-12	9.809987	0.01707532	50.00027	7.9	-1	0	1.825717E-12	-1	-1.191857	18.73263	-12.69975	0.5790893	-65.38354	2.536495	-1.825717E-12	-1	0.09973145
8	-0.003087204	125.1188	11.32825	-7.275957E-09	2.88978E-06	0.03594424	-1.430477E-13	0.1000061	6.751869E-15	10.10022	0	9.621131E-12	-0.0003908077	-2.105829E-13	0.0003908077	-2.105829E-13	-9.621131E-12	-8.235549E-16	50.00027	-0.0001746863	0	2.160668E-07	5.383044E-07	4.736623E-22	2.15127E-07	5.386808E-07	15.75208	5.800488E-07	5.684342E-11	7.45058E-06	1.769513E-05	5.684342E-11	7.419685E-06	1.77081E-05	5.686791E-11	9.809993	0.01713937	50.00027	8	-1	0	-4.179522E-13	-1	-1.196385	18.72065	-12.72596	0.5790996	-65.47544	2.53869	4.179522E-13	-1	0.1000366
8.1	-0.0001000608	125.0668	11.3306	1.862645E-06	0.001672568	0.03596962	-9.940118E-13	0.09637451	2.076703E-15	10.09661	0	-5.982462E-12	-0.0003551598	-1.877059E-13	0.0003551598	-1.877059E-13	5.982462E-12	-1.625141E-15	50.00026	-0.0001682937	-3.552714E-15	1.974404E-07	4.889444E-07	-3.55271E-15	1.966176E-07	4.892758E-07	15.75226	5.273038E-07	-1.776357E-12	-5.587935E-06	-1.862645E-05	-1.776357E-12	-5.556593E-06	-1.863582E-05	-1.606166E-12	9.80998	0.01648396	50.00026	8.1	-1	0	3.109296E-13	-1	-1.19249	18.71614	-12.6756	0.5783803	-65.28172	2.539584	-3.109296E-13	-1	0.09643555
8.2	-0.003155736	125.07	11.3284	0	-0.0002443145	0.03590821	4.061847E-13	0.0982666	-5.987622E-14	10.09761	0	2.486884E-13	0.001146381	4.184049E-16	-0.001146381	4.184049E-16	-2.486884E-13	-3.054067E-15	50.00026	-0.0001716018	0	-6.407499E-07	-1.579057E-06	2.873064E-21	-6.380407E-07	-1.580154E-06	15.75203	1.704108E-06	5.684342E-11	-1.303852E-05	-3.702007E-05	5.684342E-11	-1.2975E-05	-3.704238E-05	5.677387E-11	9.809973	0.01678832	50.00026	8.2	-1	0	4.536349E-13	-1	-1.195953	18.73489	-12.7469	0.5796971	-65.56539	2.536146	-4.536349E-13	-1	0.09814453
8.3	-3.103018E-05	125.1424	11.3328	0	0.001909368	0.03597992	-5.65642E-13	0.101532	-4.264084E-14	10.1023	0	-6.798157E-12	-0.001341439	1.636124E-14	0.001341439	1.636124E-14	6.798157E-12	-1.514071E-15	50.00027	-0.0001773685	-1.776357E-15	7.525086E-07	1.847278E-06	-1.776348E-15	7.492338E-07	1.848609E-06	15.75209	1.994669E-06	8.881784E-13	2.235174E-05	5.378388E-05	8.881786E-13	2.225639E-05	5.38234E-05	9.850259E-13	9.810007	0.01743847	50.00027	8.3	-1	0	-2.119411E-13	-1	-1.192045	18.70642	-12.66118	0.5781595	-65.19846	2.540556	2.119411E-13	-1	0.1016846
8.4	-0.003216946	125.0486	11.32634	7.275957E-09	-0.0004805224	0.0359044	-2.200539E-13	0.09542847	6.059727E-14	10.09509	0	-7.808379E-13	0.0006192811	-4.560461E-13	-0.0006192811	-4.560461E-13	7.808379E-13	-3.852465E-15	50.00026	-0.0001666248	1.136868E-13	-3.427267E-07	-8.526258E-07	1.136868E-13	-3.413062E-07	-8.531954E-07	15.75222	9.1893E-07	5.684342E-11	-1.67638E-05	-4.959292E-05	5.684342E-11	-1.668118E-05	-4.962078E-05	5.688109E-11	9.80997	0.01628881	50.00026	8.4	-1	0	1.386315E-13	-1	-1.196869	18.74545	-12.76215	0.5798051	-65.66862	2.535601	-1.386315E-13	-1	0.09536743
8.5	2.220135E-05	125.0838	11.3324	-1.455191E-08	0.002129074	0.03599306	2.406937E-13	0.09857178	-1.270631E-14	10.09886	0	1.051986E-11	-0.0004546639	-1.524286E-13	0.0004546639	-1.524286E-13	-1.051986E-11	-1.137297E-15	50.00027	-0.0001721829	2.930989E-14	2.533197E-07	6.267801E-07	2.930989E-14	2.52241E-07	6.27215E-07	15.75216	6.760357E-07	2.220446E-11	-3.72529E-06	-7.45058E-06	2.220446E-11	-3.712466E-06	-7.456978E-06	2.216325E-11	9.809982	0.01687111	50.00027	8.5	-1	0	1.33849E-13	-1	-1.191482	18.69178	-12.63975	0.5778489	-65.07217	2.542108	-1.33849E-13	-1	0.09863281
8.6	-0.00326059	125.1385	11.32907	0	-0.0006989177	0.03587411	-2.451568E-13	0.1014099	-1.051545E-13	10.10106	0	-4.787844E-12	0.0005348636	-6.905937E-13	-0.0005348636	-6.905937E-13	4.787844E-12	-3.208205E-15	50.00027	-0.0001771003	0	-2.942979E-07	-7.362105E-07	-2.604825E-21	-2.929945E-07	-7.367302E-07	15.75193	7.928538E-07	5.684342E-11	1.862645E-05	4.02797E-05	5.684342E-11	1.855513E-05	4.03126E-05	5.688539E-11	9.810004	0.01740274	50.00027	8.6	-1	0	5.30135E-13	-1	-1.196619	18.76097	-12.7847	0.5803691	-65.77511	2.533099	-5.30135E-13	-1	0.1013489
8.7	5.889147E-05	125.0563	11.33056	1.455191E-08	0.002336578	0.03602649	1.188526E-13	0.09613037	-6.098306E-15	10.09688	0	2.941643E-12	-0.001225235	4.937981E-15	0.001225235	4.937981E-15	-2.941643E-12	-2.289223E-15	50.00026	-0.0001678765	-7.105427E-15	6.854534E-07	1.687557E-06	-7.105428E-15	6.826211E-07	1.688704E-06	15.75236	1.821454E-06	4.440892E-13	-1.490116E-05	-3.562308E-05	4.440892E-13	-1.484137E-05	-3.564803E-05	4.237397E-13	9.809972	0.01642338	50.00026	8.7	-1	0	2.182358E-13	-1	-1.192085	18.68189	-12.62535	0.5773493	-65.01983	2.544201	-2.182358E-13	-1	0.09628296
8.8	-0.003292135	125.1081	11.32765	-7.275957E-09	-0.0009117866	0.03586365	-3.202688E-13	0.09814453	-2.312119E-14	10.09756	0	4.489844E-12	0.0009581163	4.624444E-13	-0.0009581163	4.624444E-13	-4.489844E-12	2.232226E-16	50.00026	-0.0001713932	-1.136868E-13	-5.401671E-07	-1.319218E-06	-1.136868E-13	-5.379065E-07	-1.320142E-06	15.75205	1.425524E-06	-5.684342E-11	5.587935E-06	2.211891E-05	-5.684342E-11	5.550038E-06	2.212845E-05	-5.678858E-11	9.809992	0.01682644	50.00026	8.8	-1	0	-8.310428E-13	-1	-1.197115	18.76993	-12.79745	0.5805361	-65.85321	2.532361	8.310428E-13	-1	0.09802246
8.9	8.117021E-05	125.136	11.33356	0	0.002539024	0.03603459	-6.181738E-13	0.1015625	-5.76397E-15	10.10182	0	-1.935621E-12	-0.0004677132	-3.444977E-13	0.0004677132	-3.444977E-13	1.935621E-12	-1.670139E-16	50.00027	-0.0001773834	-7.105427E-15	2.607703E-07	6.444752E-07	-7.105424E-15	2.596273E-07	6.449365E-07	15.75201	6.952334E-07	-7.993605E-12	1.862645E-05	4.377216E-05	-7.993605E-12	1.854882E-05	4.380511E-05	-7.887763E-12	9.810004	0.01743561	50.00027	8.9	-1	0	3.995549E-13	-1	-1.191632	18.6739	-12.61421	0.577208	-64.95055	2.544841	-3.995549E-13	-1	0.1016235
9	-0.003304675	125.0643	11.32624	0	-0.001103528	0.03583863	4.297269E-13	0.09655762	-8.903378E-14	10.09667	0	6.963312E-13	-0.0001643584	1.174641E-15	0.0001643584	1.174641E-15	-6.963312E-13	8.597917E-16	50.00026	-0.0001686364	0	9.313226E-08	2.263114E-07	-3.439718E-22	9.275076E-08	2.26468E-07	15.75224	2.447253E-07	0	-1.303852E-05	-3.492459E-05	4.30788E-20	-1.297964E-05	-3.494652E-05	-7.357631E-14	9.809973	0.01649615	50.00026	9	-1	0	-3.548184E-13	-1	-1.197036	18.78339	-12.81631	0.5809706	-65.94818	2.530414	3.548184E-13	-1	0.09655762
9.1	8.568593E-05	125.0997	11.33191	7.275957E-09	0.002718783	0.0360652	-2.132619E-13	0.09777832	-1.338499E-14	10.09789	0	-1.288923E-11	-0.0001999014	-2.199695E-14	0.0001999014	-2.199695E-14	1.288923E-11	3.154343E-16	50.00026	-0.0001707971	-7.105427E-15	1.117587E-07	2.752058E-07	-7.105427E-15	1.112889E-07	2.753961E-07	15.75218	2.970324E-07	-8.881783E-12	9.313225E-06	1.885928E-05	-8.881783E-12	9.281027E-06	1.887515E-05	-8.845269E-12	9.809996	0.01676018	50.00026	9.1	-1	0	4.029759E-13	-1	-1.1921	18.65978	-12.59457	0.5766593	-64.86205	2.547324	-4.029759E-13	-1	0.09780884
9.2	-0.003303243	125.1302	11.32938	0	-0.001274662	0.03580727	-5.968137E-13	0.1013794	5.187599E-14	10.10056	0	-2.472281E-12	0.001352869	-2.317345E-13	-0.001352869	-2.317345E-13	2.472281E-12	-2.043921E-15	50.00027	-0.0001770705	-1.136868E-13	-7.599592E-07	-1.863111E-06	-1.136868E-13	-7.566614E-07	-1.864453E-06	15.75185	2.012143E-06	0	1.117587E-05	3.096647E-05	8.780376E-20	1.112106E-05	3.09862E-05	1.021845E-13	9.809997	0.01738917	50.00027	9.2	-1	0	1.150486E-12	-1	-1.196587	18.7985	-12.83712	0.5815378	-66.04393	2.527889	-1.150486E-12	-1	0.1012268
9.3	7.715624E-05	125.0707	11.33081	0	0.002882027	0.03607816	-1.089318E-12	0.09710693	8.726824E-15	10.09824	0	-1.269028E-11	-0.001900792	-2.154079E-14	0.001900792	-2.154079E-14	1.269028E-11	-2.085593E-15	50.00026	-0.000169605	-1.065814E-14	1.061708E-06	2.617482E-06	-1.065812E-14	1.057271E-06	2.619277E-06	15.75238	2.824612E-06	3.552713E-12	-9.313225E-06	-2.491288E-05	3.552713E-12	-9.270995E-06	-2.492862E-05	3.739222E-12	9.809977	0.01659885	50.00026	9.3	-1	0	4.680652E-13	-1	-1.191915	18.65122	-12.58289	0.5764486	-64.79588	2.548308	-4.680652E-13	-1	0.09732056
9.4	-0.003289403	125.0987	11.32759	0	-0.001433168	0.03580533	-4.61823E-13	0.09768677	-1.050664E-13	10.09686	0	-1.605827E-12	0.001388739	-2.726849E-15	-0.001388739	-2.726849E-15	1.605827E-12	-3.431072E-15	50.00026	-0.0001706332	-1.136868E-13	-7.82311E-07	-1.912471E-06	-1.136869E-13	-7.790489E-07	-1.913802E-06	15.75203	2.06629E-06	0	3.72529E-06	1.396984E-05	5.54523E-20	3.701465E-06	1.397617E-05	7.907179E-14	9.80999	0.01674066	50.00026	9.4	-1	0	2.72923E-13	-1	-1.197203	18.80464	-12.84585	0.5815707	-66.1067	2.527679	-2.72923E-13	-1	0.09753418
9.5	5.081932E-05	125.1044	11.33331	-7.275957E-09	0.003032003	0.03607998	-1.059057E-12	0.1002808	-4.057399E-14	10.10019	0	-5.733474E-12	0.0001594771	-3.510932E-13	-0.0001594771	-3.510932E-13	5.733474E-12	-5.23285E-15	50.00027	-0.0001751333	-1.776357E-15	-8.568168E-08	-2.197921E-07	-1.776359E-15	-8.529685E-08	-2.199418E-07	15.75202	2.359024E-07	-6.217249E-12	1.862645E-06	4.423782E-06	-6.217249E-12	1.854899E-06	4.427035E-06	-6.03592E-12	9.809987	0.01717448	50.00027	9.5	-1	0	-4.293434E-13	-1	-1.191446	18.64575	-12.57588	0.5764087	-64.74522	2.548518	4.293434E-13	-1	0.1002502
9.6	-0.003258591	125.1007	11.32691	1.862645E-06	-0.001564805	0.03578413	1.080977E-12	0.0987854	-8.407534E-14	10.09917	0	8.029906E-12	-0.0006441754	-4.408902E-13	0.0006441754	-4.408902E-13	-8.029906E-12	6.955031E-16	50.00027	-0.0001725554	1.136868E-13	3.613532E-07	8.870848E-07	1.136868E-13	3.59823E-07	8.877065E-07	15.75217	9.578598E-07	1.136868E-10	0	4.190951E-06	1.136868E-10	-7.226279E-09	4.190945E-06	1.135017E-10	9.809986	0.01691916	50.00027	9.6	-1	0	-1.625332E-13	-1	-1.196997	18.81604	-12.86139	0.5819534	-66.18324	2.525934	1.625332E-13	-1	0.09887695
9.7	1.012086E-05	125.0718	11.33132	0	0.003156088	0.03611321	4.015099E-13	0.09640503	-1.524333E-14	10.09639	0	1.414361E-12	3.241847E-05	-2.249946E-13	-3.241847E-05	-2.249946E-13	-1.414361E-12	-4.904331E-16	50.00026	-0.0001683533	-3.996803E-15	-1.490116E-08	-4.470348E-08	-3.996803E-15	-1.482593E-08	-4.472849E-08	15.75223	4.712161E-08	-2.220446E-13	-3.72529E-06	-1.490116E-05	-2.220446E-13	-3.700214E-06	-1.490741E-05	-2.907897E-13	9.809982	0.01648988	50.00026	9.7	-1	0	5.926567E-13	-1	-1.192109	18.63256	-12.55817	0.5758602	-64.66985	2.551023	-5.926567E-13	-1	0.09640503
9.8	-0.00321042	125.1066	11.32919	-1.862645E-06	-0.001674392	0.03575342	2.147727E-13	0.1004639	-4.018046E-14	10.09956	0	3.552697E-13	0.001538894	6.17238E-16	-0.001538894	6.17238E-16	-3.552697E-13	-2.831123E-15	50.00027	-0.000175491	0	-8.679926E-07	-2.11969E-06	1.753225E-21	-8.642742E-07	-2.121209E-06	15.75188	2.290524E-06	5.684342E-11	0	4.656612E-06	5.684342E-11	-8.165895E-09	4.656605E-06	5.680664E-11	9.809985	0.0172076	50.00027	9.8	-1	0	-1.773185E-13	-1	-1.196432	18.82891	-12.87893	0.5824677	-66.26028	2.523618	1.773185E-13	-1	0.1003113
9.9	-4.810721E-05	125.0979	11.33143	0	0.003261401	0.03611998	-1.846815E-13	0.0987854	2.892408E-14	10.09993	0	-2.131635E-13	-0.001944496	-3.737471E-16	0.001944496	-3.737471E-16	2.131635E-13	1.499161E-15	50.00027	-0.0001724958	1.776357E-15	1.09151E-06	2.678018E-06	1.776359E-15	1.086892E-06	2.679896E-06	15.75229	2.891916E-06	1.110223E-13	1.862645E-06	1.164153E-06	1.110223E-13	1.860635E-06	1.167362E-06	1.426428E-13	9.809988	0.01691292	50.00027	9.9	-1	0	1.822899E-12	-1	-1.191907	18.62607	-12.54987	0.5757334	-64.61882	2.55165	-1.822899E-12	-1	0.09899902
10	-0.003153747	125.0814	11.32726	7.275957E-09	-0.001766135	0.03575937	1.212424E-12	0.09692383	4.026736E-14	10.09621	0	7.857823E-12	0.001230557	4.680163E-13	-0.001230557	4.680163E-13	-7.857823E-12	2.576183E-15	50.00026	-0.000169307	0	-6.891787E-07	-1.694541E-06	1.571379E-20	-6.863108E-07	-1.695705E-06	15.75209	1.829327E-06	0	-1.862645E-06	-4.889443E-06	4.267622E-20	-1.85437E-06	-4.892587E-06	-2.07587E-13	9.809984	0.01659228	50.00026	10	-1	0	-1.145657E-12	-1	-1.19708	18.83192	-12.88213	0.5823623	-66.2993	2.523988	1.145657E-12	-1	0.09680176
10.1	-0.00011845	125.0694	11.33247	0	0.003341101	0.03611634	-5.710565E-13	0.09851074	-1.162412E-14	10.09846	0	-1.619253E-12	0.0001391593	-4.575309E-13	-0.0001391593	-4.575309E-13	1.619253E-12	-1.995785E-15	50.00027	-0.0001720786	7.105427E-15	-7.450581E-08	-1.913868E-07	7.105427E-15	-7.417662E-08	-1.915146E-07	15.75212	2.053777E-07	-8.881784E-13	-9.313225E-06	-3.585592E-05	-8.881785E-13	-9.251558E-06	-3.587188E-05	-7.904041E-13	9.809977	0.01683188	50.00027	10.1	-1	0	-1.278859E-12	-1	-1.191382	18.62248	-12.54559	0.5757792	-64.57919	2.551524	1.278859E-12	-1	0.09851074
10.2	-0.003080108	125.1399	11.32842	0	-0.001826942	0.03574233	1.302827E-13	0.1011963	-9.886539E-14	10.10143	0	2.060572E-12	-0.000463667	3.640113E-15	0.000463667	3.640113E-15	-2.060572E-12	-5.980113E-16	50.00027	-0.0001767576	0	2.57045E-07	6.388873E-07	5.204987E-22	2.559163E-07	6.393402E-07	15.75203	6.886575E-07	-5.684342E-11	2.048909E-05	4.796311E-05	-5.684342E-11	2.040436E-05	4.799922E-05	-5.686572E-11	9.810005	0.01737286	50.00027	10.2	-1	0	9.33093E-13	-1	-1.196746	18.84068	-12.89359	0.5826791	-66.35308	2.522514	-9.33093E-13	-1	0.1012268
10.3	-0.0002061484	125.045	11.33034	1.855369E-06	0.003396312	0.03614918	7.647934E-13	0.09512329	-6.211465E-15	10.09531	0	-3.432294E-12	-0.0002455784	2.216787E-13	0.0002455784	2.216787E-13	3.432294E-12	1.202963E-15	50.00026	-0.000166133	0	1.378357E-07	3.380701E-07	-1.795709E-21	1.372743E-07	3.382985E-07	15.75232	3.650891E-07	-7.105427E-12	-1.67638E-05	-4.959292E-05	-7.105426E-12	-1.668144E-05	-4.962069E-05	-7.236372E-12	9.80997	0.01623779	50.00026	10.3	-1	0	-3.275556E-13	-1	-1.192212	18.61154	-12.5313	0.5752667	-64.52521	2.553867	3.275556E-13	-1	0.09515381
10.4	-0.002988846	125.0928	11.32888	0	-0.001865831	0.03571997	4.606286E-13	0.09960938	4.705927E-14	10.09898	0	1.35003E-12	0.001083748	2.338503E-15	-0.001083748	2.338503E-15	-1.35003E-12	1.562224E-15	50.00027	-0.000173986	0	-6.072223E-07	-1.492444E-06	6.086691E-21	-6.046266E-07	-1.493498E-06	15.75197	1.611245E-06	0	-3.72529E-06	-5.820766E-06	3.464883E-20	-3.715164E-06	-5.827234E-06	-7.886721E-14	9.809981	0.0170502	50.00027	10.4	-1	0	5.343521E-13	-1	-1.196053	18.84771	-12.90204	0.5830296	-66.38142	2.520958	-5.343521E-13	-1	0.0994873
