Time	Aircraft Simulation Net Global Force X	Aircraft Simulation Net Global Force Y	Aircraft Simulation Net Global Force Z	Aircraft Simulation Net Global Moment X	Aircraft Simulation Net Global Moment Y	Aircraft Simulation Net Global Moment Z	Aircraft Simulation Net Local Force X	Aircraft Simulation Net Local Force Y	Aircraft Simulation Net Local Force Z	Aircraft Simulation Net Local Moment X	Aircraft Simulation Net Local Moment Y	Aircraft Simulation Net Local Moment Z	Aircraft Simulation Net Force	Aircraft Simulation Net Moment	Aircraft Simulation Roll Angle	Aircraft Simulation Pitch Angle	Aircraft Simulation Heading Angle	Aircraft Simulation Angle Of Attack_Deg	Aircraft Simulation Angle Of Sideslip_Deg	Aircraft Simulation Roll Rate	Aircraft Simulation Pitch Rate	Aircraft Simulation Yaw Rate	Aircraft Simulation Angular Velocity X	Aircraft Simulation Angular Velocity Y	Aircraft Simulation Angular Velocity Z	Aircraft Simulation Position X	Aircraft Simulation Position Y	Aircraft Simulation Position Z	Aircraft Simulation Global Velocity X	Aircraft Simulation Global Velocity Y	Aircraft Simulation Global Velocity Z	Aircraft Simulation Local Velocity X	Aircraft Simulation Local Velocity Y	Aircraft Simulation Local Velocity Z	Aircraft Simulation Airspeed	Aircraft Simulation Ground Speed	Aircraft Simulation Acceleration X	Aircraft Simulation Acceleration Y	Aircraft Simulation Acceleration Z	Aircraft Simulation Local Acceleration X	Aircraft Simulation Local Acceleration Y	Aircraft Simulation Local Acceleration Z	Aircraft Simulation Imu Acceleration X	Aircraft Simulation Imu Acceleration Y	Aircraft Simulation Imu Acceleration Z	Aircraft Simulation Altitude	Aircraft Simulation Time	D A Q Net Global Force X	D A Q Net Global Force Y	D A Q Net Global Force Z	D A Q Net Global Moment X	D A Q Net Global Moment Y	D A Q Net Global Moment Z	D A Q Net Local Force X	D A Q Net Local Force Y	D A Q Net Local Force Z	D A Q Net Local Moment X	D A Q Net Local Moment Y	D A Q Net Local Moment Z	D A Q Net Force	D A Q Net Moment	Electronic Speed Controller Input Value	Fin Input Value	Port Aileron Input Value	Port Flap Input Value	Propeller Total Thrust	Propeller Advance Ratio	Propeller Thrust Coefficient	Propeller Torque Coefficient	Propeller Propulsive Efficiency	Propeller Rps	Starboard Aileron Input Value	Starboard Flap Input Value	Tailplane Input Value	U I Net Global Force X	U I Net Global Force Y	U I Net Global Force Z	U I Net Global Moment X	U I Net Global Moment Y	U I Net Global Moment Z	U I Net Local Force X	U I Net Local Force Y	U I Net Local Force Z	U I Net Local Moment X	U I Net Local Moment Y	U I Net Local Moment Z	U I Net Force	U I Net Moment	Uniform Flow Net Global Force X	Uniform Flow Net Global Force Y	Uniform Flow Net Global Force Z	Uniform Flow Net Global Moment X	Uniform Flow Net Global Moment Y	Uniform Flow Net Global Moment Z	Uniform Flow Net Local Force X	Uniform Flow Net Local Force Y	Uniform Flow Net Local Force Z	Uniform Flow Net Local Moment X	Uniform Flow Net Local Moment Y	Uniform Flow Net Local Moment Z	Uniform Flow Net Force	Uniform Flow Net Moment
0.1	-0.001276517	-50.71227	-6.584644	7.330163E-05	-1.798894E-09	-3.561595E-10	-0.00127634	-50.71227	-6.584641	7.330163E-05	-1.798792E-09	-3.549818E-10	51.13797	7.330163E-05	8.004125E-08	-3.415095E-06	9.204745E-07	-20	0	0	0	0	0	0	0	2.621433E-09	50	1.490116E-06	0	0	0	0	0	0	15.03508	0	0	0	0	0	0	0	-1.370441E-08	9.81	-5.847216E-07	50	0.1	0	-9.81	0	0	0	0	0	-9.81	0	0	0	0	9.81	0	-1	0	-8.004125E-08	-1	-1.142483	17.97195	-12.26043	0.582894	-60.16328	2.527503	8.004125E-08	-1	-3.415095E-06	0	-9.81	0	0	0	0	0	-9.81	0	0	0	0	9.81	0	0	-9.81	0	0	0	0	0	-9.81	0	0	0	0	9.81	0
0.2	0.0004224061	-50.40937	-6.679728	0.0001479748	1.286887E-09	-3.538836E-10	0.0004225839	-50.40937	-6.679725	0.0001479748	1.287094E-09	-3.515064E-10	50.85001	0.0001479748	8.004125E-08	-3.415095E-06	9.204745E-07	-20	0	0	0	0	0	0	0	2.621433E-09	50	2.980232E-06	0	0	0	0	0	0	15.03508	0	0	0	0	0	0	0	-1.370441E-08	9.81	-5.847216E-07	50	0.2	0	-9.81	0	0	0	0	0	-9.81	0	0	0	0	9.81	0	-1	0	-8.004125E-08	-1	-1.143763	18.50463	-13.01689	0.5972075	-64.19226	2.454335	8.004125E-08	-1	-3.415095E-06	0	-9.81	0	0	0	0	0	-9.81	0	0	0	0	9.81	0	0	-9.81	0	0	0	0	0	-9.81	0	0	0	0	9.81	0
0.3	-0.001529405	-50.36658	-6.695852	0.0002229026	-6.721567E-09	-3.53717E-10	-0.001529227	-50.36658	-6.695849	0.0002229026	-6.721256E-09	-3.501356E-10	50.80972	0.0002229026	8.004125E-08	-3.415095E-06	9.204745E-07	-20	0	0	0	0	0	0	0	2.621433E-09	50	4.470348E-06	0	0	0	0	0	0	15.03508	0	0	0	0	0	0	0	-1.370441E-08	9.81	-5.847216E-07	50	0.3	0	-9.81	0	0	0	0	0	-9.81	0	0	0	0	9.81	0	-1	0	-8.004125E-08	-1	-1.145878	17.93871	-12.25657	0.5815369	-60.17318	2.531654	8.004125E-08	-1	-3.415095E-06	0	-9.81	0	0	0	0	0	-9.81	0	0	0	0	9.81	0	0	-9.81	0	0	0	0	0	-9.81	0	0	0	0	9.81	0
0.4	0.0002063012	-50.35824	-6.693182	0.0002979068	1.267424E-09	-3.53606E-10	0.0002064791	-50.35824	-6.69318	0.0002979068	1.26784E-09	-3.488201E-10	50.80109	0.0002979068	8.004125E-08	-3.415095E-06	9.204745E-07	-20	0	0	0	0	0	0	0	2.621433E-09	50	5.960464E-06	0	0	0	0	0	0	15.03508	0	0	0	0	0	0	0	-1.370441E-08	9.81	-5.847216E-07	50	0.4	0	-9.81	0	0	0	0	0	-9.81	0	0	0	0	9.81	0	-1	0	-8.004125E-08	-1	-1.141205	18.55804	-13.06508	0.5991462	-64.40677	2.447064	8.004125E-08	-1	-3.415095E-06	0	-9.81	0	0	0	0	0	-9.81	0	0	0	0	9.81	0	0	-9.81	0	0	0	0	0	-9.81	0	0	0	0	9.81	0
0.5	-0.001805283	-50.35241	-6.704642	0.0003729074	-1.332256E-08	-3.53717E-10	-0.001805105	-50.35241	-6.704639	0.0003729074	-1.332204E-08	-3.477253E-10	50.79682	0.0003729074	8.004125E-08	-3.415095E-06	9.204745E-07	-20	0	0	0	0	0	0	0	2.621433E-09	50	7.450581E-06	0	0	0	0	0	0	15.03508	0	0	0	0	0	0	0	-1.370441E-08	9.81	-5.847216E-07	50	0.5	0	-9.81	0	0	0	0	0	-9.81	0	0	0	0	9.81	0	-1	0	-8.004125E-08	-1	-1.15001	17.89969	-12.24832	0.5798659	-60.17476	2.537068	8.004125E-08	-1	-3.415095E-06	0	-9.81	0	0	0	0	0	-9.81	0	0	0	0	9.81	0	0	-9.81	0	0	0	0	0	-9.81	0	0	0	0	9.81	0
0.6	2.021252E-05	-50.34674	-6.695118	0.0004478825	2.268203E-10	-3.535141E-10	2.039041E-05	-50.34674	-6.695115	0.0004478825	2.274459E-10	-3.463187E-10	50.78995	0.0004478825	8.004125E-08	-3.415095E-06	9.204745E-07	-20	0	0	0	0	0	0	0	2.621433E-09	50	8.940697E-06	0	0	0	0	0	0	15.03508	0	0	0	0	0	0	0	-1.370441E-08	9.81	-5.847216E-07	50	0.6	0	-9.81	0	0	0	0	0	-9.81	0	0	0	0	9.81	0	-1	0	-8.004125E-08	-1	-1.139203	18.60609	-13.1098	0.6008401	-64.6119	2.440743	8.004125E-08	-1	-3.415095E-06	0	-9.81	0	0	0	0	0	-9.81	0	0	0	0	9.81	0	0	-9.81	0	0	0	0	0	-9.81	0	0	0	0	9.81	0
0.7	-0.002116575	-50.35268	-6.709916	0.0005229703	-2.19359E-08	-3.539391E-10	-0.002116397	-50.35268	-6.709913	0.0005229703	-2.193517E-08	-3.455361E-10	50.79779	0.0005229703	8.004125E-08	-3.415095E-06	9.204745E-07	-20	0	0	0	0	0	0	0	2.621433E-09	50	1.043081E-05	0	0	0	0	0	0	15.03508	0	0	0	0	0	0	0	-1.370441E-08	9.81	-5.847216E-07	50	0.7	0	-9.81	0	0	0	0	0	-9.81	0	0	0	0	9.81	0	-1	0	-8.004125E-08	-1	-1.15513	17.87726	-12.27259	0.5785102	-60.35957	2.540194	8.004125E-08	-1	-3.415095E-06	0	-9.81	0	0	0	0	0	-9.81	0	0	0	0	9.81	0	0	-9.81	0	0	0	0	0	-9.81	0	0	0	0	9.81	0
0.8	-0.0001366809	-50.3448	-6.693775	0.000597909	-1.57626E-09	-3.53495E-10	-0.000136503	-50.3448	-6.693772	0.000597909	-1.575425E-09	-3.438893E-10	50.78785	0.000597909	8.004125E-08	-3.415095E-06	9.204745E-07	-20	0	0	0	0	0	0	0	2.621433E-09	50	1.192093E-05	0	0	0	0	0	0	15.03508	0	0	0	0	0	0	0	-1.370441E-08	9.81	-5.847216E-07	50	0.8	0	-9.81	0	0	0	0	0	-9.81	0	0	0	0	9.81	0	-1	0	-8.004125E-08	-1	-1.137566	18.64974	-13.15275	0.6023792	-64.80963	2.435003	8.004125E-08	-1	-3.415095E-06	0	-9.81	0	0	0	0	0	-9.81	0	0	0	0	9.81	0	0	-9.81	0	0	0	0	0	-9.81	0	0	0	0	9.81	0
0.9	-0.002399218	-50.3489	-6.717528	0.0006729788	-3.202161E-08	-3.532729E-10	-0.002399039	-50.3489	-6.717525	0.0006729788	-3.202067E-08	-3.424594E-10	50.79504	0.0006729788	8.004125E-08	-3.415095E-06	9.204745E-07	-20	0	0	0	0	0	0	0	2.621433E-09	50	1.341105E-05	0	0	0	0	0	0	15.03508	0	0	0	0	0	0	0	-1.370441E-08	9.81	-5.847216E-07	50	0.9	0	-9.81	0	0	0	0	0	-9.81	0	0	0	0	9.81	0	-1	0	-8.004125E-08	-1	-1.160642	17.87816	-12.33205	0.5776813	-60.74212	2.540101	8.004125E-08	-1	-3.415095E-06	0	-9.81	0	0	0	0	0	-9.81	0	0	0	0	9.81	0	0	-9.81	0	0	0	0	0	-9.81	0	0	0	0	9.81	0
1	-0.0002670414	-50.34668	-6.691543	0.0007479684	-3.920308E-09	-3.53495E-10	-0.0002668636	-50.34668	-6.69154	0.0007479684	-3.919263E-09	-3.414784E-10	50.78942	0.0007479684	8.004125E-08	-3.415095E-06	9.204745E-07	-20	0	0	0	0	0	0	0	2.621433E-09	50	1.490116E-05	0	0	0	0	0	0	15.03508	0	0	0	0	0	0	0	-1.370441E-08	9.81	-5.847216E-07	50	1	0	-9.81	0	0	0	0	0	-9.81	0	0	0	0	9.81	0	-1	0	-8.004125E-08	-1	-1.136227	18.68913	-13.19329	0.6037706	-64.99658	2.429827	8.004125E-08	-1	-3.415095E-06	0	-9.81	0	0	0	0	0	-9.81	0	0	0	0	9.81	0	0	-9.81	0	0	0	0	0	-9.81	0	0	0	0	9.81	0
1.1	-0.002465141	-50.35006	-6.72042	0.000823049	-4.024947E-08	-3.53717E-10	-0.002464963	-50.35006	-6.720417	0.000823049	-4.024832E-08	-3.404921E-10	50.79658	0.000823049	8.004125E-08	-3.415095E-06	9.204745E-07	-20	0	0	0	0	0	0	0	2.621433E-09	50	1.639128E-05	0	0	0	0	0	0	15.03508	0	0	0	0	0	0	0	-1.370441E-08	9.81	-5.847216E-07	50	1.1	0	-9.81	0	0	0	0	0	-9.81	0	0	0	0	9.81	0	-1	0	-8.004125E-08	-1	-1.163841	17.91036	-12.41085	0.5778753	-61.21979	2.535512	8.004125E-08	-1	-3.415095E-06	0	-9.81	0	0	0	0	0	-9.81	0	0	0	0	9.81	0	0	-9.81	0	0	0	0	0	-9.81	0	0	0	0	9.81	0
1.2	-0.0003765338	-50.34161	-6.692385	0.0008979259	-6.669137E-09	-3.534395E-10	-0.000376356	-50.34161	-6.692382	0.0008979259	-6.667883E-09	-3.390136E-10	50.7845	0.0008979259	8.004125E-08	-3.415095E-06	9.204745E-07	-20	0	0	0	0	0	0	0	2.621433E-09	50	1.788139E-05	0	0	0	0	0	0	15.03508	0	0	0	0	0	0	0	-1.370441E-08	9.81	-5.847216E-07	50	1.2	0	-9.81	0	0	0	0	0	-9.81	0	0	0	0	9.81	0	-1	0	-8.004125E-08	-1	-1.135205	18.72436	-13.23068	0.6049963	-65.17133	2.4253	8.004125E-08	-1	-3.415095E-06	0	-9.81	0	0	0	0	0	-9.81	0	0	0	0	9.81	0	0	-9.81	0	0	0	0	0	-9.81	0	0	0	0	9.81	0
1.3	-0.002068192	-50.35233	-6.716106	0.0009731483	-3.992428E-08	-3.53717E-10	-0.002068014	-50.35233	-6.716104	0.0009731483	-3.992292E-08	-3.380807E-10	50.79826	0.0009731483	8.004125E-08	-3.415095E-06	9.204745E-07	-20	0	0	0	0	0	0	0	2.621433E-09	50	1.937151E-05	0	0	0	0	0	0	15.03508	0	0	0	0	0	0	0	-1.370441E-08	9.81	-5.847216E-07	50	1.3	0	-9.81	0	0	0	0	0	-9.81	0	0	0	0	9.81	0	-1	0	-8.004125E-08	-1	-1.160565	17.97243	-12.46224	0.5795091	-61.51242	2.526714	8.004125E-08	-1	-3.415095E-06	0	-9.81	0	0	0	0	0	-9.81	0	0	0	0	9.81	0	0	-9.81	0	0	0	0	0	-9.81	0	0	0	0	9.81	0
1.4	-0.0004671721	-50.34221	-6.69097	0.001047971	-9.678119E-09	-3.53495E-10	-0.0004669943	-50.34221	-6.690968	0.001047971	-9.676655E-09	-3.366584E-10	50.78491	0.001047971	8.004125E-08	-3.415095E-06	9.204745E-07	-20	0	0	0	0	0	0	0	2.621433E-09	50	2.086163E-05	0	0	0	0	0	0	15.03508	0	0	0	0	0	0	0	-1.370441E-08	9.81	-5.847216E-07	50	1.4	0	-9.81	0	0	0	0	0	-9.81	0	0	0	0	9.81	0	-1	0	-8.004125E-08	-1	-1.134319	18.75652	-13.26603	0.6061309	-65.33515	2.421122	8.004125E-08	-1	-3.415095E-06	0	-9.81	0	0	0	0	0	-9.81	0	0	0	0	9.81	0	0	-9.81	0	0	0	0	0	-9.81	0	0	0	0	9.81	0
1.5	-0.001294801	-50.34522	-6.70816	0.001123051	-2.883599E-08	-3.53384E-10	-0.001294623	-50.34522	-6.708158	0.001123051	-2.883442E-08	-3.353401E-10	50.79016	0.001123051	8.004125E-08	-3.415095E-06	9.204745E-07	-20	0	0	0	0	0	0	0	2.621433E-09	50	2.235174E-05	0	0	0	0	0	0	15.03508	0	0	0	0	0	0	0	-1.370441E-08	9.81	-5.847216E-07	50	1.5	0	-9.81	0	0	0	0	0	-9.81	0	0	0	0	9.81	0	-1	0	-8.004125E-08	-1	-1.150884	18.04628	-12.45956	0.5821795	-61.46865	2.516424	8.004125E-08	-1	-3.415095E-06	0	-9.81	0	0	0	0	0	-9.81	0	0	0	0	9.81	0	0	-9.81	0	0	0	0	0	-9.81	0	0	0	0	9.81	0
1.6	-0.0005423987	-50.34507	-6.689298	0.00119807	-1.286057E-08	-3.53495E-10	-0.0005422209	-50.34507	-6.689295	0.00119807	-1.28589E-08	-3.342469E-10	50.78753	0.00119807	8.004125E-08	-3.415095E-06	9.204745E-07	-20	0	0	0	0	0	0	0	2.621433E-09	50	2.384186E-05	0	0	0	0	0	0	15.03508	0	0	0	0	0	0	0	-1.370441E-08	9.81	-5.847216E-07	50	1.6	0	-9.81	0	0	0	0	0	-9.81	0	0	0	0	9.81	0	-1	0	-8.004125E-08	-1	-1.133572	18.78525	-13.29831	0.6071553	-65.48376	2.417385	8.004125E-08	-1	-3.415095E-06	0	-9.81	0	0	0	0	0	-9.81	0	0	0	0	9.81	0	0	-9.81	0	0	0	0	0	-9.81	0	0	0	0	9.81	0
1.7	-0.0005468072	-50.34414	-6.696569	0.001273067	-1.378025E-08	-3.53495E-10	-0.0005466292	-50.34414	-6.696567	0.001273067	-1.377848E-08	-3.330419E-10	50.78756	0.001273067	8.004125E-08	-3.415095E-06	9.204745E-07	-20	0	0	0	0	0	0	0	2.621433E-09	50	2.533197E-05	0	0	0	0	0	0	15.03508	0	0	0	0	0	0	0	-1.370441E-08	9.81	-5.847216E-07	50	1.7	0	-9.81	0	0	0	0	0	-9.81	0	0	0	0	9.81	0	-1	0	-8.004125E-08	-1	-1.140067	18.10881	-12.42833	0.5847977	-61.25156	2.507716	8.004125E-08	-1	-3.415095E-06	0	-9.81	0	0	0	0	0	-9.81	0	0	0	0	9.81	0	0	-9.81	0	0	0	0	0	-9.81	0	0	0	0	9.81	0
1.8	-0.0006045081	-50.34056	-6.690235	0.001347991	-1.61402E-08	-3.534395E-10	-0.0006043303	-50.34056	-6.690232	0.001347991	-1.613832E-08	-3.317826E-10	50.78318	0.001347991	8.004125E-08	-3.415095E-06	9.204745E-07	-20	0	0	0	0	0	0	0	2.621433E-09	50	2.682209E-05	0	0	0	0	0	0	15.03508	0	0	0	0	0	0	0	-1.370441E-08	9.81	-5.847216E-07	50	1.8	0	-9.81	0	0	0	0	0	-9.81	0	0	0	0	9.81	0	-1	0	-8.004125E-08	-1	-1.133018	18.81103	-13.3278	0.6080591	-65.62139	2.414119	8.004125E-08	-1	-3.415095E-06	0	-9.81	0	0	0	0	0	-9.81	0	0	0	0	9.81	0	0	-9.81	0	0	0	0	0	-9.81	0	0	0	0	9.81	0
1.9	-3.689904E-05	-50.34329	-6.68824	0.001423079	-9.960817E-10	-3.534846E-10	-3.672127E-05	-50.34329	-6.688237	0.001423079	-9.940937E-10	-3.306223E-10	50.78563	0.001423079	8.004125E-08	-3.415095E-06	9.204745E-07	-20	0	0	0	0	0	0	0	2.621433E-09	50	2.831221E-05	0	0	0	0	0	0	15.03508	0	0	0	0	0	0	0	-1.370441E-08	9.81	-5.847216E-07	50	1.9	0	-9.81	0	0	0	0	0	-9.81	0	0	0	0	9.81	0	-1	0	-8.004125E-08	-1	-1.131849	18.1496	-12.39451	0.5866377	-61.03044	2.502068	8.004125E-08	-1	-3.415095E-06	0	-9.81	0	0	0	0	0	-9.81	0	0	0	0	9.81	0	0	-9.81	0	0	0	0	0	-9.81	0	0	0	0	9.81	0
2	-0.0006544215	-50.34217	-6.68885	0.001498061	-1.94271E-08	-3.535505E-10	-0.0006542437	-50.34217	-6.688848	0.001498061	-1.942501E-08	-3.294825E-10	50.78459	0.001498061	8.004125E-08	-3.415095E-06	9.204745E-07	-20	0	0	0	0	0	0	0	2.621433E-09	50	2.980232E-05	0	0	0	0	0	0	15.03508	0	0	0	0	0	0	0	-1.370441E-08	9.81	-5.847216E-07	50	2	0	-9.81	0	0	0	0	0	-9.81	0	0	0	0	9.81	0	-1	0	-8.004125E-08	-1	-1.132502	18.83403	-13.35455	0.6088881	-65.74385	2.41115	8.004125E-08	-1	-3.415095E-06	0	-9.81	0	0	0	0	0	-9.81	0	0	0	0	9.81	0	0	-9.81	0	0	0	0	0	-9.81	0	0	0	0	9.81	0
2.1	0.0002556071	-50.33953	-6.683674	0.001572993	8.034059E-09	-3.534672E-10	0.0002557848	-50.33953	-6.683671	0.001572993	8.036256E-09	-3.281971E-10	50.7813	0.001572993	8.004125E-08	-3.415095E-06	9.204745E-07	-20	0	0	0	0	0	0	0	2.621433E-09	50	3.129244E-05	0	0	0	0	0	0	15.03508	0	0	0	0	0	0	0	-1.370441E-08	9.81	-5.847216E-07	50	2.1	0	-9.81	0	0	0	0	0	-9.81	0	0	0	0	9.81	0	-1	0	-8.004125E-08	-1	-1.126521	18.17282	-12.36748	0.5877273	-60.86219	2.498899	8.004125E-08	-1	-3.415095E-06	0	-9.81	0	0	0	0	0	-9.81	0	0	0	0	9.81	0	0	-9.81	0	0	0	0	0	-9.81	0	0	0	0	9.81	0
2.2	-0.0006933046	-50.33998	-6.68948	0.001648022	-2.265032E-08	-3.53495E-10	-0.0006931269	-50.33998	-6.689477	0.001648022	-2.264802E-08	-3.270176E-10	50.78251	0.001648022	8.004125E-08	-3.415095E-06	9.204745E-07	-20	0	0	0	0	0	0	0	2.621433E-09	50	3.278255E-05	0	0	0	0	0	0	15.03508	0	0	0	0	0	0	0	-1.370441E-08	9.81	-5.847216E-07	50	2.2	0	-9.81	0	0	0	0	0	-9.81	0	0	0	0	9.81	0	-1	0	-8.004125E-08	-1	-1.132111	18.85377	-13.3776	0.6095979	-65.8496	2.408657	8.004125E-08	-1	-3.415095E-06	0	-9.81	0	0	0	0	0	-9.81	0	0	0	0	9.81	0	0	-9.81	0	0	0	0	0	-9.81	0	0	0	0	9.81	0
2.3	0.0004041913	-50.34098	-6.679344	0.00172307	1.388152E-08	-3.53495E-10	0.000404369	-50.34098	-6.679341	0.00172307	1.388393E-08	-3.258142E-10	50.78216	0.00172307	8.004125E-08	-3.415095E-06	9.204745E-07	-20	0	0	0	0	0	0	0	2.621433E-09	50	3.427267E-05	0	0	0	0	0	0	15.03508	0	0	0	0	0	0	0	-1.370441E-08	9.81	-5.847216E-07	50	2.3	0	-9.81	0	0	0	0	0	-9.81	0	0	0	0	9.81	0	-1	0	-8.004125E-08	-1	-1.123188	18.18398	-12.34627	0.5883026	-60.73568	2.497341	8.004125E-08	-1	-3.415095E-06	0	-9.81	0	0	0	0	0	-9.81	0	0	0	0	9.81	0	0	-9.81	0	0	0	0	0	-9.81	0	0	0	0	9.81	0
2.4	-0.0007234752	-50.34026	-6.688821	0.001798056	-2.579423E-08	-3.53495E-10	-0.0007232974	-50.34026	-6.688818	0.001798056	-2.579171E-08	-3.246071E-10	50.7827	0.001798056	8.004125E-08	-3.415095E-06	9.204745E-07	-20	0	0	0	0	0	0	0	2.621433E-09	50	3.576279E-05	0	0	0	0	0	0	15.03508	0	0	0	0	0	0	0	-1.370441E-08	9.81	-5.847216E-07	50	2.4	0	-9.81	0	0	0	0	0	-9.81	0	0	0	0	9.81	0	-1	0	-8.004125E-08	-1	-1.131749	18.87099	-13.39791	0.6102373	-65.94063	2.406445	8.004125E-08	-1	-3.415095E-06	0	-9.81	0	0	0	0	0	-9.81	0	0	0	0	9.81	0	0	-9.81	0	0	0	0	0	-9.81	0	0	0	0	9.81	0
2.5	0.0004672514	-50.33818	-6.678524	0.001872991	1.743247E-08	-3.53495E-10	0.000467429	-50.33818	-6.678521	0.001872991	1.743509E-08	-3.234058E-10	50.77928	0.001872991	8.004125E-08	-3.415095E-06	9.204745E-07	-20	0	0	0	0	0	0	0	2.621433E-09	50	3.72529E-05	0	0	0	0	0	0	15.03508	0	0	0	0	0	0	0	-1.370441E-08	9.81	-5.847216E-07	50	2.5	0	-9.81	0	0	0	0	0	-9.81	0	0	0	0	9.81	0	-1	0	-8.004125E-08	-1	-1.121186	18.18747	-12.32865	0.5885241	-60.63781	2.496897	8.004125E-08	-1	-3.415095E-06	0	-9.81	0	0	0	0	0	-9.81	0	0	0	0	9.81	0	0	-9.81	0	0	0	0	0	-9.81	0	0	0	0	9.81	0
2.6	-0.0007452185	-50.34268	-6.687394	0.001948178	-2.879177E-08	-3.53606E-10	-0.0007450407	-50.34268	-6.687391	0.001948178	-2.878905E-08	-3.223062E-10	50.7849	0.001948178	8.004125E-08	-3.415095E-06	9.204745E-07	-20	0	0	0	0	0	0	0	2.621433E-09	50	3.874302E-05	0	0	0	0	0	0	15.03508	0	0	0	0	0	0	0	-1.370441E-08	9.81	-5.847216E-07	50	2.6	0	-9.81	0	0	0	0	0	-9.81	0	0	0	0	9.81	0	-1	0	-8.004125E-08	-1	-1.131428	18.88547	-13.41498	0.6107907	-66.01546	2.404573	8.004125E-08	-1	-3.415095E-06	0	-9.81	0	0	0	0	0	-9.81	0	0	0	0	9.81	0	0	-9.81	0	0	0	0	0	-9.81	0	0	0	0	9.81	0
2.7	0.0004793204	-50.33846	-6.676911	0.002023022	1.931E-08	-3.53495E-10	0.000479498	-50.33846	-6.676908	0.002023022	1.931282E-08	-3.209956E-10	50.77934	0.002023022	8.004125E-08	-3.415095E-06	9.204745E-07	-20	0	0	0	0	0	0	0	2.621433E-09	50	4.023314E-05	0	0	0	0	0	0	15.03508	0	0	0	0	0	0	0	-1.370441E-08	9.81	-5.847216E-07	50	2.7	0	-9.81	0	0	0	0	0	-9.81	0	0	0	0	9.81	0	-1	0	-8.004125E-08	-1	-1.119917	18.18727	-12.31456	0.5885811	-60.56202	2.49691	8.004125E-08	-1	-3.415095E-06	0	-9.81	0	0	0	0	0	-9.81	0	0	0	0	9.81	0	0	-9.81	0	0	0	0	0	-9.81	0	0	0	0	9.81	0
2.8	-0.0007597142	-50.3397	-6.6885	0.002098084	-3.161685E-08	-3.53495E-10	-0.0007595365	-50.3397	-6.688498	0.002098084	-3.161392E-08	-3.197867E-10	50.7821	0.002098084	8.004125E-08	-3.415095E-06	9.204745E-07	-20	0	0	0	0	0	0	0	2.621433E-09	50	4.172325E-05	0	0	0	0	0	0	15.03508	0	0	0	0	0	0	0	-1.370441E-08	9.81	-5.847216E-07	50	2.8	0	-9.81	0	0	0	0	0	-9.81	0	0	0	0	9.81	0	-1	0	-8.004125E-08	-1	-1.131212	18.89673	-13.42798	0.6112238	-66.07197	2.403179	8.004125E-08	-1	-3.415095E-06	0	-9.81	0	0	0	0	0	-9.81	0	0	0	0	9.81	0	0	-9.81	0	0	0	0	0	-9.81	0	0	0	0	9.81	0
2.9	0.0004617677	-50.3414	-6.67487	0.002173168	1.998074E-08	-3.53495E-10	0.0004619453	-50.3414	-6.674867	0.002173168	1.998377E-08	-3.185835E-10	50.78199	0.002173168	8.004125E-08	-3.415095E-06	9.204745E-07	-20	0	0	0	0	0	0	0	2.621433E-09	50	4.321337E-05	0	0	0	0	0	0	15.03508	0	0	0	0	0	0	0	-1.370441E-08	9.81	-5.847216E-07	50	2.9	0	-9.81	0	0	0	0	0	-9.81	0	0	0	0	9.81	0	-1	0	-8.004125E-08	-1	-1.119107	18.18513	-12.30307	0.5885452	-60.50206	2.497173	8.004125E-08	-1	-3.415095E-06	0	-9.81	0	0	0	0	0	-9.81	0	0	0	0	9.81	0	0	-9.81	0	0	0	0	0	-9.81	0	0	0	0	9.81	0
3	-0.0007673339	-50.34019	-6.68789	0.002248129	-3.422126E-08	-3.53606E-10	-0.0007671561	-50.34019	-6.687887	0.002248129	-3.421812E-08	-3.174871E-10	50.7825	0.002248129	8.004125E-08	-3.415095E-06	9.204745E-07	-20	0	0	0	0	0	0	0	2.621433E-09	50	4.470348E-05	0	0	0	0	0	0	15.03508	0	0	0	0	0	0	0	-1.370441E-08	9.81	-5.847216E-07	50	3	0	-9.81	0	0	0	0	0	-9.81	0	0	0	0	9.81	0	-1	0	-8.004125E-08	-1	-1.130989	18.90551	-13.43799	0.6115909	-66.11221	2.402048	8.004125E-08	-1	-3.415095E-06	0	-9.81	0	0	0	0	0	-9.81	0	0	0	0	9.81	0	0	-9.81	0	0	0	0	0	-9.81	0	0	0	0	9.81	0
3.1	0.000425988	-50.33798	-6.675894	0.002323042	1.970574E-08	-3.534395E-10	0.0004261656	-50.33798	-6.675891	0.002323042	1.970898E-08	-3.161202E-10	50.77873	0.002323042	8.004125E-08	-3.415095E-06	9.204745E-07	-20	0	0	0	0	0	0	0	2.621433E-09	50	4.61936E-05	0	0	0	0	0	0	15.03508	0	0	0	0	0	0	0	-1.370441E-08	9.81	-5.847216E-07	50	3.1	0	-9.81	0	0	0	0	0	-9.81	0	0	0	0	9.81	0	-1	0	-8.004125E-08	-1	-1.118655	18.18164	-12.29295	0.5884283	-60.45268	2.497696	8.004125E-08	-1	-3.415095E-06	0	-9.81	0	0	0	0	0	-9.81	0	0	0	0	9.81	0	0	-9.81	0	0	0	0	0	-9.81	0	0	0	0	9.81	0
3.2	-0.0007691527	-50.34356	-6.686384	0.002398316	-3.659472E-08	-3.53384E-10	-0.0007689749	-50.34356	-6.686381	0.002398316	-3.659137E-08	-3.148521E-10	50.78564	0.002398316	8.004125E-08	-3.415095E-06	9.204745E-07	-20	0	0	0	0	0	0	0	2.621433E-09	50	4.768372E-05	0	0	0	0	0	0	15.03508	0	0	0	0	0	0	0	-1.370441E-08	9.81	-5.847216E-07	50	3.2	0	-9.81	0	0	0	0	0	-9.81	0	0	0	0	9.81	0	-1	0	-8.004125E-08	-1	-1.130783	18.91161	-13.4446	0.6118754	-66.1353	2.401239	8.004125E-08	-1	-3.415095E-06	0	-9.81	0	0	0	0	0	-9.81	0	0	0	0	9.81	0	0	-9.81	0	0	0	0	0	-9.81	0	0	0	0	9.81	0
3.3	0.0003779736	-50.3387	-6.675123	0.002473098	1.861637E-08	-3.534395E-10	0.0003781512	-50.3387	-6.67512	0.002473098	1.861983E-08	-3.137095E-10	50.77935	0.002473098	8.004125E-08	-3.415095E-06	9.204745E-07	-20	0	0	0	0	0	0	0	2.621433E-09	50	4.917383E-05	0	0	0	0	0	0	15.03508	0	0	0	0	0	0	0	-1.370441E-08	9.81	-5.847216E-07	50	3.3	0	-9.81	0	0	0	0	0	-9.81	0	0	0	0	9.81	0	-1	0	-8.004125E-08	-1	-1.118335	18.17832	-12.28512	0.5883203	-60.41426	2.498134	8.004125E-08	-1	-3.415095E-06	0	-9.81	0	0	0	0	0	-9.81	0	0	0	0	9.81	0	0	-9.81	0	0	0	0	0	-9.81	0	0	0	0	9.81	0
3.4	-0.0007655423	-50.33959	-6.687863	0.002548149	-3.870423E-08	-3.53495E-10	-0.0007653646	-50.33959	-6.68786	0.002548149	-3.870067E-08	-3.125559E-10	50.7819	0.002548149	8.004125E-08	-3.415095E-06	9.204745E-07	-20	0	0	0	0	0	0	0	2.621433E-09	50	5.066395E-05	0	0	0	0	0	0	15.03508	0	0	0	0	0	0	0	-1.370441E-08	9.81	-5.847216E-07	50	3.4	0	-9.81	0	0	0	0	0	-9.81	0	0	0	0	9.81	0	-1	0	-8.004125E-08	-1	-1.130679	18.91434	-13.44672	0.6120313	-66.13847	2.400939	8.004125E-08	-1	-3.415095E-06	0	-9.81	0	0	0	0	0	-9.81	0	0	0	0	9.81	0	0	-9.81	0	0	0	0	0	-9.81	0	0	0	0	9.81	0
3.5	0.0003220844	-50.34238	-6.673655	0.00262331	1.683045E-08	-3.53495E-10	0.0003222619	-50.34238	-6.673652	0.00262331	1.683412E-08	-3.113517E-10	50.78281	0.00262331	8.004125E-08	-3.415095E-06	9.204745E-07	-20	0	0	0	0	0	0	0	2.621433E-09	50	5.215406E-05	0	0	0	0	0	0	15.03508	0	0	0	0	0	0	0	-1.370441E-08	9.81	-5.847216E-07	50	3.5	0	-9.81	0	0	0	0	0	-9.81	0	0	0	0	9.81	0	-1	0	-8.004125E-08	-1	-1.118115	18.17521	-12.27887	0.5882198	-60.3835	2.498524	8.004125E-08	-1	-3.415095E-06	0	-9.81	0	0	0	0	0	-9.81	0	0	0	0	9.81	0	0	-9.81	0	0	0	0	0	-9.81	0	0	0	0	9.81	0
3.6	-0.0007571426	-50.34037	-6.687215	0.002698216	-4.053552E-08	-3.53495E-10	-0.0007569648	-50.34037	-6.687212	0.002698216	-4.053175E-08	-3.101449E-10	50.7826	0.002698216	8.004125E-08	-3.415095E-06	9.204745E-07	-20	0	0	0	0	0	0	0	2.621433E-09	50	5.364418E-05	0	0	0	0	0	0	15.03508	0	0	0	0	0	0	0	-1.370441E-08	9.81	-5.847216E-07	50	3.6	0	-9.81	0	0	0	0	0	-9.81	0	0	0	0	9.81	0	-1	0	-8.004125E-08	-1	-1.130544	18.91471	-13.44584	0.6121271	-66.12506	2.400874	8.004125E-08	-1	-3.415095E-06	0	-9.81	0	0	0	0	0	-9.81	0	0	0	0	9.81	0	0	-9.81	0	0	0	0	0	-9.81	0	0	0	0	9.81	0
3.7	0.0002607561	-50.33778	-6.675339	0.002773089	1.441182E-08	-3.534672E-10	0.0002609336	-50.33778	-6.675336	0.002773089	1.441569E-08	-3.089176E-10	50.77846	0.002773089	8.004125E-08	-3.415095E-06	9.204745E-07	-20	0	0	0	0	0	0	0	2.621433E-09	50	5.51343E-05	0	0	0	0	0	0	15.03508	0	0	0	0	0	0	0	-1.370441E-08	9.81	-5.847216E-07	50	3.7	0	-9.81	0	0	0	0	0	-9.81	0	0	0	0	9.81	0	-1	0	-8.004125E-08	-1	-1.118047	18.17209	-12.27342	0.5880967	-60.35898	2.499003	8.004125E-08	-1	-3.415095E-06	0	-9.81	0	0	0	0	0	-9.81	0	0	0	0	9.81	0	0	-9.81	0	0	0	0	0	-9.81	0	0	0	0	9.81	0
3.8	-0.0007452414	-50.34358	-6.686101	0.002848424	-4.211858E-08	-3.53384E-10	-0.0007450636	-50.34358	-6.686099	0.002848424	-4.21146E-08	-3.076207E-10	50.78563	0.002848424	8.004125E-08	-3.415095E-06	9.204745E-07	-20	0	0	0	0	0	0	0	2.621433E-09	50	5.662441E-05	0	0	0	0	0	0	15.03508	0	0	0	0	0	0	0	-1.370441E-08	9.81	-5.847216E-07	50	3.8	0	-9.81	0	0	0	0	0	-9.81	0	0	0	0	9.81	0	-1	0	-8.004125E-08	-1	-1.130418	18.912	-13.44088	0.6121292	-66.09101	2.401182	8.004125E-08	-1	-3.415095E-06	0	-9.81	0	0	0	0	0	-9.81	0	0	0	0	9.81	0	0	-9.81	0	0	0	0	0	-9.81	0	0	0	0	9.81	0
3.9	0.0001952589	-50.33936	-6.674501	0.002923196	1.138552E-08	-3.534672E-10	0.0001954365	-50.33936	-6.674498	0.002923196	1.138961E-08	-3.065058E-10	50.77991	0.002923196	8.004125E-08	-3.415095E-06	9.204745E-07	-20	0	0	0	0	0	0	0	2.621433E-09	50	5.811453E-05	0	0	0	0	0	0	15.03508	0	0	0	0	0	0	0	-1.370441E-08	9.81	-5.847216E-07	50	3.9	0	-9.81	0	0	0	0	0	-9.81	0	0	0	0	9.81	0	-1	0	-8.004125E-08	-1	-1.117968	18.16969	-12.26951	0.5880156	-60.3401	2.499313	8.004125E-08	-1	-3.415095E-06	0	-9.81	0	0	0	0	0	-9.81	0	0	0	0	9.81	0	0	-9.81	0	0	0	0	0	-9.81	0	0	0	0	9.81	0
4	-0.000730333	-50.33913	-6.687614	0.002998193	-4.345166E-08	-3.53495E-10	-0.0007301553	-50.33913	-6.687611	0.002998193	-4.344747E-08	-3.053255E-10	50.78141	0.002998193	8.004125E-08	-3.415095E-06	9.204745E-07	-20	0	0	0	0	0	0	0	2.621433E-09	50	5.960464E-05	0	0	0	0	0	0	15.03508	0	0	0	0	0	0	0	-1.370441E-08	9.81	-5.847216E-07	50	4	0	-9.81	0	0	0	0	0	-9.81	0	0	0	0	9.81	0	-1	0	-8.004125E-08	-1	-1.130387	18.90643	-13.43207	0.6120145	-66.04057	2.401938	8.004125E-08	-1	-3.415095E-06	0	-9.81	0	0	0	0	0	-9.81	0	0	0	0	9.81	0	0	-9.81	0	0	0	0	0	-9.81	0	0	0	0	9.81	0
4.1	0.0001276306	-50.34103	-6.674158	0.003073321	7.838723E-09	-3.534811E-10	0.0001278081	-50.34103	-6.674155	0.003073321	7.843016E-09	-3.041077E-10	50.78152	0.003073321	8.004125E-08	-3.415095E-06	9.204745E-07	-20	0	0	0	0	0	0	0	2.621433E-09	50	6.109476E-05	0	0	0	0	0	0	15.03508	0	0	0	0	0	0	0	-1.370441E-08	9.81	-5.847216E-07	50	4.1	0	-9.81	0	0	0	0	0	-9.81	0	0	0	0	9.81	0	-1	0	-8.004125E-08	-1	-1.117922	18.16713	-12.26572	0.5879361	-60.32111	2.499647	8.004125E-08	-1	-3.415095E-06	0	-9.81	0	0	0	0	0	-9.81	0	0	0	0	9.81	0	0	-9.81	0	0	0	0	0	-9.81	0	0	0	0	9.81	0
4.2	-0.0007125765	-50.34089	-6.686682	0.003148329	-4.451769E-08	-3.53384E-10	-0.0007123987	-50.34089	-6.686679	0.003148329	-4.451329E-08	-3.028024E-10	50.78303	0.003148329	8.004125E-08	-3.415095E-06	9.204745E-07	-20	0	0	0	0	0	0	0	2.621433E-09	50	6.258488E-05	0	0	0	0	0	0	15.03508	0	0	0	0	0	0	0	-1.370441E-08	9.81	-5.847216E-07	50	4.2	0	-9.81	0	0	0	0	0	-9.81	0	0	0	0	9.81	0	-1	0	-8.004125E-08	-1	-1.130316	18.89829	-13.41988	0.6118363	-65.97144	2.402952	8.004125E-08	-1	-3.415095E-06	0	-9.81	0	0	0	0	0	-9.81	0	0	0	0	9.81	0	0	-9.81	0	0	0	0	0	-9.81	0	0	0	0	9.81	0
4.3	5.820874E-05	-50.33814	-6.675119	0.003223165	3.773993E-09	-3.534533E-10	5.83863E-05	-50.33814	-6.675116	0.003223165	3.778496E-09	-3.016724E-10	50.77879	0.003223165	8.004125E-08	-3.415095E-06	9.204745E-07	-20	0	0	0	0	0	0	0	2.621433E-09	50	6.407499E-05	0	0	0	0	0	0	15.03508	0	0	0	0	0	0	0	-1.370441E-08	9.81	-5.847216E-07	50	4.3	0	-9.81	0	0	0	0	0	-9.81	0	0	0	0	9.81	0	-1	0	-8.004125E-08	-1	-1.117945	18.16514	-12.26294	0.5878643	-60.30817	2.499956	8.004125E-08	-1	-3.415095E-06	0	-9.81	0	0	0	0	0	-9.81	0	0	0	0	9.81	0	0	-9.81	0	0	0	0	0	-9.81	0	0	0	0	9.81	0
4.4	-0.0006923478	-50.33888	-6.687703	0.003298224	-4.531597E-08	-3.53495E-10	-0.00069217	-50.33888	-6.6877	0.003298224	-4.531136E-08	-3.005053E-10	50.78118	0.003298224	8.004125E-08	-3.415095E-06	9.204745E-07	-20	0	0	0	0	0	0	0	2.621433E-09	50	6.556511E-05	0	0	0	0	0	0	15.03508	0	0	0	0	0	0	0	-1.370441E-08	9.81	-5.847216E-07	50	4.4	0	-9.81	0	0	0	0	0	-9.81	0	0	0	0	9.81	0	-1	0	-8.004125E-08	-1	-1.130309	18.88685	-13.40322	0.6115374	-65.88185	2.404438	8.004125E-08	-1	-3.415095E-06	0	-9.81	0	0	0	0	0	-9.81	0	0	0	0	9.81	0	0	-9.81	0	0	0	0	0	-9.81	0	0	0	0	9.81	0
4.5	-1.276281E-05	-50.34028	-6.674121	0.003373327	-8.083798E-10	-3.534672E-10	-1.258526E-05	-50.34028	-6.674118	0.003373327	-8.036673E-10	-2.992736E-10	50.78078	0.003373327	8.004125E-08	-3.415095E-06	9.204745E-07	-20	0	0	0	0	0	0	0	2.621433E-09	50	6.705523E-05	0	0	0	0	0	0	15.03508	0	0	0	0	0	0	0	-1.370441E-08	9.81	-5.847216E-07	50	4.5	0	-9.81	0	0	0	0	0	-9.81	0	0	0	0	9.81	0	-1	0	-8.004125E-08	-1	-1.117929	18.16301	-12.26013	0.5878128	-60.29261	2.500225	8.004125E-08	-1	-3.415095E-06	0	-9.81	0	0	0	0	0	-9.81	0	0	0	0	9.81	0	0	-9.81	0	0	0	0	0	-9.81	0	0	0	0	9.81	0
4.6	-0.0006712211	-50.33928	-6.687376	0.003448273	-4.593214E-08	-3.53495E-10	-0.0006710434	-50.33928	-6.687373	0.003448273	-4.592733E-08	-2.980947E-10	50.78153	0.003448273	8.004125E-08	-3.415095E-06	9.204745E-07	-20	0	0	0	0	0	0	0	2.621433E-09	50	6.854534E-05	0	0	0	0	0	0	15.03508	0	0	0	0	0	0	0	-1.370441E-08	9.81	-5.847216E-07	50	4.6	0	-9.81	0	0	0	0	0	-9.81	0	0	0	0	9.81	0	-1	0	-8.004125E-08	-1	-1.130283	18.87295	-13.38333	0.6111698	-65.77518	2.406196	8.004125E-08	-1	-3.415095E-06	0	-9.81	0	0	0	0	0	-9.81	0	0	0	0	9.81	0	0	-9.81	0	0	0	0	0	-9.81	0	0	0	0	9.81	0
4.7	-8.511578E-05	-50.33797	-6.675291	0.003523193	-5.910445E-09	-3.534533E-10	-8.493822E-05	-50.33797	-6.675288	0.003523193	-5.905524E-09	-2.968518E-10	50.77864	0.003523193	8.004125E-08	-3.415095E-06	9.204745E-07	-20	0	0	0	0	0	0	0	2.621433E-09	50	7.003546E-05	0	0	0	0	0	0	15.03508	0	0	0	0	0	0	0	-1.370441E-08	9.81	-5.847216E-07	50	4.7	0	-9.81	0	0	0	0	0	-9.81	0	0	0	0	9.81	0	-1	0	-8.004125E-08	-1	-1.117952	18.16003	-12.25601	0.5877341	-60.27052	2.500671	8.004125E-08	-1	-3.415095E-06	0	-9.81	0	0	0	0	0	-9.81	0	0	0	0	9.81	0	0	-9.81	0	0	0	0	0	-9.81	0	0	0	0	9.81	0
4.8	-0.0006510254	-50.55301	-6.55366	0.003613571	-4.648987E-08	-3.549938E-10	-0.0006508495	-50.55301	-6.553657	0.003613571	-4.648482E-08	-2.969379E-10	50.97604	0.003613571	8.004125E-08	-3.415095E-06	9.204745E-07	-19.91	0	0	0	0	0	0	0	2.621433E-09	50	7.152557E-05	0	0	0	0	0	0	15.04366	0	0	0	0	0	0	0	-1.370441E-08	9.81	-5.847216E-07	50	4.8	0	-9.81	0	0	0	0	0	-9.81	0	0	0	0	9.81	0	-1	0	-8.004125E-08	-1	-1.130938	18.86064	-13.35872	0.610488	-65.68472	2.409109	8.004125E-08	-1	-3.415095E-06	0	-9.81	0	0	0	0	0	-9.81	0	0	0	0	9.81	0	0	-9.81	0	0	0	0	0	-9.81	0	0	0	0	9.81	0
4.9	-0.0001579197	-50.62363	-6.497773	0.003694054	-1.147792E-08	-3.554518E-10	-0.0001577446	-50.62363	-6.49777	0.003694054	-1.147276E-08	-2.961049E-10	51.03893	0.003694054	8.004125E-08	-3.415095E-06	9.204745E-07	-19.88	0	0	0	0	0	0	0	2.621433E-09	50	7.301569E-05	0	0	0	0	0	0	15.04651	0	0	0	0	0	0	0	-1.370441E-08	9.81	-5.847216E-07	50	4.9	0	-9.81	0	0	0	0	0	-9.81	0	0	0	0	9.81	0	-1	0	-8.004125E-08	-1	-1.119038	18.16616	-12.2577	0.5875323	-60.31987	2.501713	8.004125E-08	-1	-3.415095E-06	0	-9.81	0	0	0	0	0	-9.81	0	0	0	0	9.81	0	0	-9.81	0	0	0	0	0	-9.81	0	0	0	0	9.81	0
5	-0.0006293458	-50.77942	-6.418819	0.003781093	-4.681672E-08	-3.565481E-10	-0.0006291718	-50.77942	-6.418816	0.003781093	-4.681143E-08	-2.958009E-10	51.1835	0.003781093	8.004125E-08	-3.415095E-06	9.204745E-07	-19.82	0	0	0	0	0	0	0	2.621433E-09	50	7.450581E-05	0	0	0	0	0	0	15.0522	0	0	0	0	0	0	0	-1.370441E-08	9.81	-5.847216E-07	50	5	0	-9.81	0	0	0	0	0	-9.81	0	0	0	0	9.81	0	-1	0	-8.004125E-08	-1	-1.131666	18.84114	-13.32408	0.6095781	-65.54433	2.413015	8.004125E-08	-1	-3.415095E-06	0	-9.81	0	0	0	0	0	-9.81	0	0	0	0	9.81	0	0	-9.81	0	0	0	0	0	-9.81	0	0	0	0	9.81	0
5.1	-0.000230399	-50.8834	-6.345774	0.003864657	-1.745453E-08	-3.572697E-10	-0.0002302259	-50.8834	-6.345771	0.003864657	-1.744913E-08	-2.951818E-10	51.27757	0.003864657	8.004125E-08	-3.415095E-06	9.204745E-07	-19.78	0	0	0	0	0	0	0	2.621433E-09	50	7.599592E-05	0	0	0	0	0	0	15.05598	0	0	0	0	0	0	0	-1.370441E-08	9.81	-5.847216E-07	50	5.1	0	-9.81	0	0	0	0	0	-9.81	0	0	0	0	9.81	0	-1	0	-8.004125E-08	-1	-1.119945	18.16905	-12.25642	0.5873212	-60.34487	2.502856	8.004125E-08	-1	-3.415095E-06	0	-9.81	0	0	0	0	0	-9.81	0	0	0	0	9.81	0	0	-9.81	0	0	0	0	0	-9.81	0	0	0	0	9.81	0
5.2	-0.0006075264	-51.13536	-6.217699	0.003959987	-4.700401E-08	-3.590461E-10	-0.0006073551	-51.13536	-6.217696	0.003959987	-4.699848E-08	-2.954249E-10	51.51199	0.003959987	8.004125E-08	-3.415095E-06	9.204745E-07	-19.69	0	0	0	0	0	0	0	2.621433E-09	50	7.748604E-05	0	0	0	0	0	0	15.06447	0	0	0	0	0	0	0	-1.370441E-08	9.81	-5.847216E-07	50	5.2	0	-9.81	0	0	0	0	0	-9.81	0	0	0	0	9.81	0	-1	0	-8.004125E-08	-1	-1.132651	18.82417	-13.29023	0.6085942	-65.42454	2.417137	8.004125E-08	-1	-3.415095E-06	0	-9.81	0	0	0	0	0	-9.81	0	0	0	0	9.81	0	0	-9.81	0	0	0	0	0	-9.81	0	0	0	0	9.81	0
5.3	-0.0003004423	-51.31642	-6.109278	0.004050478	-2.367145E-08	-3.603506E-10	-0.0003002725	-51.31642	-6.109275	0.004050478	-2.366579E-08	-2.95277E-10	51.67879	0.004050478	8.004125E-08	-3.415095E-06	9.204745E-07	-19.63	0	0	0	0	0	0	0	2.621433E-09	50	7.897615E-05	0	0	0	0	0	0	15.07011	0	0	0	0	0	0	0	-1.370441E-08	9.81	-5.847216E-07	50	5.3	0	-9.81	0	0	0	0	0	-9.81	0	0	0	0	9.81	0	-1	0	-8.004125E-08	-1	-1.121384	18.17297	-12.25411	0.5869673	-60.3829	2.5047	8.004125E-08	-1	-3.415095E-06	0	-9.81	0	0	0	0	0	-9.81	0	0	0	0	9.81	0	0	-9.81	0	0	0	0	0	-9.81	0	0	0	0	9.81	0
5.4	-0.0005853164	-51.50408	-6.023335	0.004142035	-4.702974E-08	-3.617106E-10	-0.0005851476	-51.50408	-6.023333	0.004142035	-4.702395E-08	-2.951648E-10	51.85509	0.004142035	8.004125E-08	-3.415095E-06	9.204745E-07	-19.57	0	0	0	0	0	0	0	2.621433E-09	50	8.046627E-05	0	0	0	0	0	0	15.07573	0	0	0	0	0	0	0	-1.370441E-08	9.81	-5.847216E-07	50	5.4	0	-9.81	0	0	0	0	0	-9.81	0	0	0	0	9.81	0	-1	0	-8.004125E-08	-1	-1.133537	18.80574	-13.25534	0.6076081	-65.29468	2.421263	8.004125E-08	-1	-3.415095E-06	0	-9.81	0	0	0	0	0	-9.81	0	0	0	0	9.81	0	0	-9.81	0	0	0	0	0	-9.81	0	0	0	0	9.81	0
5.5	-0.0003686323	-51.59047	-5.965236	0.004225861	-3.015341E-08	-3.622102E-10	-0.0003684644	-51.59047	-5.965233	0.004225861	-3.01475E-08	-2.943187E-10	51.9342	0.004225861	8.004125E-08	-3.415095E-06	9.204745E-07	-19.54	0	0	0	0	0	0	0	2.621433E-09	50	8.195639E-05	0	0	0	0	0	0	15.07853	0	0	0	0	0	0	0	-1.370441E-08	9.81	-5.847216E-07	50	5.5	0	-9.81	0	0	0	0	0	-9.81	0	0	0	0	9.81	0	-1	0	-8.004125E-08	-1	-1.122283	18.16977	-12.24631	0.5866353	-60.36797	2.506502	8.004125E-08	-1	-3.415095E-06	0	-9.81	0	0	0	0	0	-9.81	0	0	0	0	9.81	0	0	-9.81	0	0	0	0	0	-9.81	0	0	0	0	9.81	0
5.6	-0.0005628841	-51.69094	-5.926821	0.004311117	-4.690398E-08	-3.629874E-10	-0.0005627167	-51.69094	-5.926818	0.004311117	-4.689796E-08	-2.937252E-10	52.02961	0.004311117	8.004125E-08	-3.415095E-06	9.204745E-07	-19.51	0	0	0	0	0	0	0	2.621433E-09	50	8.34465E-05	0	0	0	0	0	0	15.08133	0	0	0	0	0	0	0	-1.370441E-08	9.81	-5.847216E-07	50	5.6	0	-9.81	0	0	0	0	0	-9.81	0	0	0	0	9.81	0	-1	0	-8.004125E-08	-1	-1.134065	18.78362	-13.22009	0.6067145	-65.14027	2.425053	8.004125E-08	-1	-3.415095E-06	0	-9.81	0	0	0	0	0	-9.81	0	0	0	0	9.81	0	0	-9.81	0	0	0	0	0	-9.81	0	0	0	0	9.81	0
5.7	-0.0004304197	-52.00805	-5.760881	0.004415062	-3.64987E-08	-3.652078E-10	-0.0004302545	-52.00805	-5.760878	0.004415062	-3.649254E-08	-2.942763E-10	52.32614	0.004415062	8.004125E-08	-3.415095E-06	9.204745E-07	-19.42	0	0	0	0	0	0	0	2.621433E-09	50	8.493662E-05	0	0	0	0	0	0	15.08971	0	0	0	0	0	0	0	-1.370441E-08	9.81	-5.847216E-07	50	5.7	0	-9.81	0	0	0	0	0	-9.81	0	0	0	0	9.81	0	-1	0	-8.004125E-08	-1	-1.123529	18.1672	-12.23891	0.5862297	-60.36473	2.508651	8.004125E-08	-1	-3.415095E-06	0	-9.81	0	0	0	0	0	-9.81	0	0	0	0	9.81	0	0	-9.81	0	0	0	0	0	-9.81	0	0	0	0	9.81	0
5.8	-0.0005404524	-52.21818	-5.670536	0.004510711	-4.664552E-08	-3.666511E-10	-0.0005402883	-52.21818	-5.670532	0.004510711	-4.663922E-08	-2.941824E-10	52.52517	0.004510711	8.004125E-08	-3.415095E-06	9.204745E-07	-19.36	0	0	0	0	0	0	0	2.621433E-09	50	8.642673E-05	0	0	0	0	0	0	15.09527	0	0	0	0	0	0	0	-1.370441E-08	9.81	-5.847216E-07	50	5.8	0	-9.81	0	0	0	0	0	-9.81	0	0	0	0	9.81	0	-1	0	-8.004125E-08	-1	-1.135169	18.76467	-13.18243	0.6055911	-65.00952	2.429697	8.004125E-08	-1	-3.415095E-06	0	-9.81	0	0	0	0	0	-9.81	0	0	0	0	9.81	0	0	-9.81	0	0	0	0	0	-9.81	0	0	0	0	9.81	0
5.9	-0.0004812882	-52.44807	-5.55348	0.004608726	-4.225284E-08	-3.682054E-10	-0.0004811257	-52.44807	-5.553476	0.004608726	-4.22464E-08	-2.941623E-10	52.74127	0.004608726	8.004125E-08	-3.415095E-06	9.204745E-07	-19.3	0	0	0	0	0	0	0	2.621433E-09	50	8.791685E-05	0	0	0	0	0	0	15.10082	0	0	0	0	0	0	0	-1.370441E-08	9.81	-5.847216E-07	50	5.9	0	-9.81	0	0	0	0	0	-9.81	0	0	0	0	9.81	0	-1	0	-8.004125E-08	-1	-1.125055	18.16014	-12.22767	0.5856646	-60.34398	2.511508	8.004125E-08	-1	-3.415095E-06	0	-9.81	0	0	0	0	0	-9.81	0	0	0	0	9.81	0	0	-9.81	0	0	0	0	0	-9.81	0	0	0	0	9.81	0
6	-0.0005189777	-52.69137	-5.454804	0.004708621	-4.633871E-08	-3.699818E-10	-0.0005188165	-52.69137	-5.454801	0.004708621	-4.633213E-08	-2.943336E-10	52.97297	0.004708621	8.004125E-08	-3.415095E-06	9.204745E-07	-19.24	0	0	0	0	0	0	0	2.621433E-09	50	8.940697E-05	0	0	0	0	0	0	15.10635	0	0	0	0	0	0	0	-1.370441E-08	9.81	-5.847216E-07	50	6	0	-9.81	0	0	0	0	0	-9.81	0	0	0	0	9.81	0	-1	0	-8.004125E-08	-1	-1.136027	18.74411	-13.14499	0.6045384	-64.86666	2.434073	8.004125E-08	-1	-3.415095E-06	0	-9.81	0	0	0	0	0	-9.81	0	0	0	0	9.81	0	0	-9.81	0	0	0	0	0	-9.81	0	0	0	0	9.81	0
6.1	-0.0005106874	-53.05199	-5.283612	0.004819896	-4.636005E-08	-3.725353E-10	-0.0005105283	-53.05199	-5.283608	0.004819896	-4.635332E-08	-2.950994E-10	53.31445	0.004819896	8.004125E-08	-3.415095E-06	9.204745E-07	-19.15	0	0	0	0	0	0	0	2.621433E-09	50	9.089708E-05	0	0	0	0	0	0	15.11461	0	0	0	0	0	0	0	-1.370441E-08	9.81	-5.847216E-07	50	6.1	0	-9.81	0	0	0	0	0	-9.81	0	0	0	0	9.81	0	-1	0	-8.004125E-08	-1	-1.127199	18.15384	-12.22083	0.5850127	-60.3565	2.514603	8.004125E-08	-1	-3.415095E-06	0	-9.81	0	0	0	0	0	-9.81	0	0	0	0	9.81	0	0	-9.81	0	0	0	0	0	-9.81	0	0	0	0	9.81	0
6.2	-0.0004976522	-53.04337	-5.295101	0.004898156	-4.591725E-08	-3.723688E-10	-0.0004974931	-53.04337	-5.295097	0.004898156	-4.591041E-08	-2.936756E-10	53.30701	0.004898156	8.004125E-08	-3.415095E-06	9.204745E-07	-19.15	0	0	0	0	0	0	0	2.621433E-09	50	9.23872E-05	0	0	0	0	0	0	15.11461	0	0	0	0	0	0	0	-1.370441E-08	9.81	-5.847216E-07	50	6.2	0	-9.81	0	0	0	0	0	-9.81	0	0	0	0	9.81	0	-1	0	-8.004125E-08	-1	-1.136757	18.72142	-13.10702	0.6035056	-64.7115	2.43838	8.004125E-08	-1	-3.415095E-06	0	-9.81	0	0	0	0	0	-9.81	0	0	0	0	9.81	0	0	-9.81	0	0	0	0	0	-9.81	0	0	0	0	9.81	0
6.3	-0.000504851	-53.44961	-5.114834	0.005015314	-4.733558E-08	-3.751998E-10	-0.0005046942	-53.44961	-5.11483	0.005015314	-4.732857E-08	-2.946244E-10	53.69378	0.005015314	8.004125E-08	-3.415095E-06	9.204745E-07	-19.06	0	0	0	0	0	0	0	2.621433E-09	50	9.387732E-05	0	0	0	0	0	0	15.12283	0	0	0	0	0	0	0	-1.370441E-08	9.81	-5.847216E-07	50	6.3	0	-9.81	0	0	0	0	0	-9.81	0	0	0	0	9.81	0	-1	0	-8.004125E-08	-1	-1.129525	18.13751	-12.21136	0.58421	-60.33828	2.518172	8.004125E-08	-1	-3.415095E-06	0	-9.81	0	0	0	0	0	-9.81	0	0	0	0	9.81	0	0	-9.81	0	0	0	0	0	-9.81	0	0	0	0	9.81	0
6.4	-0.0004754705	-53.90091	-4.932079	0.005137979	-4.528853E-08	-3.78475E-10	-0.000475316	-53.90091	-4.932076	0.005137979	-4.528136E-08	-2.959291E-10	54.12609	0.005137979	8.004125E-08	-3.415095E-06	9.204745E-07	-18.96	0	0	0	0	0	0	0	2.621433E-09	50	9.536743E-05	0	0	0	0	0	0	15.13193	0	0	0	0	0	0	0	-1.370441E-08	9.81	-5.847216E-07	50	6.4	0	-9.81	0	0	0	0	0	-9.81	0	0	0	0	9.81	0	-1	0	-8.004125E-08	-1	-1.138055	18.70553	-13.07073	0.6023331	-64.60309	2.443156	8.004125E-08	-1	-3.415095E-06	0	-9.81	0	0	0	0	0	-9.81	0	0	0	0	9.81	0	0	-9.81	0	0	0	0	0	-9.81	0	0	0	0	9.81	0
6.5	-0.0004264415	-53.89521	-4.929203	0.005217745	-4.125042E-08	-3.78475E-10	-0.000426287	-53.89521	-4.929199	0.005217745	-4.124313E-08	-2.946478E-10	54.12016	0.005217745	8.004125E-08	-3.415095E-06	9.204745E-07	-18.96	0	0	0	0	0	0	0	2.621433E-09	50	9.685755E-05	0	0	0	0	0	0	15.13193	0	0	0	0	0	0	0	-1.370441E-08	9.81	-5.847216E-07	50	6.5	0	-9.81	0	0	0	0	0	-9.81	0	0	0	0	9.81	0	-1	0	-8.004125E-08	-1	-1.13344	18.12832	-12.22649	0.5834025	-60.46597	2.520972	8.004125E-08	-1	-3.415095E-06	0	-9.81	0	0	0	0	0	-9.81	0	0	0	0	9.81	0	0	-9.81	0	0	0	0	0	-9.81	0	0	0	0	9.81	0
6.6	-0.000454141	-54.35352	-4.750694	0.00534311	-4.461002E-08	-3.816391E-10	-0.0004539888	-54.35352	-4.750691	0.00534311	-4.460256E-08	-2.957977E-10	54.56074	0.00534311	8.004125E-08	-3.415095E-06	9.204745E-07	-18.87	0	0	0	0	0	0	0	2.621433E-09	50	9.834766E-05	0	0	0	0	0	0	15.14008	0	0	0	0	0	0	0	-1.370441E-08	9.81	-5.847216E-07	50	6.6	0	-9.81	0	0	0	0	0	-9.81	0	0	0	0	9.81	0	-1	0	-8.004125E-08	-1	-1.138773	18.6831	-13.03281	0.6012929	-64.44974	2.447479	8.004125E-08	-1	-3.415095E-06	0	-9.81	0	0	0	0	0	-9.81	0	0	0	0	9.81	0	0	-9.81	0	0	0	0	0	-9.81	0	0	0	0	9.81	0
6.7	-0.0002158303	-54.4666	-4.70041	0.005435391	-2.150537E-08	-3.82444E-10	-0.0002156787	-54.4666	-4.700407	0.005435391	-2.149777E-08	-2.951215E-10	54.66904	0.005435391	8.004125E-08	-3.415095E-06	9.204745E-07	-18.84	0	0	0	0	0	0	0	2.621433E-09	50	9.983778E-05	0	0	0	0	0	0	15.14279	0	0	0	0	0	0	0	-1.370441E-08	9.81	-5.847216E-07	50	6.7	0	-9.81	0	0	0	0	0	-9.81	0	0	0	0	9.81	0	-1	0	-8.004125E-08	-1	-1.139855	18.12847	-12.27941	0.5825783	-60.81413	2.522642	8.004125E-08	-1	-3.415095E-06	0	-9.81	0	0	0	0	0	-9.81	0	0	0	0	9.81	0	0	-9.81	0	0	0	0	0	-9.81	0	0	0	0	9.81	0
6.8	-0.0004345167	-54.77203	-4.577826	0.005547484	-4.397707E-08	-3.845257E-10	-0.0004343666	-54.77203	-4.577823	0.005547484	-4.396932E-08	-2.95401E-10	54.96301	0.005547484	8.004125E-08	-3.415095E-06	9.204745E-07	-18.78001	0	0	0	0	0	0	0	2.621433E-09	50	0.0001013279	0	0	0	0	0	0	15.14819	0	0	0	0	0	0	0	-1.370441E-08	9.81	-5.847216E-07	50	6.8	0	-9.81	0	0	0	0	0	-9.81	0	0	0	0	9.81	0	-1	0	-8.004125E-08	-1	-1.139354	18.66006	-12.99513	0.6002936	-64.29095	2.451651	8.004125E-08	-1	-3.415095E-06	0	-9.81	0	0	0	0	0	-9.81	0	0	0	0	9.81	0	0	-9.81	0	0	0	0	0	-9.81	0	0	0	0	9.81	0
6.9	0.0001189027	-55.10221	-4.460427	0.005663038	1.225134E-08	-3.868988E-10	0.0001190514	-55.10221	-4.460424	0.005663038	1.225926E-08	-2.959211E-10	55.28245	0.005663038	8.004125E-08	-3.415095E-06	9.204745E-07	-18.72	0	0	0	0	0	0	0	2.621433E-09	50	0.000102818	0	0	0	0	0	0	15.15357	0	0	0	0	0	0	0	-1.370441E-08	9.81	-5.847216E-07	50	6.9	0	-9.81	0	0	0	0	0	-9.81	0	0	0	0	9.81	0	-1	0	-8.004125E-08	-1	-1.148179	18.14979	-12.38063	0.5821444	-61.43328	2.521465	8.004125E-08	-1	-3.415095E-06	0	-9.81	0	0	0	0	0	-9.81	0	0	0	0	9.81	0	0	-9.81	0	0	0	0	0	-9.81	0	0	0	0	9.81	0
7	-0.0004146381	-55.24162	-4.393424	0.005759681	-4.320075E-08	-3.879119E-10	-0.0004144903	-55.24162	-4.393421	0.005759681	-4.31927E-08	-2.953782E-10	55.41605	0.005759681	8.004125E-08	-3.415095E-06	9.204745E-07	-18.69	0	0	0	0	0	0	0	2.621433E-09	50	0.0001043081	0	0	0	0	0	0	15.15626	0	0	0	0	0	0	0	-1.370441E-08	9.81	-5.847216E-07	50	7	0	-9.81	0	0	0	0	0	-9.81	0	0	0	0	9.81	0	-1	0	-8.004125E-08	-1	-1.139953	18.63836	-12.95895	0.5993116	-64.14238	2.455715	8.004125E-08	-1	-3.415095E-06	0	-9.81	0	0	0	0	0	-9.81	0	0	0	0	9.81	0	0	-9.81	0	0	0	0	0	-9.81	0	0	0	0	9.81	0
7.1	0.0003846781	-55.40383	-4.345576	0.00585915	4.071158E-08	-3.890221E-10	0.0003848253	-55.40383	-4.345573	0.00585915	4.071977E-08	-2.948955E-10	55.57399	0.00585915	8.004125E-08	-3.415095E-06	9.204745E-07	-18.66	0	0	0	0	0	0	0	2.621433E-09	50	0.0001057982	0	0	0	0	0	0	15.15894	0	0	0	0	0	0	0	-1.370441E-08	9.81	-5.847216E-07	50	7.1	0	-9.81	0	0	0	0	0	-9.81	0	0	0	0	9.81	0	-1	0	-8.004125E-08	-1	-1.153826	18.1877	-12.48549	0.5826043	-62.03398	2.517021	8.004125E-08	-1	-3.415095E-06	0	-9.81	0	0	0	0	0	-9.81	0	0	0	0	9.81	0	0	-9.81	0	0	0	0	0	-9.81	0	0	0	0	9.81	0
7.2	-0.0003931954	-55.92508	-4.135984	0.005997608	-4.213868E-08	-3.926303E-10	-0.0003930509	-55.92508	-4.135981	0.005997608	-4.21303E-08	-2.962744E-10	56.07781	0.005997608	8.004125E-08	-3.415095E-06	9.204745E-07	-18.57	0	0	0	0	0	0	0	2.621433E-09	50	0.0001072884	0	0	0	0	0	0	15.16696	0	0	0	0	0	0	0	-1.370441E-08	9.81	-5.847216E-07	50	7.2	0	-9.81	0	0	0	0	0	-9.81	0	0	0	0	9.81	0	-1	0	-8.004125E-08	-1	-1.140779	18.61867	-12.92281	0.5982628	-64.00793	2.460037	8.004125E-08	-1	-3.415095E-06	0	-9.81	0	0	0	0	0	-9.81	0	0	0	0	9.81	0	0	-9.81	0	0	0	0	0	-9.81	0	0	0	0	9.81	0
7.3	0.0003972421	-56.26455	-4.022452	0.006117858	4.322188E-08	-3.950173E-10	0.0003973853	-56.26455	-4.022449	0.006117858	4.323043E-08	-2.967346E-10	56.40816	0.006117858	8.004125E-08	-3.415095E-06	9.204745E-07	-18.51	0	0	0	0	0	0	0	2.621433E-09	50	0.0001087785	0	0	0	0	0	0	15.17229	0	0	0	0	0	0	0	-1.370441E-08	9.81	-5.847216E-07	50	7.3	0	-9.81	0	0	0	0	0	-9.81	0	0	0	0	9.81	0	-1	0	-8.004125E-08	-1	-1.155144	18.27095	-12.59379	0.5845686	-62.64729	2.507606	8.004125E-08	-1	-3.415095E-06	0	-9.81	0	0	0	0	0	-9.81	0	0	0	0	9.81	0	0	-9.81	0	0	0	0	0	-9.81	0	0	0	0	9.81	0
7.4	-0.0003751038	-56.23719	-4.013243	0.006198683	-4.131724E-08	-3.948508E-10	-0.0003749608	-56.23719	-4.01324	0.006198683	-4.130858E-08	-2.952646E-10	56.38021	0.006198683	8.004125E-08	-3.415095E-06	9.204745E-07	-18.51	0	0	0	0	0	0	0	2.621433E-09	50	0.0001102686	0	0	0	0	0	0	15.17229	0	0	0	0	0	0	0	-1.370441E-08	9.81	-5.847216E-07	50	7.4	0	-9.81	0	0	0	0	0	-9.81	0	0	0	0	9.81	0	-1	0	-8.004125E-08	-1	-1.141186	18.59506	-12.88667	0.5973285	-63.84769	2.463924	8.004125E-08	-1	-3.415095E-06	0	-9.81	0	0	0	0	0	-9.81	0	0	0	0	9.81	0	0	-9.81	0	0	0	0	0	-9.81	0	0	0	0	9.81	0
7.5	0.0002411193	-56.86986	-3.797982	0.006353159	2.696307E-08	-3.993194E-10	0.0002412597	-56.86986	-3.797978	0.006353159	2.697194E-08	-2.972556E-10	56.99654	0.006353159	8.004125E-08	-3.415095E-06	9.204745E-07	-18.41	0	0	0	0	0	0	0	2.621433E-09	50	0.0001117587	0	0	0	0	0	0	15.18113	0	0	0	0	0	0	0	-1.370441E-08	9.81	-5.847216E-07	50	7.5	0	-9.81	0	0	0	0	0	-9.81	0	0	0	0	9.81	0	-1	0	-8.004125E-08	-1	-1.153266	18.34435	-12.65986	0.5866613	-63.00338	2.49902	8.004125E-08	-1	-3.415095E-06	0	-9.81	0	0	0	0	0	-9.81	0	0	0	0	9.81	0	0	-9.81	0	0	0	0	0	-9.81	0	0	0	0	9.81	0
7.6	-0.0003522822	-57.04423	-3.720331	0.006457638	-3.985367E-08	-4.005129E-10	-0.0003521427	-57.04423	-3.720328	0.006457638	-3.984465E-08	-2.967666E-10	57.16542	0.006457638	8.004125E-08	-3.415095E-06	9.204745E-07	-18.38	0	0	0	0	0	0	0	2.621433E-09	50	0.0001132488	0	0	0	0	0	0	15.18378	0	0	0	0	0	0	0	-1.370441E-08	9.81	-5.847216E-07	50	7.6	0	-9.81	0	0	0	0	0	-9.81	0	0	0	0	9.81	0	-1	0	-8.004125E-08	-1	-1.141938	18.5791	-12.85505	0.5963845	-63.73709	2.467765	8.004125E-08	-1	-3.415095E-06	0	-9.81	0	0	0	0	0	-9.81	0	0	0	0	9.81	0	0	-9.81	0	0	0	0	0	-9.81	0	0	0	0	9.81	0
7.7	4.949783E-05	-57.42022	-3.593552	0.006585767	5.70235E-09	-4.031705E-10	4.963577E-05	-57.42022	-3.593549	0.006585767	5.71155E-09	-2.973685E-10	57.53256	0.006585767	8.004125E-08	-3.415095E-06	9.204745E-07	-18.32	0	0	0	0	0	0	0	2.621433E-09	50	0.0001147389	0	0	0	0	0	0	15.18905	0	0	0	0	0	0	0	-1.370441E-08	9.81	-5.847216E-07	50	7.7	0	-9.81	0	0	0	0	0	-9.81	0	0	0	0	9.81	0	-1	0	-8.004125E-08	-1	-1.150909	18.40847	-12.71034	0.5885772	-63.26906	2.491503	8.004125E-08	-1	-3.415095E-06	0	-9.81	0	0	0	0	0	-9.81	0	0	0	0	9.81	0	0	-9.81	0	0	0	0	0	-9.81	0	0	0	0	9.81	0
7.8	-0.0003267948	-58.10219	-3.346834	0.006750564	-3.794495E-08	-4.079792E-10	-0.0003266599	-58.10219	-3.34683	0.006750564	-3.793552E-08	-2.99527E-10	58.1985	0.006750564	8.004125E-08	-3.415095E-06	9.204745E-07	-18.22	0	0	0	0	0	0	0	2.621433E-09	50	0.0001162291	0	0	0	0	0	0	15.19781	0	0	0	0	0	0	0	-1.370441E-08	9.81	-5.847216E-07	50	7.8	0	-9.81	0	0	0	0	0	-9.81	0	0	0	0	9.81	0	-1	0	-8.004125E-08	-1	-1.142896	18.56671	-12.82541	0.5954225	-63.6504	2.471652	8.004125E-08	-1	-3.415095E-06	0	-9.81	0	0	0	0	0	-9.81	0	0	0	0	9.81	0	0	-9.81	0	0	0	0	0	-9.81	0	0	0	0	9.81	0
7.9	-0.0002166954	-58.73059	-3.135312	0.00691109	-2.547752E-08	-4.123923E-10	-0.000216563	-58.73059	-3.135308	0.00691109	-2.546787E-08	-3.01362E-10	58.81422	0.00691109	8.004125E-08	-3.415095E-06	9.204745E-07	-18.13	0	0	0	0	0	0	0	2.621433E-09	50	0.0001177192	0	0	0	0	0	0	15.20565	0	0	0	0	0	0	0	-1.370441E-08	9.81	-5.847216E-07	50	7.9	0	-9.81	0	0	0	0	0	-9.81	0	0	0	0	9.81	0	-1	0	-8.004125E-08	-1	-1.148362	18.48314	-12.75968	0.5905784	-63.5562	2.483929	8.004125E-08	-1	-3.415095E-06	0	-9.81	0	0	0	0	0	-9.81	0	0	0	0	9.81	0	0	-9.81	0	0	0	0	0	-9.81	0	0	0	0	9.81	0
8	-0.000301914	-58.97342	-3.039497	0.007027545	-3.59561E-08	-4.140854E-10	-0.0003017828	-58.97342	-3.039494	0.007027545	-3.594628E-08	-3.011836E-10	59.0517	0.007027545	8.004125E-08	-3.415095E-06	9.204745E-07	-18.09	0	0	0	0	0	0	0	2.621433E-09	50	0.0001192093	0	0	0	0	0	0	15.20912	0	0	0	0	0	0	0	-1.370441E-08	9.81	-5.847216E-07	50	8	0	-9.81	0	0	0	0	0	-9.81	0	0	0	0	9.81	0	-1	0	-8.004125E-08	-1	-1.143574	18.55448	-12.79887	0.5945984	-63.56482	2.474946	8.004125E-08	-1	-3.415095E-06	0	-9.81	0	0	0	0	0	-9.81	0	0	0	0	9.81	0	0	-9.81	0	0	0	0	0	-9.81	0	0	0	0	9.81	0
8.1	-0.0003682925	-59.42081	-2.892885	0.007169401	-4.441591E-08	-4.172218E-10	-0.000368163	-59.42081	-2.892881	0.007169401	-4.44059E-08	-3.020405E-10	59.49119	0.007169401	8.004125E-08	-3.415095E-06	9.204745E-07	-18.03	0	0	0	0	0	0	0	2.621433E-09	50	0.0001206994	0	0	0	0	0	0	15.21431	0	0	0	0	0	0	0	-1.370441E-08	9.81	-5.847216E-07	50	8.1	0	-9.81	0	0	0	0	0	-9.81	0	0	0	0	9.81	0	-1	0	-8.004125E-08	-1	-1.147265	18.53184	-12.80035	0.591898	-63.78427	2.478795	8.004125E-08	-1	-3.415095E-06	0	-9.81	0	0	0	0	0	-9.81	0	0	0	0	9.81	0	0	-9.81	0	0	0	0	0	-9.81	0	0	0	0	9.81	0
8.2	-0.000281251	-59.40763	-2.891618	0.007256332	-3.433308E-08	-4.17194E-10	-0.0002811216	-59.40763	-2.891615	0.007256332	-3.432294E-08	-3.006168E-10	59.47797	0.007256332	8.004125E-08	-3.415095E-06	9.204745E-07	-18.03	0	0	0	0	0	0	0	2.621433E-09	50	0.0001221895	0	0	0	0	0	0	15.21431	0	0	0	0	0	0	0	-1.370441E-08	9.81	-5.847216E-07	50	8.2	0	-9.81	0	0	0	0	0	-9.81	0	0	0	0	9.81	0	-1	0	-8.004125E-08	-1	-1.14387	18.53399	-12.76676	0.5937664	-63.42407	2.478378	8.004125E-08	-1	-3.415095E-06	0	-9.81	0	0	0	0	0	-9.81	0	0	0	0	9.81	0	0	-9.81	0	0	0	0	0	-9.81	0	0	0	0	9.81	0
8.3	-0.0004362212	-59.34492	-2.905268	0.007337105	-5.391175E-08	-4.167222E-10	-0.0004360916	-59.34492	-2.905264	0.007337105	-5.39015E-08	-2.988461E-10	59.416	0.007337105	8.004125E-08	-3.415095E-06	9.204745E-07	-18.03	0	0	0	0	0	0	0	2.621433E-09	50	0.0001236796	0	0	0	0	0	0	15.21431	0	0	0	0	0	0	0	-1.370441E-08	9.81	-5.847216E-07	50	8.3	0	-9.81	0	0	0	0	0	-9.81	0	0	0	0	9.81	0	-1	0	-8.004125E-08	-1	-1.146655	18.56097	-12.8351	0.592892	-63.95058	2.474778	8.004125E-08	-1	-3.415095E-06	0	-9.81	0	0	0	0	0	-9.81	0	0	0	0	9.81	0	0	-9.81	0	0	0	0	0	-9.81	0	0	0	0	9.81	0
8.4	-0.0002665649	-59.333	-2.904538	0.007424047	-3.333357E-08	-4.166112E-10	-0.0002664354	-59.333	-2.904534	0.007424047	-3.33232E-08	-2.973395E-10	59.40405	0.007424047	8.004125E-08	-3.415095E-06	9.204745E-07	-18.03	0	0	0	0	0	0	0	2.621433E-09	50	0.0001251698	0	0	0	0	0	0	15.21431	0	0	0	0	0	0	0	-1.370441E-08	9.81	-5.847216E-07	50	8.4	0	-9.81	0	0	0	0	0	-9.81	0	0	0	0	9.81	0	-1	0	-8.004125E-08	-1	-1.144011	18.50551	-12.72893	0.5928531	-63.23624	2.482211	8.004125E-08	-1	-3.415095E-06	0	-9.81	0	0	0	0	0	-9.81	0	0	0	0	9.81	0	0	-9.81	0	0	0	0	0	-9.81	0	0	0	0	9.81	0
8.5	-0.0005040048	-59.34085	-2.905551	0.007513452	-6.379426E-08	-4.166667E-10	-0.0005038753	-59.34085	-2.905547	0.007513452	-6.378377E-08	-2.959569E-10	59.41195	0.007513452	8.004125E-08	-3.415095E-06	9.204745E-07	-18.03	0	0	0	0	0	0	0	2.621433E-09	50	0.0001266599	0	0	0	0	0	0	15.21431	0	0	0	0	0	0	0	-1.370441E-08	9.81	-5.847216E-07	50	8.5	0	-9.81	0	0	0	0	0	-9.81	0	0	0	0	9.81	0	-1	0	-8.004125E-08	-1	-1.14612	18.58975	-12.86942	0.5938576	-64.11658	2.470899	8.004125E-08	-1	-3.415095E-06	0	-9.81	0	0	0	0	0	-9.81	0	0	0	0	9.81	0	0	-9.81	0	0	0	0	0	-9.81	0	0	0	0	9.81	0
8.6	-0.0002541966	-59.33477	-2.904135	0.007601096	-3.254356E-08	-4.166112E-10	-0.0002540671	-59.33477	-2.904132	0.007601096	-3.253294E-08	-2.944953E-10	59.4058	0.007601096	8.004125E-08	-3.415095E-06	9.204745E-07	-18.03	0	0	0	0	0	0	0	2.621433E-09	50	0.00012815	0	0	0	0	0	0	15.21431	0	0	0	0	0	0	0	-1.370441E-08	9.81	-5.847216E-07	50	8.6	0	-9.81	0	0	0	0	0	-9.81	0	0	0	0	9.81	0	-1	0	-8.004125E-08	-1	-1.144103	18.47782	-12.69223	0.5919734	-63.05312	2.485897	8.004125E-08	-1	-3.415095E-06	0	-9.81	0	0	0	0	0	-9.81	0	0	0	0	9.81	0	0	-9.81	0	0	0	0	0	-9.81	0	0	0	0	9.81	0
8.7	-0.0005670805	-59.33252	-2.906594	0.007689219	-7.347062E-08	-4.166112E-10	-0.0005669509	-59.33252	-2.90659	0.007689219	-7.345987E-08	-2.930771E-10	59.40367	0.007689219	8.004125E-08	-3.415095E-06	9.204745E-07	-18.03	0	0	0	0	0	0	0	2.621433E-09	50	0.0001296401	0	0	0	0	0	0	15.21431	0	0	0	0	0	0	0	-1.370441E-08	9.81	-5.847216E-07	50	8.7	0	-9.81	0	0	0	0	0	-9.81	0	0	0	0	9.81	0	-1	0	-8.004125E-08	-1	-1.145755	18.61805	-12.90393	0.5947765	-64.2869	2.4672	8.004125E-08	-1	-3.415095E-06	0	-9.81	0	0	0	0	0	-9.81	0	0	0	0	9.81	0	0	-9.81	0	0	0	0	0	-9.81	0	0	0	0	9.81	0
8.8	-0.0002441732	-59.33054	-2.905327	0.007777372	-3.198718E-08	-4.166389E-10	-0.0002440436	-59.33054	-2.905324	0.007777372	-3.197632E-08	-2.916911E-10	59.40163	0.007777372	8.004125E-08	-3.415095E-06	9.204745E-07	-18.03	0	0	0	0	0	0	0	2.621433E-09	50	0.0001311302	0	0	0	0	0	0	15.21431	0	0	0	0	0	0	0	-1.370441E-08	9.81	-5.847216E-07	50	8.8	0	-9.81	0	0	0	0	0	-9.81	0	0	0	0	9.81	0	-1	0	-8.004125E-08	-1	-1.14428	18.44979	-12.65532	0.5910621	-62.87119	2.489712	8.004125E-08	-1	-3.415095E-06	0	-9.81	0	0	0	0	0	-9.81	0	0	0	0	9.81	0	0	-9.81	0	0	0	0	0	-9.81	0	0	0	0	9.81	0
8.9	-0.0006259698	-59.33653	-2.905283	0.007866579	-8.296796E-08	-4.166667E-10	-0.0006258403	-59.33653	-2.905279	0.007866579	-8.295697E-08	-2.902827E-10	59.40761	0.007866579	8.004125E-08	-3.415095E-06	9.204745E-07	-18.03	0	0	0	0	0	0	0	2.621433E-09	50	0.0001326203	0	0	0	0	0	0	15.21431	0	0	0	0	0	0	0	-1.370441E-08	9.81	-5.847216E-07	50	8.9	0	-9.81	0	0	0	0	0	-9.81	0	0	0	0	9.81	0	-1	0	-8.004125E-08	-1	-1.145377	18.64547	-12.93805	0.5956903	-64.45276	2.463538	8.004125E-08	-1	-3.415095E-06	0	-9.81	0	0	0	0	0	-9.81	0	0	0	0	9.81	0	0	-9.81	0	0	0	0	0	-9.81	0	0	0	0	9.81	0
9	-0.0002375148	-59.33128	-2.905268	0.007954289	-3.18222E-08	-4.166112E-10	-0.0002373852	-59.33128	-2.905264	0.007954289	-3.181109E-08	-2.888211E-10	59.40237	0.007954289	8.004125E-08	-3.415095E-06	9.204745E-07	-18.03	0	0	0	0	0	0	0	2.621433E-09	50	0.0001341105	0	0	0	0	0	0	15.21431	0	0	0	0	0	0	0	-1.370441E-08	9.81	-5.847216E-07	50	9	0	-9.81	0	0	0	0	0	-9.81	0	0	0	0	9.81	0	-1	0	-8.004125E-08	-1	-1.144441	18.42234	-12.61962	0.5901755	-62.69459	2.493407	8.004125E-08	-1	-3.415095E-06	0	-9.81	0	0	0	0	0	-9.81	0	0	0	0	9.81	0	0	-9.81	0	0	0	0	0	-9.81	0	0	0	0	9.81	0
9.1	-0.000680732	-59.33144	-2.906251	0.008042723	-9.225683E-08	-4.165557E-10	-0.0006806024	-59.33144	-2.906248	0.008042723	-9.22456E-08	-2.873413E-10	59.40258	0.008042723	8.004125E-08	-3.415095E-06	9.204745E-07	-18.03	0	0	0	0	0	0	0	2.621433E-09	50	0.0001356006	0	0	0	0	0	0	15.21431	0	0	0	0	0	0	0	-1.370441E-08	9.81	-5.847216E-07	50	9.1	0	-9.81	0	0	0	0	0	-9.81	0	0	0	0	9.81	0	-1	0	-8.004125E-08	-1	-1.145126	18.67135	-12.97066	0.5965368	-64.6131	2.46017	8.004125E-08	-1	-3.415095E-06	0	-9.81	0	0	0	0	0	-9.81	0	0	0	0	9.81	0	0	-9.81	0	0	0	0	0	-9.81	0	0	0	0	9.81	0
9.2	-0.0002334597	-59.33643	-2.904344	0.008131815	-3.197432E-08	-4.166667E-10	-0.0002333301	-59.33643	-2.90434	0.008131815	-3.196296E-08	-2.860246E-10	59.40747	0.008131815	8.004125E-08	-3.415095E-06	9.204745E-07	-18.03	0	0	0	0	0	0	0	2.621433E-09	50	0.0001370907	0	0	0	0	0	0	15.21431	0	0	0	0	0	0	0	-1.370441E-08	9.81	-5.847216E-07	50	9.2	0	-9.81	0	0	0	0	0	-9.81	0	0	0	0	9.81	0	-1	0	-8.004125E-08	-1	-1.144618	18.39539	-12.58505	0.5893043	-62.52366	2.497022	8.004125E-08	-1	-3.415095E-06	0	-9.81	0	0	0	0	0	-9.81	0	0	0	0	9.81	0	0	-9.81	0	0	0	0	0	-9.81	0	0	0	0	9.81	0
9.3	-0.0007309135	-59.33242	-2.905655	0.00821968	-1.012375E-07	-4.166667E-10	-0.0007307839	-59.33242	-2.905652	0.00821968	-1.01226E-07	-2.846089E-10	59.40352	0.00821968	8.004125E-08	-3.415095E-06	9.204745E-07	-18.03	0	0	0	0	0	0	0	2.621433E-09	50	0.0001385808	0	0	0	0	0	0	15.21431	0	0	0	0	0	0	0	-1.370441E-08	9.81	-5.847216E-07	50	9.3	0	-9.81	0	0	0	0	0	-9.81	0	0	0	0	9.81	0	-1	0	-8.004125E-08	-1	-1.144866	18.6967	-13.00315	0.5973814	-64.7712	2.456815	8.004125E-08	-1	-3.415095E-06	0	-9.81	0	0	0	0	0	-9.81	0	0	0	0	9.81	0	0	-9.81	0	0	0	0	0	-9.81	0	0	0	0	9.81	0
9.4	-0.0002325623	-59.33072	-2.905953	0.008307852	-3.254443E-08	-4.166112E-10	-0.0002324327	-59.33072	-2.90595	0.008307852	-3.253282E-08	-2.83141E-10	59.40184	0.008307852	8.004125E-08	-3.415095E-06	9.204745E-07	-18.03	0	0	0	0	0	0	0	2.621433E-09	50	0.0001400709	0	0	0	0	0	0	15.21431	0	0	0	0	0	0	0	-1.370441E-08	9.81	-5.847216E-07	50	9.4	0	-9.81	0	0	0	0	0	-9.81	0	0	0	0	9.81	0	-1	0	-8.004125E-08	-1	-1.144915	18.36851	-12.55102	0.5884064	-62.3585	2.500729	8.004125E-08	-1	-3.415095E-06	0	-9.81	0	0	0	0	0	-9.81	0	0	0	0	9.81	0	0	-9.81	0	0	0	0	0	-9.81	0	0	0	0	9.81	0
9.5	-0.000776677	-59.33842	-2.90415	0.008397353	-1.098921E-07	-4.166667E-10	-0.0007765475	-59.33842	-2.904147	0.008397353	-1.098804E-07	-2.81754E-10	59.40944	0.008397353	8.004125E-08	-3.415095E-06	9.204745E-07	-18.03	0	0	0	0	0	0	0	2.621433E-09	50	0.000141561	0	0	0	0	0	0	15.21431	0	0	0	0	0	0	0	-1.370441E-08	9.81	-5.847216E-07	50	9.5	0	-9.81	0	0	0	0	0	-9.81	0	0	0	0	9.81	0	-1	0	-8.004125E-08	-1	-1.144625	18.7213	-13.0351	0.5982093	-64.92579	2.453545	8.004125E-08	-1	-3.415095E-06	0	-9.81	0	0	0	0	0	-9.81	0	0	0	0	9.81	0	0	-9.81	0	0	0	0	0	-9.81	0	0	0	0	9.81	0
9.6	-0.0002352518	-59.33215	-2.905894	0.00848488	-3.362213E-08	-4.165834E-10	-0.0002351223	-59.33215	-2.90589	0.00848488	-3.361027E-08	-2.802692E-10	59.40326	0.00848488	8.004125E-08	-3.415095E-06	9.204745E-07	-18.03	0	0	0	0	0	0	0	2.621433E-09	50	0.0001430511	0	0	0	0	0	0	15.21431	0	0	0	0	0	0	0	-1.370441E-08	9.81	-5.847216E-07	50	9.6	0	-9.81	0	0	0	0	0	-9.81	0	0	0	0	9.81	0	-1	0	-8.004125E-08	-1	-1.145204	18.34285	-12.51935	0.5875562	-62.20415	2.504205	8.004125E-08	-1	-3.415095E-06	0	-9.81	0	0	0	0	0	-9.81	0	0	0	0	9.81	0	0	-9.81	0	0	0	0	0	-9.81	0	0	0	0	9.81	0
9.7	-0.0008186668	-59.33146	-2.905491	0.008573191	-1.182741E-07	-4.165557E-10	-0.0008185373	-59.33146	-2.905488	0.008573191	-1.182622E-07	-2.788176E-10	59.40256	0.008573191	8.004125E-08	-3.415095E-06	9.204745E-07	-18.03	0	0	0	0	0	0	0	2.621433E-09	50	0.0001445413	0	0	0	0	0	0	15.21431	0	0	0	0	0	0	0	-1.370441E-08	9.81	-5.847216E-07	50	9.7	0	-9.81	0	0	0	0	0	-9.81	0	0	0	0	9.81	0	-1	0	-8.004125E-08	-1	-1.144503	18.74418	-13.06498	0.5989593	-65.07258	2.450607	8.004125E-08	-1	-3.415095E-06	0	-9.81	0	0	0	0	0	-9.81	0	0	0	0	9.81	0	0	-9.81	0	0	0	0	0	-9.81	0	0	0	0	9.81	0
9.8	-0.0002415833	-59.33934	-2.904821	0.008662755	-3.524755E-08	-4.166112E-10	-0.0002414538	-59.33934	-2.904817	0.008662755	-3.523544E-08	-2.774392E-10	59.41039	0.008662755	8.004125E-08	-3.415095E-06	9.204745E-07	-18.03	0	0	0	0	0	0	0	2.621433E-09	50	0.0001460314	0	0	0	0	0	0	15.21431	0	0	0	0	0	0	0	-1.370441E-08	9.81	-5.847216E-07	50	9.8	0	-9.81	0	0	0	0	0	-9.81	0	0	0	0	9.81	0	-1	0	-8.004125E-08	-1	-1.145535	18.31853	-12.49026	0.5867422	-62.06327	2.507483	8.004125E-08	-1	-3.415095E-06	0	-9.81	0	0	0	0	0	-9.81	0	0	0	0	9.81	0	0	-9.81	0	0	0	0	0	-9.81	0	0	0	0	9.81	0
9.9	-0.0008563618	-59.33294	-2.904925	0.00875023	-1.262731E-07	-4.166667E-10	-0.0008562322	-59.33294	-2.904922	0.00875023	-1.262608E-07	-2.76084E-10	59.404	0.00875023	8.004125E-08	-3.415095E-06	9.204745E-07	-18.03	0	0	0	0	0	0	0	2.621433E-09	50	0.0001475215	0	0	0	0	0	0	15.21431	0	0	0	0	0	0	0	-1.370441E-08	9.81	-5.847216E-07	50	9.9	0	-9.81	0	0	0	0	0	-9.81	0	0	0	0	9.81	0	-1	0	-8.004125E-08	-1	-1.144338	18.76656	-13.09454	0.5997137	-65.21555	2.447663	8.004125E-08	-1	-3.415095E-06	0	-9.81	0	0	0	0	0	-9.81	0	0	0	0	9.81	0	0	-9.81	0	0	0	0	0	-9.81	0	0	0	0	9.81	0
10	-0.0002523505	-59.33151	-2.907026	0.008838431	-3.757147E-08	-4.166112E-10	-0.0002522209	-59.33151	-2.907022	0.008838431	-3.755913E-08	-2.746168E-10	59.40269	0.008838431	8.004125E-08	-3.415095E-06	9.204745E-07	-18.03	0	0	0	0	0	0	0	2.621433E-09	50	0.0001490116	0	0	0	0	0	0	15.21431	0	0	0	0	0	0	0	-1.370441E-08	9.81	-5.847216E-07	50	10	0	-9.81	0	0	0	0	0	-9.81	0	0	0	0	9.81	0	-1	0	-8.004125E-08	-1	-1.146042	18.29515	-12.46326	0.5859178	-61.93714	2.510753	8.004125E-08	-1	-3.415095E-06	0	-9.81	0	0	0	0	0	-9.81	0	0	0	0	9.81	0	0	-9.81	0	0	0	0	0	-9.81	0	0	0	0	9.81	0
10.1	-0.0008899521	-59.34056	-2.903301	0.008928207	-1.338792E-07	-4.166667E-10	-0.0008898226	-59.34056	-2.903297	0.008928207	-1.338667E-07	-2.732243E-10	59.41154	0.008928207	8.004125E-08	-3.415095E-06	9.204745E-07	-18.03	0	0	0	0	0	0	0	2.621433E-09	50	0.0001505017	0	0	0	0	0	0	15.21431	0	0	0	0	0	0	0	-1.370441E-08	9.81	-5.847216E-07	50	10.1	0	-9.81	0	0	0	0	0	-9.81	0	0	0	0	9.81	0	-1	0	-8.004125E-08	-1	-1.144171	18.78795	-13.12303	0.6004446	-65.35226	2.444825	8.004125E-08	-1	-3.415095E-06	0	-9.81	0	0	0	0	0	-9.81	0	0	0	0	9.81	0	0	-9.81	0	0	0	0	0	-9.81	0	0	0	0	9.81	0
