Time	Aircraft Simulation Net Global Force X	Aircraft Simulation Net Global Force Y	Aircraft Simulation Net Global Force Z	Aircraft Simulation Net Global Moment X	Aircraft Simulation Net Global Moment Y	Aircraft Simulation Net Global Moment Z	Aircraft Simulation Roll Angle	Aircraft Simulation Pitch Angle	Aircraft Simulation Heading Angle	Aircraft Simulation Angle Of Attack_Deg	Aircraft Simulation Angle Of Sideslip_Deg	Aircraft Simulation Roll Rate	Aircraft Simulation Pitch Rate	Aircraft Simulation Yaw Rate	Aircraft Simulation Angular Velocity X	Aircraft Simulation Angular Velocity Y	Aircraft Simulation Angular Velocity Z	Aircraft Simulation Position X	Aircraft Simulation Position Y	Aircraft Simulation Position Z	Aircraft Simulation Global Velocity X	Aircraft Simulation Global Velocity Y	Aircraft Simulation Global Velocity Z	Aircraft Simulation Local Velocity X	Aircraft Simulation Local Velocity Y	Aircraft Simulation Local Velocity Z	Aircraft Simulation Airspeed	Aircraft Simulation Ground Speed	Aircraft Simulation Acceleration X	Aircraft Simulation Acceleration Y	Aircraft Simulation Acceleration Z	Aircraft Simulation Local Acceleration X	Aircraft Simulation Local Acceleration Y	Aircraft Simulation Local Acceleration Z	Aircraft Simulation Imu Acceleration X	Aircraft Simulation Imu Acceleration Y	Aircraft Simulation Imu Acceleration Z	Aircraft Simulation Altitude	Aircraft Simulation Time	Electronic Speed Controller Input Value	Fin Input Value	Port Aileron Input Value	Port Flap Input Value	Propeller Total Thrust	Propeller Advance Ratio	Propeller Thrust Coefficient	Propeller Torque Coefficient	Propeller Propulsive Efficiency	Propeller Rps	Starboard Aileron Input Value	Starboard Flap Input Value	Tailplane Input Value
0.018	-0.001246082	48.12653	-3.772156	1.818989E-09	-0.001140047	0.05563212	8.179214E-13	0.01443481	-1.515099E-13	2.002988	0	7.247495E-12	0.01546353	1.605358E-15	-0.01546353	1.605358E-15	-7.247495E-12	-2.092458E-15	50.00004	-2.515316E-05	0	-8.616596E-06	-2.129492E-05	6.661779E-20	-8.61123E-06	-2.129709E-05	15.98833	2.297215E-05	-2.842171E-11	0.0006956979	0.001719803	-2.842171E-11	0.0006952645	0.001719979	-2.856176E-11	9.810695	0.004191743	50.00004	0.018	-1	0	0	-1	-1.205065	9.190789	-2.98772	0.3048531	-14.33581	5.258414	0	-1	0.5
0.038	-7.220606E-05	49.16202	-3.880636	1.818989E-09	0.0003301436	0.03978452	-1.421184E-14	-0.003932482	-6.054909E-14	2.02196	0	-2.962955E-12	-0.04460266	-5.682419E-13	0.04460266	-5.682419E-13	2.962955E-12	-5.786314E-16	49.99999	6.869435E-06	3.552714E-15	2.484024E-05	6.142259E-05	3.552785E-15	2.484445E-05	6.142088E-05	15.9941	6.625535E-05	-3.552713E-12	0.001674518	0.004146248	-3.552709E-12	0.001674802	0.004146133	-3.550275E-12	9.811675	0.003472826	49.99999	0.038	-1	0	0	-1	-1.211842	15.72421	-8.791998	0.4926853	-44.65879	3.073964	0	-1	0.5
0.058	-4.552539E-05	47.61258	-3.919587	-7.075868E-07	0.0007814022	0.03677123	-5.861598E-13	-0.08867038	5.021764E-15	1.971335	0	-5.05569E-12	-0.09535193	-1.068383E-13	0.09535193	-1.068383E-13	5.05569E-12	-3.175728E-15	49.99976	0.000154525	-1.24345E-14	5.292147E-05	0.0001313097	-1.243397E-14	5.312463E-05	0.0001312277	16.0001	0.0001415731	2.664535E-12	0.001179986	0.002957182	2.664547E-12	0.001184561	0.002955352	2.764907E-12	9.811172	-0.0122265	49.99976	0.058	-1	0	0	-1	-1.214922	18.24767	-11.86559	0.5584238	-61.70963	2.649409	0	-1	0.5
0.078	-0.000338674	45.61082	-3.959259	1.578519E-05	0.0006754817	0.03621801	-1.534133E-13	-0.220862	3.078922E-14	1.86233	0	-1.522858E-12	-0.1294044	3.465869E-13	0.1294044	3.465869E-13	1.522858E-12	-1.572809E-15	49.99941	0.0003841966	-1.421085E-14	7.142313E-05	0.0001786972	-1.421076E-14	7.211143E-05	0.0001784205	16.00482	0.0001924421	-1.421085E-11	0.0007348135	0.002129876	-1.421085E-11	0.0007430182	0.002127028	-1.418459E-11	9.810671	-0.03568816	49.99941	0.078	-1	0	0	-1	-1.216076	18.82442	-12.63414	0.5728052	-66.08157	2.568781	0	-1	0.5
0.098	-0.0006984484	43.51362	-3.99524	1.818989E-09	0.0002298698	0.03612728	5.337996E-13	-0.3831402	-7.652316E-14	1.714237	0	-1.774333E-12	-0.1498939	-7.825639E-13	0.1498939	-7.825639E-13	1.774333E-12	-3.295966E-15	49.99897	0.0006649196	2.842171E-14	8.215196E-05	0.0002069916	2.842121E-14	8.353428E-05	0.0002064376	16.00832	0.0002226981	1.421085E-11	0.0003958121	0.001076376	1.421085E-11	0.0004030009	0.001073705	1.411946E-11	9.810184	-0.06452584	49.99897	0.098	-1	0	0	-1	-1.216807	18.93808	-12.78949	0.575524	-66.98013	2.553899	0	-1	0.5
0.118	-0.0009637789	41.35284	-4.033404	-6.166374E-07	-0.0003559631	0.03610677	1.563871E-12	-0.5625315	4.44674E-14	1.542615	0	1.131564E-11	-0.1608117	3.480578E-13	0.1608117	3.480578E-13	-1.131564E-11	-1.725546E-16	49.99848	0.0009738952	0	8.744746E-05	0.0002220682	-2.618595E-18	8.962349E-05	0.0002211989	16.01083	0.0002386657	0	0.0001713633	0.0005211331	-5.221191E-18	0.0001764715	0.0005194256	-2.677534E-13	9.809705	-0.09579389	49.99848	0.118	-1	0	0	-1	-1.217325	18.96248	-12.82312	0.5760486	-67.18151	2.551092	0	-1	0.5
0.138	-0.00104808	39.20158	-4.073727	-5.838955E-07	-0.0008786109	0.03609354	1.541051E-12	-0.7500387	-1.138885E-14	1.358431	0	1.235349E-11	-0.1651109	-8.394629E-13	0.1651109	-8.394629E-13	-1.235349E-11	7.164931E-16	49.99797	0.001295179	2.842171E-14	8.904003E-05	0.0002286349	2.841928E-14	9.202529E-05	0.0002274498	16.01256	0.0002453611	1.421085E-11	1.396984E-05	0.0001333537	1.421085E-11	1.571428E-05	0.0001331594	1.394702E-11	9.809175	-0.1282824	49.99797	0.138	-1	0	0	-1	-1.217674	18.9721	-12.83529	0.5762239	-67.25895	2.550246	0	-1	0.5
0.158	-0.000932039	37.0898	-4.116608	-5.511537E-07	-0.001204197	0.03607623	2.512959E-13	-0.9393554	-9.806229E-14	1.16926	0	5.271099E-12	-0.164689	-9.953212E-13	0.164689	-9.953212E-13	-5.271099E-12	-1.795596E-15	49.99746	0.001617864	0	8.805934E-05	0.0002280506	-1.225799E-20	9.17862E-05	0.0002265763	16.01364	0.0002444617	0	-9.406357E-05	-0.0001496519	1.671317E-19	-9.650434E-05	-0.0001480897	-4.302014E-14	9.808585	-0.1609743	49.99746	0.158	-1	0	0	-1	-1.217836	18.9793	-12.84286	0.5763534	-67.30899	2.549665	0	-1	0.5
0.178	-0.0006634645	35.04496	-4.161924	-9.094946E-10	-0.00129178	0.03605779	1.829707E-12	-1.125893	2.673665E-14	0.9805049	0	9.078909E-12	-0.1607756	-1.732941E-13	0.1607756	-1.732941E-13	-9.078909E-12	-5.587175E-16	49.99696	0.00193423	0	8.523744E-05	0.0002232448	-2.96574E-18	8.960758E-05	0.0002215268	16.01418	0.0002389637	0	-0.000174623	-0.0003625173	5.972045E-18	-0.0001817125	-0.0003590161	-3.132101E-13	9.807925	-0.1931184	49.99696	0.178	-1	0	0	-1	-1.217883	18.98542	-12.84817	0.5764587	-67.34622	2.549187	0	-1	0.5
0.198	-0.000357156	33.09159	-4.208758	-2.728484E-09	-0.00118841	0.03604959	-9.70257E-13	-1.306215	3.503636E-14	0.7961701	0	-5.502107E-12	-0.1542249	5.777113E-13	0.1542249	5.777113E-13	5.502107E-12	-1.942321E-15	49.99646	0.002238423	0	8.108839E-05	0.000214149	1.324524E-18	8.594902E-05	0.0002122449	16.01426	0.0002289872	0	-0.000230968	-0.0005235779	-3.792185E-18	-0.0002428433	-0.0005181767	1.660774E-13	9.807209	-0.2241448	49.99646	0.198	-1	0	0	-1	-1.217861	18.9898	-12.85097	0.5765213	-67.36913	2.548887	0	-1	0.5
0.218	-0.0001082416	31.25007	-4.256468	1.818989E-09	-0.001000589	0.03604811	8.622063E-13	-1.477719	-1.390081E-13	0.619275	0	-2.452349E-12	-0.1456746	-8.443424E-13	0.1456746	-8.443424E-13	2.452349E-12	7.82972E-16	49.99599	0.002526283	-7.105427E-15	7.598475E-05	0.0002028322	-7.106157E-15	8.119016E-05	0.0002008052	16.01394	0.0002165977	-7.105427E-12	-0.0002710148	-0.0006472109	-7.105424E-12	-0.0002876151	-0.0006400067	-7.252999E-12	9.806451	-0.2536224	49.99599	0.218	-1	0	0	-1	-1.217842	18.99156	-12.8508	0.5765155	-67.37521	2.548882	0	-1	0.5
0.238	2.091866E-06	29.53685	-4.303679	-4.401954E-07	-0.0008445504	0.03605621	-5.53372E-13	-1.638439	8.254366E-14	0.4521175	0	4.836021E-12	-0.1356298	8.782745E-14	0.1356298	8.782745E-14	-4.836021E-12	-2.833134E-15	49.99556	0.002794832	-8.326673E-17	7.021055E-05	0.000188846	-8.280881E-17	7.558137E-05	0.0001867613	16.01332	0.0002014754	-6.425415E-12	-0.0002998858	-0.0007375492	-6.425417E-12	-0.0003208514	-0.0007286732	-6.330709E-12	9.805669	-0.2812187	49.99556	0.238	-1	0	0	-1	-1.217905	18.99062	-12.84815	0.5764335	-67.36754	2.549212	0	-1	0.5
0.258	-4.906147E-05	27.9639	-4.350129	4.165485E-07	-0.0008103245	0.03606509	-1.135123E-12	-1.786934	4.976989E-14	0.2964159	0	-1.466567E-11	-0.1245088	2.275886E-13	0.1245088	2.275886E-13	1.466567E-11	-4.850704E-15	49.99515	0.003041819	-1.953993E-14	6.400049E-05	0.0001733616	-1.95387E-14	6.937527E-05	0.0001712816	16.01243	0.000184798	-1.421085E-11	-0.0003171153	-0.0008004717	-1.421086E-11	-0.0003419221	-0.0007901939	-1.40166E-11	9.804888	-0.3066938	49.99515	0.258	-1	0	0	-1	-1.218042	18.9875	-12.84391	0.5763027	-67.34956	2.549776	0	-1	0.5
0.278	-0.0002234563	26.53955	-4.394321	3.956302E-07	-0.0009273094	0.03607488	-2.57097E-14	-1.922202	-3.738214E-14	0.1534148	0	-4.375457E-12	-0.1126658	-3.082077E-13	0.1126658	-3.082077E-13	4.375457E-12	-2.286651E-15	49.99478	0.003265873	-1.421085E-14	5.753804E-05	0.0001573015	-1.421072E-14	6.278195E-05	0.0001552831	16.01136	0.0001674945	-1.421085E-11	-0.0003264285	-0.0008430797	-1.421085E-11	-0.0003545238	-0.0008316561	-1.420646E-11	9.804126	-0.3298832	49.99478	0.278	-1	0	0	-1	-1.218245	18.98383	-12.83989	0.576165	-67.33152	2.550388	0	-1	0.5
0.298	-0.0004327517	25.2687	-4.435274	3.769855E-07	-0.001162066	0.03607823	1.359417E-12	-2.043605	-8.684026E-14	0.02395435	0	1.278316E-12	-0.1004052	-4.323158E-14	0.1004052	-4.323158E-14	-1.278316E-12	1.721938E-15	49.99444	0.003466278	0	5.097594E-05	0.0001401837	-1.114839E-18	5.594248E-05	0.0001382768	16.01016	0.0001491644	-7.105427E-12	-0.0003292225	-0.000863627	-7.10542E-12	-0.0003598101	-0.0008513376	-7.338027E-12	9.803401	-0.3506766	49.99444	0.298	-1	0	0	-1	-1.218456	18.98107	-12.83741	0.5760643	-67.3205	2.550854	0	-1	0.5
0.318	-0.0005986338	24.15324	-4.472324	-3.583409E-07	-0.001447147	0.03607582	2.741665E-13	-2.150839	-4.848506E-14	-0.09148157	0	-1.561349E-13	-0.0879892	6.284972E-15	0.0879892	6.284972E-15	1.561349E-13	-9.489892E-16	49.99415	0.003642589	0	4.443992E-05	0.0001228489	-1.306044E-19	4.901918E-05	0.0001210945	16.00887	0.0001306398	0	-0.0003236346	-0.0008668866	9.69637E-19	-0.0003559412	-0.0008541298	-4.690788E-14	9.802733	-0.3690274	49.99415	0.318	-1	0	0	-1	-1.218594	18.98002	-12.83693	0.5760285	-67.31844	2.551047	0	-1	0.5
0.338	-0.0006511717	23.30496	-4.500371	-3.465175E-07	-0.001710771	0.03606271	5.397869E-13	-2.244366	-7.038312E-15	-0.1925794	0	3.549998E-12	-0.07675758	-1.38407E-13	0.07675758	-1.38407E-13	-3.549998E-12	6.45581E-16	49.99389	0.003795981	0	3.858842E-05	0.0001071671	-3.896389E-19	4.275565E-05	0.0001055737	16.00764	0.0001139028	0	-0.0002617016	-0.0007043708	2.636962E-18	-0.0002890851	-0.0006935819	-9.234705E-14	9.802186	-0.3848685	49.99389	0.338	-1	0	0	-1	-1.218666	18.98097	-12.83848	0.5760505	-67.32735	2.550968	0	-1	0.5
0.358	-0.0005896452	22.61275	-4.522844	-4.547473E-10	-0.001897953	0.03604737	-3.175379E-13	-2.326805	2.714784E-14	-0.2806551	0	-2.423822E-12	-0.06855181	5.532292E-13	0.06855181	5.532292E-13	2.423822E-12	-1.53063E-15	49.99366	0.003930867	0	3.432389E-05	9.597186E-05	1.661898E-19	3.819198E-05	9.449921E-05	16.00667	0.0001019251	0	-0.0001695007	-0.0004548928	-8.254281E-19	-0.0001878293	-0.0004476362	5.432217E-14	9.801724	-0.3987262	49.99366	0.358	-1	0	0	-1	-1.218659	18.98366	-12.84154	0.5761241	-67.34435	2.550657	0	-1	0.5
0.378	-0.0004315781	22.00781	-4.542233	4.547473E-10	-0.001974484	0.03603513	-3.501506E-13	-2.402314	2.807399E-14	-0.3591724	0	-6.881766E-12	-0.06434312	-6.219781E-13	0.06434312	-6.219781E-13	6.881766E-12	-3.459948E-15	49.99346	0.004054099	-1.421085E-14	3.209896E-05	9.007996E-05	-1.421068E-14	3.584655E-05	8.865534E-05	16.00607	9.562815E-05	-1.421085E-11	-6.519257E-05	-0.0001662411	-1.421085E-11	-7.210344E-05	-0.0001633623	-1.415096E-11	9.801307	-0.4113594	49.99346	0.378	-1	0	0	-1	-1.218613	18.98697	-12.84482	0.5762093	-67.36335	2.550283	0	-1	0.5
0.398	-0.0002354086	21.38559	-4.563395	9.094946E-10	-0.00194303	0.0360276	4.126603E-13	-2.475429	4.721716E-14	-0.4327773	0	2.498724E-12	-0.06382649	-1.075633E-13	0.06382649	-1.075633E-13	-2.498724E-12	-1.185026E-15	49.99325	0.004173175	7.105427E-15	3.172643E-05	8.935679E-05	7.105097E-15	3.555623E-05	8.790311E-05	16.00584	9.482195E-05	3.552713E-12	1.303852E-05	5.366746E-05	3.552713E-12	1.53443E-05	5.305423E-05	3.482125E-12	9.800861	-0.4236501	49.99325	0.398	-1	0	0	-1	-1.218538	18.98948	-12.84681	0.576268	-67.37581	2.550007	0	-1	0.5
0.418	-7.855119E-05	20.68762	-4.589252	3.074092E-07	-0.00183754	0.03603365	1.489891E-14	-2.549518	1.685287E-13	-0.5057661	0	-2.06086E-12	-0.06555574	1.002177E-12	0.06555574	1.002177E-12	2.06086E-12	1.368339E-16	49.99305	0.004293531	-3.552714E-15	3.246777E-05	9.177742E-05	-3.552993E-15	3.651814E-05	9.024231E-05	16.00581	9.735117E-05	7.105427E-12	5.075708E-05	0.0001605949	7.105426E-12	5.785055E-05	0.0001581781	7.102878E-12	9.800347	-0.4362181	49.99305	0.418	-1	0	0	-1	-1.218511	18.99018	-12.84669	0.5762648	-67.37802	2.549991	0	-1	0.5
0.438	-6.416812E-06	19.9134	-4.619365	0	-0.001727858	0.0360412	-1.773113E-14	-2.626219	1.341331E-14	-0.5807477	0	-3.407182E-13	-0.06810148	1.560709E-14	0.06810148	1.560709E-14	3.407182E-13	-2.992389E-15	49.99284	0.004417911	5.051515E-15	3.360119E-05	9.534182E-05	5.051504E-15	3.793447E-05	9.370207E-05	16.00585	0.0001010896	-7.494005E-13	5.820766E-05	0.0001833541	-7.494005E-13	6.654783E-05	0.0001804945	-7.463678E-13	9.799764	-0.4493149	49.99284	0.438	-1	0	0	-1	-1.21854	18.9886	-12.84422	0.5761967	-67.36742	2.550266	0	-1	0.5
0.458	-3.484814E-05	19.0808	-4.653156	0	-0.001671437	0.03604781	-6.01692E-14	-2.705847	-3.690249E-14	-0.6586735	0	-3.335431E-12	-0.07056684	1.068072E-12	0.07056684	1.068072E-12	3.335431E-12	-4.139506E-15	49.99261	0.004546702	-5.329071E-15	3.468059E-05	9.879319E-05	-5.328965E-15	3.930579E-05	9.704582E-05	16.00584	0.0001047036	-7.105427E-12	4.889443E-05	0.0001591397	-7.105427E-12	5.635265E-05	0.0001566541	-7.095136E-12	9.799119	-0.4629576	49.99261	0.458	-1	0	0	-1	-1.218658	18.98544	-12.84046	0.5760806	-67.35006	2.550764	0	-1	0.5
0.478	-0.0001573639	18.20843	-4.68967	-9.094946E-10	-0.00170069	0.03605649	1.175572E-12	-2.787984	1.12343E-13	-0.7394512	0	2.308872E-12	-0.07248814	1.254909E-12	0.07248814	1.254909E-12	-2.308872E-12	2.873971E-15	49.99239	0.004679218	7.105427E-15	3.547966E-05	0.0001017594	7.104399E-15	4.038728E-05	9.991326E-05	16.00575	0.0001077673	-3.552713E-12	3.213063E-05	0.0001125154	-3.552715E-12	3.756538E-05	0.0001108194	-3.753754E-12	9.798427	-0.4770506	49.99239	0.478	-1	0	0	-1	-1.218808	18.98177	-12.83655	0.5759592	-67.33075	2.551309	0	-1	0.5
0.498	-0.0003028706	17.31163	-4.72801	4.547473E-10	-0.001809185	0.03606036	-6.677847E-14	-2.871866	1.699938E-14	-0.8224635	0	-7.357602E-12	-0.07365721	8.243313E-13	0.07365721	8.243313E-13	7.357602E-12	5.285714E-16	49.99216	0.004814267	-1.421085E-14	3.590109E-05	0.0001034008	-1.421084E-14	4.103664E-05	0.0001014722	16.00554	0.000109456	-1.421085E-11	1.210719E-05	5.657784E-05	-1.421085E-11	1.492668E-05	5.590019E-05	-1.419944E-11	9.797695	-0.4914499	49.99216	0.498	-1	0	0	-1	-1.21899	18.97922	-12.83425	0.5758682	-67.32027	2.551727	0	-1	0.5
0.518	-0.0004132087	16.40393	-4.7675	0	-0.001970293	0.03605701	-1.190261E-13	-2.956575	7.248157E-14	-0.9068552	0	-4.23422E-12	-0.07400493	6.738879E-13	0.07400493	6.738879E-13	4.23422E-12	-3.447598E-16	49.99192	0.00495024	-1.421085E-14	3.591552E-05	0.0001038889	-1.42109E-14	4.122621E-05	0.0001018981	16.00521	0.0001099219	0	-8.381902E-06	-1.513399E-06	-1.563701E-20	-8.448805E-06	-1.079054E-06	2.035212E-14	9.796934	-0.5059918	49.99192	0.518	-1	0	0	-1	-1.219117	18.97825	-12.83375	0.5758313	-67.31852	2.55191	0	-1	0.5
0.538	-0.0004581481	15.49796	-4.807776	4.547473E-10	-0.002143556	0.03605229	-6.799932E-13	-3.041161	-1.176127E-15	-0.9916735	0	-7.768067E-12	-0.07353789	-4.989467E-13	0.07353789	-4.989467E-13	7.768067E-12	-1.628562E-15	49.99168	0.005085707	-1.421085E-14	3.553694E-05	0.0001032328	-1.421037E-14	4.096374E-05	0.0001012021	16.00476	0.0001091782	-7.105427E-12	-2.770684E-05	-5.797483E-05	-7.105427E-12	-3.074358E-05	-5.642324E-05	-6.989165E-12	9.796154	-0.52051	49.99168	0.538	-1	0	0	-1	-1.219164	18.97859	-12.83447	0.5758413	-67.32233	2.551888	0	-1	0.5
0.558	-0.000413154	14.60395	-4.848178	-2.182787E-07	-0.002300669	0.03603988	-4.941536E-13	-3.124723	-6.191713E-14	-1.075985	0	4.576353E-12	-0.07230448	-1.161299E-12	0.07230448	-1.161299E-12	-4.576353E-12	-3.240343E-15	49.99145	0.005219147	0	3.479281E-05	0.0001015017	4.570353E-19	4.027391E-05	9.945425E-05	16.0042	0.0001072993	-7.105427E-12	-4.493631E-05	-0.0001094304	-7.105427E-12	-5.083452E-05	-0.0001068182	-7.020946E-12	9.795364	-0.5348468	49.99145	0.558	-1	0	0	-1	-1.219175	18.97993	-12.83597	0.5758726	-67.33134	2.551749	0	-1	0.5
0.578	-0.0003039363	13.73175	-4.888507	4.547473E-10	-0.002418233	0.03602778	6.083436E-13	-3.206423	3.383959E-14	-1.158911	0	6.211627E-12	-0.07037601	1.082252E-13	0.07037601	1.082252E-13	-6.211627E-12	1.566668E-15	49.99123	0.005349308	1.421085E-14	3.372412E-05	9.906304E-05	1.421038E-14	3.921226E-05	9.702165E-05	16.00356	0.0001046461	1.421085E-11	-6.00703E-05	-0.0001561129	1.421085E-11	-6.870819E-05	-0.0001525086	1.410686E-11	9.794574	-0.5488595	49.99123	0.578	-1	0	0	-1	-1.219106	18.98108	-12.83689	0.5759102	-67.33579	2.551587	0	-1	0.5
0.598	-0.0001612032	12.88916	-4.928107	9.094946E-10	-0.00248296	0.03601547	-5.921355E-13	-3.285522	1.540994E-13	-1.239655	0	-5.363056E-12	-0.06783464	3.071712E-13	0.06783464	3.071712E-13	5.363056E-12	-1.001183E-15	49.99101	0.005475059	0	3.23737E-05	9.548559E-05	1.337667E-19	3.779294E-05	9.347325E-05	16.00283	0.0001008244	0	-7.334165E-05	-0.0001963926	-3.448364E-19	-8.447671E-05	-0.0001918665	1.012166E-13	9.793792	-0.5624202	49.99101	0.598	-1	0	0	-1	-1.219063	18.98162	-12.83692	0.5759173	-67.33707	2.551538	0	-1	0.5
0.618	-4.819961E-05	12.08352	-4.96674	1.809894E-07	-0.002492504	0.03601423	-4.062112E-13	-3.361367	3.916361E-14	-1.317509	0	-4.144184E-12	-0.06476843	6.984777E-13	0.06476843	6.984777E-13	4.144184E-12	-9.702185E-16	49.9908	0.005595297	-8.881784E-15	3.078906E-05	9.116961E-05	-8.881591E-15	3.608166E-05	8.92075E-05	16.00204	9.622818E-05	-7.993605E-12	-8.358619E-05	-0.0002306187	-7.993606E-12	-9.696432E-05	-0.000225321	-7.924175E-12	9.793026	-0.5754176	49.9908	0.618	-1	0	0	-1	-1.219025	18.98075	-12.83536	0.5758876	-67.32925	2.551655	0	-1	0.5
0.638	-3.196504E-06	11.33924	-5.002384	-1.687113E-07	-0.002457657	0.03602301	9.086395E-13	-3.43343	-3.882353E-14	-1.391858	0	5.96016E-12	-0.06133289	-1.267746E-12	0.06133289	-1.267746E-12	-5.96016E-12	2.486097E-16	49.99059	0.005709335	2.048361E-14	2.904609E-05	8.63336E-05	2.048313E-14	3.416437E-05	8.44391E-05	16.00121	9.108878E-05	-1.44329E-12	-8.451752E-05	-0.0002363231	-1.443288E-12	-9.851892E-05	-0.0002308372	-1.598583E-12	9.792294	-0.5877399	49.99059	0.638	-1	0	0	-1	-1.219047	18.97892	-12.83298	0.575826	-67.3175	2.551913	0	-1	0.5
0.658	-7.792451E-06	10.69269	-5.033239	1.591616E-07	-0.002405283	0.03602691	-1.078475E-12	-3.501846	8.178724E-14	-1.462187	0	-3.290846E-12	-0.0585573	2.00281E-13	0.0585573	2.00281E-13	3.290846E-12	-5.542807E-15	49.9904	0.005817369	-9.769963E-15	2.763327E-05	8.24267E-05	-9.769466E-15	3.261636E-05	8.058494E-05	16.00043	8.693538E-05	-1.409983E-11	-5.657784E-05	-0.000153901	-1.409983E-11	-6.587258E-05	-0.0001501579	-1.391552E-11	9.791618	-0.5993519	49.9904	0.658	-1	0	0	-1	-1.219128	18.97655	-12.83031	0.5757456	-67.30447	2.552264	0	-1	0.5
0.678	-7.583141E-05	10.09145	-5.061657	-4.547473E-10	-0.002368095	0.03603465	-1.013251E-12	-3.568005	-1.293847E-13	-1.529246	0	3.405287E-13	-0.05734167	-2.224741E-14	0.05734167	-2.224741E-14	-3.405287E-13	-2.433522E-15	49.99022	0.005921543	-7.105427E-15	2.696551E-05	8.07154E-05	-7.10468E-15	3.193642E-05	7.88808E-05	15.99979	8.510061E-05	-7.993605E-12	-1.303852E-05	-2.43308E-05	-7.993605E-12	-1.452743E-05	-2.347221E-05	-7.820456E-12	9.79097	-0.610531	49.99022	0.678	-1	0	0	-1	-1.219229	18.97432	-12.82818	0.5756771	-67.29336	2.552582	0	-1	0.5
0.698	-0.0001744067	9.462322	-5.091237	1.942226E-05	-0.002367083	0.03604347	1.209072E-12	-3.634	-6.064481E-14	-1.594829	0	5.331682E-12	-0.05808416	-1.248719E-12	0.05808416	-1.248719E-12	-5.331682E-12	1.63188E-15	49.99004	0.006025314	1.421085E-14	2.72207E-05	8.198246E-05	1.421026E-14	3.236224E-05	8.00923E-05	15.99934	8.638339E-05	0	3.306195E-05	0.0002250308	-7.590791E-19	4.725854E-05	0.0002224828	-2.06598E-13	9.790323	-0.6215624	49.99004	0.698	-1	0	0	-1	-1.21934	18.97319	-12.8275	0.5756392	-67.29028	2.552765	0	-1	0.5
0.718	-0.0002427503	8.838453	-5.123452	4.547473E-10	-0.002420936	0.03603936	-7.26219E-13	-3.701869	-9.292047E-14	-1.661215	0	-8.992782E-12	-0.06033168	-3.303294E-13	0.06033168	-3.303294E-13	8.992782E-12	-5.39776E-15	49.98985	0.006131738	-7.105427E-15	2.817414E-05	8.515408E-05	-7.104863E-15	3.361331E-05	8.315735E-05	15.999	8.969392E-05	-7.105427E-12	5.762558E-05	0.0001891749	-7.105426E-12	6.97194E-05	0.0001850596	-6.981344E-12	9.789601	-0.6331962	49.98985	0.718	-1	0	0	-1	-1.21944	18.97336	-12.82832	0.5756353	-67.29564	2.552788	0	-1	0.5
0.738	-0.0002713334	8.117067	-5.160945	0	-0.002529952	0.03602946	-4.879998E-13	-3.772799	4.820774E-14	-1.730187	0	-7.572203E-12	-0.06320576	4.987963E-13	0.06320576	4.987963E-13	7.572203E-12	-1.157256E-16	49.98965	0.006242827	-1.421085E-14	2.940581E-05	8.921092E-05	-1.421063E-14	3.521218E-05	8.708268E-05	15.99869	9.393237E-05	-3.552713E-12	6.204936E-05	0.0002058223	-3.552713E-12	7.545803E-05	0.0002012934	-3.46934E-12	9.788815	-0.6452987	49.98965	0.738	-1	0	0	-1	-1.219449	18.97362	-12.82898	0.5756496	-67.29833	2.552732	0	-1	0.5
0.758	-0.0002539227	7.337478	-5.202447	4.547473E-10	-0.002679689	0.03601868	-2.692667E-13	-3.847006	-1.860885E-14	-1.802476	0	-1.98932E-12	-0.06596702	-7.780889E-13	0.06596702	-7.780889E-13	1.98932E-12	-8.22203E-16	49.98944	0.006358758	-7.105427E-15	3.057113E-05	9.310851E-05	-7.105224E-15	3.674913E-05	9.084762E-05	15.99832	9.799892E-05	3.552713E-12	5.390029E-05	0.0001814915	3.552714E-12	6.595555E-05	0.0001774662	3.598713E-12	9.787963	-0.6579998	49.98944	0.758	-1	0	0	-1	-1.219456	18.97391	-12.82933	0.5756544	-67.30065	2.552705	0	-1	0.5
0.778	-0.0001980681	6.515794	-5.247302	0	-0.002845424	0.03600994	-5.052812E-14	-3.92407	1.222599E-13	-1.87796	0	-9.586872E-13	-0.06820428	9.773331E-13	0.06820428	9.773331E-13	9.586872E-13	-4.441275E-15	49.98922	0.006478786	-1.421085E-14	3.147847E-05	9.626639E-05	-1.421103E-14	3.799261E-05	9.38865E-05	15.99785	0.0001012823	3.552713E-12	3.806781E-05	0.0001366716	3.552713E-12	4.73316E-05	0.000133746	3.561344E-12	9.787049	-0.6712077	49.98922	0.778	-1	0	0	-1	-1.219432	18.97328	-12.82827	0.5756334	-67.2953	2.552784	0	-1	0.5
0.798	-0.0001121108	5.666231	-5.294271	0	-0.002991937	0.03599884	-3.247824E-13	-4.003267	-1.524513E-14	-1.956048	0	-2.044747E-12	-0.06972988	-3.131551E-13	0.06972988	-3.131551E-13	2.044747E-12	-5.377645E-15	49.989	0.006601915	1.065814E-14	3.204704E-05	9.841938E-05	1.065839E-14	3.883984E-05	9.594193E-05	15.99726	0.0001035055	1.065814E-11	2.060551E-05	8.323695E-05	1.065814E-11	2.636629E-05	8.159532E-05	1.071361E-11	9.786092	-0.6847876	49.989	0.798	-1	0	0	-1	-1.219417	18.97154	-12.82577	0.575578	-67.28246	2.553018	0	-1	0.5
0.818	-4.060556E-05	4.801912	-5.343196	7.185007E-08	-0.003084612	0.03599682	-5.794887E-13	-4.083724	-1.017456E-13	-2.035918	0	-2.895564E-12	-0.07048224	-2.498879E-13	0.07048224	-2.498879E-13	2.895564E-12	-3.440936E-15	49.98877	0.006726652	3.552714E-15	3.225217E-05	9.948108E-05	3.553288E-15	3.925474E-05	9.69317E-05	15.99654	0.0001045786	2.664535E-12	1.74623E-06	2.828892E-05	2.664535E-12	3.756366E-06	2.809274E-05	2.763501E-12	9.785097	-0.6985822	49.98877	0.818	-1	0	0	-1	-1.219419	18.96897	-12.82241	0.5754998	-67.26488	2.553354	0	-1	0.5
0.838	1.533112E-05	3.933974	-5.392886	5.911715E-08	-0.003111391	0.0359953	-1.330578E-12	-4.164553	1.090957E-13	-2.116682	0	-1.195371E-12	-0.07046703	-3.705486E-13	0.07046703	-3.705486E-13	1.195371E-12	-6.84208E-15	49.98855	0.006851703	5.77316E-15	3.21049E-05	9.972882E-05	5.773882E-15	3.926256E-05	9.7134E-05	15.99572	0.0001047691	3.330669E-13	-1.525041E-05	-2.479646E-05	3.330665E-13	-1.701089E-05	-2.362349E-05	5.602824E-13	9.784081	-0.7124373	49.98855	0.838	-1	0	0	-1	-1.219425	18.9661	-12.81905	0.5754243	-67.24592	2.553695	0	-1	0.5
0.858	3.427681E-05	3.072611	-5.442756	0	-0.003064673	0.03600027	-1.340508E-12	-4.244905	7.138996E-15	-2.197464	0	-9.693569E-12	-0.06972622	7.178584E-13	0.06972622	7.178584E-13	9.693569E-12	-6.221678E-15	49.98832	0.006975636	-7.993606E-15	3.162946E-05	9.867991E-05	-7.99271E-15	3.884696E-05	9.6068E-05	15.99479	0.000103625	-1.776357E-12	-3.050081E-05	-7.462221E-05	-1.776358E-12	-3.594066E-05	-7.215984E-05	-1.54747E-12	9.783053	-0.7262065	49.98832	0.858	-1	0	0	-1	-1.219459	18.96404	-12.81699	0.5753736	-67.23372	2.553936	0	-1	0.5
0.878	2.334193E-05	2.226575	-5.492791	9.094946E-10	-0.002974557	0.03600625	8.378342E-13	-4.323986	8.325084E-16	-2.277429	0	4.257066E-12	-0.06832193	1.351618E-13	0.06832193	1.351618E-13	-4.257066E-12	-7.261253E-16	49.9881	0.007097334	8.881784E-16	3.085891E-05	9.66927E-05	8.876204E-16	3.806133E-05	9.409084E-05	15.99377	0.0001014975	-3.552713E-12	-4.470348E-05	-0.0001190929	-3.552713E-12	-5.355538E-05	-0.0001153834	-3.695756E-12	9.782024	-0.7397518	49.9881	0.878	-1	0	0	-1	-1.219483	18.96334	-12.81692	0.575372	-67.23104	2.553969	0	-1	0.5
0.898	-1.382561E-05	1.40409	-5.541951	-2.000888E-08	-0.002885885	0.03601367	-1.628353E-12	-4.401063	1.879731E-13	-2.355807	0	-1.164054E-11	-0.06632466	1.350115E-12	0.06632466	1.350115E-12	1.164054E-11	-1.886903E-15	49.98788	0.007215649	-2.131628E-14	2.983032E-05	9.386591E-05	-2.131554E-14	3.69454E-05	9.130002E-05	15.99269	9.849191E-05	2.220446E-12	-5.637412E-05	-0.0001589069	2.220444E-12	-6.840201E-05	-0.0001541123	2.498424E-12	9.781006	-0.7529494	49.98788	0.898	-1	0	0	-1	-1.219536	18.96421	-12.81898	0.575409	-67.24062	2.553819	0	-1	0.5
0.918	-5.764069E-05	0.6113797	-5.590165	0	-0.002855786	0.03601367	-1.66774E-12	-4.475526	8.80763E-14	-2.431922	0	-1.175199E-11	-0.06381089	1.374132E-12	0.06381089	1.374132E-12	1.175199E-11	-2.174266E-15	49.98767	0.007329658	-1.953993E-14	2.858182E-05	9.030825E-05	-1.953903E-14	3.554172E-05	8.780255E-05	15.99156	9.472329E-05	-4.440892E-12	-6.673508E-05	-0.0001930166	-4.440894E-12	-8.159329E-05	-0.0001872205	-4.156219E-12	9.780005	-0.7656934	49.98767	0.918	-1	0	0	-1	-1.219564	18.96556	-12.82156	0.5754603	-67.25295	2.553591	0	-1	0.5
0.938	-0.0001012679	-0.1457882	-5.636538	2.728484E-09	-0.002924488	0.03601035	-7.857637E-13	-4.546823	-3.262625E-14	-2.50518	0	-1.159558E-11	-0.06085827	4.651096E-13	0.06085827	4.651096E-13	1.159558E-11	-2.745811E-15	49.98747	0.00743854	3.552714E-15	2.715136E-05	8.612964E-05	3.553227E-15	3.389373E-05	8.37062E-05	15.9904	9.030787E-05	-5.32907E-12	-7.478229E-05	-0.0002213055	-5.329071E-12	-9.209066E-05	-0.0002146808	-5.194959E-12	9.779036	-0.7778904	49.98747	0.938	-1	0	0	-1	-1.219541	18.96572	-12.8224	0.5754817	-67.25544	2.553483	0	-1	0.5
0.958	-0.0001250506	-0.8268563	-5.678024	0	-0.003098324	0.0360006	-4.949537E-13	-4.614573	-4.183649E-15	-2.575033	0	-3.586035E-12	-0.05776029	-6.235079E-13	0.05776029	-6.235079E-13	3.586035E-12	-2.179334E-15	49.98729	0.007541806	7.105427E-15	2.567199E-05	8.196547E-05	7.105711E-15	3.21831E-05	7.96344E-05	15.98923	8.589173E-05	1.24345E-11	-6.73026E-05	-0.0001998851	1.24345E-11	-8.316568E-05	-0.0001938225	1.251897E-11	9.778117	-0.7894323	49.98729	0.958	-1	0	0	-1	-1.219565	18.96471	-12.82116	0.5754395	-67.25028	2.553632	0	-1	0.5
0.978	-0.0001244799	-1.434315	-5.714504	9.094946E-10	-0.00333652	0.03598753	-1.910285E-13	-4.679274	-1.334479E-13	-2.641262	0	-5.022516E-12	-0.05560142	-4.535657E-14	0.05560142	-4.535657E-14	5.022516E-12	-3.727545E-15	49.9871	0.007640183	7.105427E-15	2.462298E-05	7.890211E-05	7.105715E-15	3.097758E-05	7.663044E-05	15.98816	8.265491E-05	8.881783E-12	-3.816967E-05	-0.0001075678	8.881783E-12	-4.681761E-05	-0.0001040954	8.914381E-12	9.777257	-0.8003841	49.9871	0.978	-1	0	0	-1	-1.219552	18.96135	-12.81666	0.5753364	-67.22681	2.554066	0	-1	0.5
0.998	-9.388282E-05	-2.009935	-5.748922	0	-0.003569503	0.03597588	-1.037437E-12	-4.742472	9.320199E-14	-2.704906	0	-6.458053E-12	-0.0550648	5.347714E-13	0.0550648	5.347714E-13	6.458053E-12	-1.017919E-15	49.98692	0.007736132	-7.105427E-15	2.429908E-05	7.814053E-05	-7.104999E-15	3.067633E-05	7.586402E-05	15.98726	8.183145E-05	-5.32907E-12	2.502929E-06	2.142042E-05	-5.32907E-12	4.265342E-06	2.114015E-05	-5.152052E-12	9.77642	-0.8110429	49.98692	0.998	-1	0	0	-1	-1.219554	18.95681	-12.81073	0.5752007	-67.19544	2.55466	0	-1	0.5
1.018	-2.901467E-05	-2.602075	-5.785487	0	-0.003725256	0.03596393	2.793368E-14	-4.806199	1.090226E-13	-2.767858	0	-3.756106E-12	-0.05630598	2.141254E-12	0.05630598	2.141254E-12	3.756106E-12	8.883427E-16	49.98674	0.007832631	-5.329071E-15	2.475805E-05	7.990212E-05	-5.329238E-15	3.136564E-05	7.75468E-05	15.98651	8.364992E-05	7.105427E-12	3.751483E-05	0.0001357403	7.105426E-12	4.875601E-05	0.0001321198	7.100661E-12	9.775555	-0.8218051	49.98674	1.018	-1	0	0	-1	-1.219581	18.95252	-12.8053	0.5750744	-67.16654	2.55523	0	-1	0.5
1.038	3.162336E-05	-3.254396	-5.826278	0	-0.003751696	0.0359645	-1.554038E-12	-4.872165	3.443876E-14	-2.83222	0	-1.522024E-11	-0.05866131	-5.297902E-13	0.05866131	-5.297902E-13	1.522024E-11	-2.064448E-15	49.98655	0.007932335	-2.220446E-14	2.569833E-05	8.324464E-05	-2.220362E-14	3.267568E-05	8.076122E-05	15.98584	8.712103E-05	-7.993605E-12	4.802132E-05	0.0001712469	-7.993603E-12	6.23923E-05	0.0001665496	-7.728487E-12	9.774616	-0.8330249	49.98655	1.038	-1	0	0	-1	-1.219539	18.94957	-12.80173	0.5750142	-67.14437	2.555542	0	-1	0.5
1.058	8.189923E-05	-3.967912	-5.870746	0	-0.003641294	0.0359661	-1.024578E-12	-4.940745	9.439652E-14	-2.899343	0	-5.118697E-12	-0.06070114	-4.71478E-13	0.06070114	-4.71478E-13	5.118697E-12	-6.287637E-15	49.98636	0.008035749	3.552714E-15	2.648879E-05	8.613919E-05	3.553176E-15	3.380914E-05	8.353777E-05	15.98508	9.012001E-05	0	3.055902E-05	0.0001175795	5.318043E-19	4.057205E-05	0.0001145107	1.747737E-13	9.77359	-0.844776	49.98636	1.058	-1	0	0	-1	-1.219353	18.94988	-12.80259	0.575089	-67.14124	2.555261	0	-1	0.5
1.078	8.252086E-05	-4.714674	-5.918048	7.003108E-08	-0.003459053	0.03597333	-5.669297E-13	-5.011074	5.504268E-14	-2.968863	0	-1.036264E-11	-0.0617526	9.080211E-13	0.0617526	9.080211E-13	1.036264E-11	-4.794699E-15	49.98616	0.008141562	-2.4869E-14	2.684083E-05	8.763117E-05	-2.486874E-14	3.439267E-05	8.495172E-05	15.98418	9.164961E-05	-8.881783E-12	6.228219E-06	3.713648E-05	-8.881783E-12	9.448222E-06	3.645052E-05	-8.785086E-12	9.772515	-0.8568502	49.98616	1.078	-1	0	0	-1	-1.219197	18.95307	-12.80757	0.5752441	-67.16055	2.5546	0	-1	0.5
1.098	3.440979E-05	-5.47192	-5.966944	9.094946E-10	-0.003306663	0.0359743	-2.296659E-12	-5.081853	2.083855E-13	-3.039658	0	-1.049563E-11	-0.06158819	2.300516E-12	0.06158819	2.300516E-12	1.049563E-11	-3.863919E-15	49.98596	0.008247867	-7.105427E-15	2.66612E-05	8.739764E-05	-7.10437E-15	3.429798E-05	8.469247E-05	15.98313	9.137377E-05	2.664535E-12	-2.118759E-05	-5.203765E-05	2.664534E-12	-2.571374E-05	-4.995632E-05	3.056215E-12	9.771414	-0.8690082	49.98596	1.098	-1	0	0	-1	-1.218992	18.95713	-12.81415	0.5754449	-67.18604	2.55373	0	-1	0.5
1.118	-4.99642E-05	-6.219005	-6.015519	9.094946E-10	-0.003268735	0.03596887	-3.838311E-13	-5.151648	1.435365E-13	-3.110329	0	-3.469373E-12	-0.06016979	7.689745E-13	0.06016979	7.689745E-13	3.469373E-12	1.055267E-15	49.98577	0.008352414	0	2.594222E-05	8.561439E-05	1.010751E-20	3.352493E-05	8.293914E-05	15.98194	8.94585E-05	5.32907E-12	-4.784669E-05	-0.0001399312	5.32907E-12	-6.021814E-05	-0.0001350697	5.394523E-12	9.770313	-0.8809959	49.98577	1.118	-1	0	0	-1	-1.218834	18.96131	-12.8207	0.5756254	-67.2141	2.552912	0	-1	0.5
1.138	-0.0001315487	-6.938639	-6.062607	-9.094946E-10	-0.003388332	0.03595143	-1.257071E-12	-5.219068	2.750273E-13	-3.179442	0	-5.358686E-13	-0.0575728	-8.655965E-13	0.0575728	-8.655965E-13	5.358686E-13	-1.874125E-15	49.98557	0.008453116	-3.552714E-15	2.472615E-05	8.191983E-05	-3.552403E-15	3.207539E-05	7.933102E-05	15.98064	8.557009E-05	-1.24345E-11	-7.1479E-05	-0.0002197921	-1.24345E-11	-9.117583E-05	-0.0002123789	-1.222016E-11	9.769238	-0.8925693	49.98557	1.138	-1	0	0	-1	-1.218651	18.96357	-12.82432	0.5757412	-67.2275	2.552361	0	-1	0.5
1.158	-0.0001873478	-7.616199	-6.107322	0	-0.003638727	0.03593099	-5.354598E-14	-5.282843	-4.275175E-14	-3.24563	0	-3.16967E-12	-0.05393552	2.930337E-13	0.05393552	2.930337E-13	3.16967E-12	-6.930803E-16	49.98539	0.008548185	-7.105427E-15	2.307817E-05	7.674377E-05	-7.105342E-15	3.004613E-05	7.429293E-05	15.97927	8.013869E-05	-3.552713E-12	-9.080394E-05	-0.0002885936	-3.552714E-12	-0.0001169897	-0.0002790072	-3.543585E-12	9.768214	-0.9035094	49.98539	1.158	-1	0	0	-1	-1.218416	18.96283	-12.82351	0.5757697	-67.21738	2.552195	0	-1	0.5
1.178	-0.0001714261	-8.239933	-6.148723	0	-0.003939851	0.03590146	-1.21805E-12	-5.341882	-3.890809E-14	-3.307697	0	-1.154522E-11	-0.04943208	-7.48445E-13	0.04943208	-7.48445E-13	1.154522E-11	-5.300415E-15	49.98523	0.008636042	0	2.107793E-05	7.033581E-05	6.331194E-19	2.753453E-05	6.806801E-05	15.97787	7.342618E-05	7.105427E-12	-0.0001067528	-0.0003442401	7.105424E-12	-0.0001383374	-0.0003328065	7.313069E-12	9.767257	-0.9136282	49.98523	1.178	-1	0	0	-1	-1.218156	18.95936	-12.81877	0.5757183	-67.18623	2.552394	0	-1	0.5
1.198	-0.0001145956	-8.800032	-6.18609	-9.094946E-10	-0.004181175	0.03588424	-1.199513E-15	-5.395319	1.59917E-13	-3.364639	0	-5.371133E-13	-0.04425285	9.64269E-13	0.04425285	9.64269E-13	5.371133E-13	-2.598084E-15	49.98507	0.008715466	3.552714E-15	1.881015E-05	6.296649E-05	3.552539E-15	2.464737E-05	6.091886E-05	15.97648	6.571606E-05	1.776357E-12	-0.0001185108	-0.000386266	1.776358E-12	-0.0001543052	-0.0003734115	1.776562E-12	9.766385	-0.9227779	49.98507	1.198	-1	0	0	-1	-1.217914	18.95471	-12.81248	0.575633	-67.1467	2.552768	0	-1	0.5
1.218	-2.544354E-05	-9.290264	-6.21896	0	-0.004278785	0.03587631	6.007689E-13	-5.442495	-1.061367E-13	-3.415669	0	2.969515E-12	-0.03858976	-1.196133E-12	0.03858976	-1.196133E-12	-2.969515E-12	-1.405514E-15	49.98494	0.008785397	-1.776357E-15	1.635752E-05	5.490845E-05	-1.776481E-15	2.149166E-05	5.310946E-05	15.97512	5.729316E-05	-4.440892E-12	-0.0001252629	-0.0004146713	-4.440891E-12	-0.0001640284	-0.0004009212	-4.543289E-12	9.765613	-0.9308469	49.98494	1.218	-1	0	0	-1	-1.217746	18.95088	-12.8075	0.5755642	-67.11509	2.553087	0	-1	0.5
1.238	4.506918E-05	-9.70624	-6.24681	0	-0.004207621	0.03588027	-5.574618E-13	-5.482979	1.080654E-13	-3.460223	0	-1.414645E-12	-0.03262829	1.354732E-13	0.03262829	1.354732E-13	1.414645E-12	-1.142093E-15	49.98482	0.008845314	1.598721E-14	1.379638E-05	4.64262E-05	1.59873E-14	1.816928E-05	4.489554E-05	15.97383	4.843276E-05	1.421085E-11	-0.0001294538	-0.000430271	1.421085E-11	-0.0001699739	-0.000415933	1.430586E-11	9.764946	-0.9377619	49.98482	1.238	-1	0	0	-1	-1.217621	18.94922	-12.80567	0.5755594	-67.10015	2.553139	0	-1	0.5
1.258	6.545559E-05	-10.04644	-6.269762	-9.094946E-10	-0.004010336	0.03589208	-8.388992E-13	-5.516536	3.083366E-14	-3.497952	0	2.432932E-12	-0.02654069	-2.35362E-13	0.02654069	-2.35362E-13	-2.432932E-12	-4.464741E-15	49.98473	0.008894905	8.881784E-15	1.120055E-05	3.77642E-05	8.88198E-15	1.477906E-05	3.651255E-05	15.97264	3.939019E-05	7.105427E-12	-0.0001294538	-0.0004338799	7.105425E-12	-0.0001705644	-0.0004194256	7.248393E-12	9.764395	-0.9434843	49.98473	1.258	-1	0	0	-1	-1.21753	18.95039	-12.808	0.5756429	-67.1068	2.552811	0	-1	0.5
1.278	1.934217E-05	-10.32936	-6.289423	9.094946E-10	-0.003776703	0.0359071	-1.47374E-12	-5.543055	1.965253E-13	-3.528728	0	-1.199452E-11	-0.02031831	1.163516E-12	0.02031831	1.163516E-12	1.199452E-11	-6.866056E-15	49.98465	0.008934096	6.217249E-15	8.560251E-06	2.891058E-05	6.217441E-15	1.13128E-05	2.794852E-05	15.97155	3.015128E-05	9.325873E-12	-0.0001350418	-0.0004526227	9.32587E-12	-0.0001781308	-0.000437462	9.577019E-12	9.763949	-0.9480218	49.98465	1.278	-1	0	0	-1	-1.217507	18.95462	-12.81488	0.5758088	-67.13844	2.552102	0	-1	0.5
1.298	-7.034856E-05	-10.54192	-6.304317	0	-0.003609356	0.03591174	-1.028776E-12	-5.562243	4.965586E-14	-3.552398	0	-1.063626E-11	-0.01376376	1.035571E-12	0.01376376	1.035571E-12	1.063626E-11	-1.190296E-15	49.9846	0.008962482	-5.329071E-15	5.791429E-06	1.958408E-05	-5.32895E-15	7.662387E-06	1.893053E-05	15.97056	2.042246E-05	-8.881784E-13	-0.0001420267	-0.0004783505	-8.881813E-13	-0.000187723	-0.000462332	-7.12867E-13	9.763622	-0.9513165	49.9846	1.298	-1	0	0	-1	-1.217482	18.96024	-12.82367	0.5760144	-67.18047	2.5512	0	-1	0.5
1.318	-0.000165153	-10.67434	-6.313638	9.094946E-10	-0.003585175	0.03590516	8.953401E-13	-5.573685	-3.28417E-14	-3.568575	0	4.243104E-12	-0.006844391	-4.139656E-13	0.006844391	-4.139656E-13	-4.243104E-12	-1.575709E-15	49.98457	0.008979291	7.105427E-15	2.878252E-06	9.738375E-06	7.105374E-15	3.810492E-06	9.41278E-06	15.96966	1.015482E-05	1.065814E-11	-0.0001485459	-0.0005022156	1.065814E-11	-0.0001966217	-0.0004854136	1.050557E-11	9.763423	-0.9532895	49.98457	1.318	-1	0	0	-1	-1.217465	18.96516	-12.83105	0.5761777	-67.21754	2.550449	0	-1	0.5
1.338	-0.0002357665	-10.71319	-6.316182	-9.094946E-10	-0.003719483	0.03589149	2.539586E-13	-5.577045	-7.481293E-14	-3.576825	0	-2.651941E-12	0.000267576	2.086592E-12	-0.000267576	2.086592E-12	2.651941E-12	-2.798878E-15	49.98455	0.008984312	-7.105427E-15	-1.122244E-07	-3.806781E-07	-7.105427E-15	-1.48689E-07	-3.679697E-07	15.96887	3.968755E-07	-7.105427E-12	-0.0001487788	-0.0005046604	-7.105427E-12	-0.0001971195	-0.0004878126	-7.148703E-12	9.763367	-0.9538645	49.98455	1.338	-1	0	0	-1	-1.217419	18.96704	-12.83359	0.5762335	-67.23097	2.550148	0	-1	0.5
1.358	-0.0002537717	-10.65422	-6.311552	0	-0.003961293	0.03587664	1.557902E-13	-5.572339	-6.526039E-14	-3.576894	0	9.617708E-12	0.007188037	-9.383565E-13	-0.007188037	-9.383565E-13	-9.617708E-12	-3.821581E-15	49.98457	0.008977383	7.105427E-15	-3.022607E-06	-1.022778E-05	7.105427E-15	-4.001467E-06	-9.885949E-06	15.96825	1.066507E-05	7.105427E-12	-0.0001410954	-0.0004780013	7.105427E-12	-0.0001868437	-0.0004620417	7.078879E-12	9.763455	-0.9530368	49.98457	1.358	-1	0	0	-1	-1.217345	18.96493	-12.83007	0.5761591	-67.21375	2.55042	0	-1	0.5
1.378	-0.0001996007	-10.50596	-6.300372	1.573426E-07	-0.004216458	0.03585922	-1.190641E-13	-5.560032	6.559245E-14	-3.568994	0	4.84167E-13	0.01354006	8.6669E-13	-0.01354006	8.6669E-13	-4.84167E-13	-1.292181E-15	49.9846	0.008959159	0	-5.697832E-06	-1.926604E-05	6.392083E-21	-7.537685E-06	-1.862334E-05	15.9678	2.009093E-05	-3.552713E-12	-0.0001268927	-0.0004279427	-3.552713E-12	-0.0001677585	-0.0004136349	-3.532423E-12	9.763679	-0.9508913	49.9846	1.378	-1	0	0	-1	-1.217245	18.95963	-12.82206	0.5759972	-67.17184	2.551113	0	-1	0.5
1.398	-0.0001018074	-10.28169	-6.284426	-1.546141E-07	-0.0043721	0.03585215	-9.174729E-13	-5.540946	3.856901E-14	-3.55376	0	-6.311365E-12	0.01907052	-3.011912E-13	-0.01907052	-3.011912E-13	6.311365E-12	-2.742863E-15	49.98466	0.008930981	-7.105427E-15	-8.033589E-06	-2.713501E-05	-7.105579E-15	-1.061613E-05	-2.623252E-05	15.96756	2.829925E-05	-1.776357E-12	-0.0001078006	-0.0003637979	-1.776359E-12	-0.0001424241	-0.0003516891	-1.620006E-12	9.76402	-0.9475766	49.98466	1.398	-1	0	0	-1	-1.217289	18.9542	-12.81388	0.5758004	-67.13273	2.551973	0	-1	0.5
1.418	-1.34838E-05	-9.99552	-6.26356	1.491571E-07	-0.004371155	0.03586331	-8.323588E-13	-5.516115	1.342224E-13	-3.532126	0	-4.325774E-12	0.02364144	1.331822E-12	-0.02364144	1.331822E-12	4.325774E-12	-1.385814E-15	49.98473	0.008894339	-3.552714E-15	-9.973068E-06	-3.363867E-05	-3.552826E-15	-1.316043E-05	-3.252423E-05	15.96751	3.508593E-05	7.77156E-12	-8.731148E-05	-0.0002927845	7.771559E-12	-0.0001150513	-0.0002830358	7.913413E-12	9.764457	-0.9432763	49.98473	1.418	-1	0	0	-1	-1.217329	18.94969	-12.80756	0.5756559	-67.10049	2.552645	0	-1	0.5
1.438	5.945796E-05	-9.661976	-6.240045	0	-0.004208967	0.03587497	8.560306E-13	-5.48669	-2.757433E-14	-3.505195	0	7.525524E-12	0.02719432	-7.232675E-13	-0.02719432	-7.232675E-13	-7.525524E-12	2.046421E-15	49.98481	0.008850843	8.881784E-15	-1.149205E-05	-3.869436E-05	8.881992E-15	-1.513915E-05	-3.741827E-05	15.96764	4.036484E-05	1.421085E-11	-6.647314E-05	-0.0002200249	1.421085E-11	-8.720616E-05	-0.0002126611	1.406496E-11	9.764968	-0.9381911	49.98481	1.438	-1	0	0	-1	-1.217416	18.94823	-12.80552	0.5756003	-67.09114	2.552938	0	-1	0.5
1.458	7.295679E-05	-9.29402	-6.214292	1.818989E-09	-0.003942106	0.03589673	-7.60232E-13	-5.453833	2.308142E-13	-3.474134	0	-4.979457E-12	0.02972677	4.758125E-13	-0.02972677	4.758125E-13	4.979457E-12	-5.451286E-15	49.98491	0.008802176	-1.953993E-14	-1.258659E-05	-4.229764E-05	-1.953997E-14	-1.654974E-05	-4.090989E-05	15.96793	4.413064E-05	-1.065814E-11	-4.56348E-05	-0.0001480803	-1.065814E-11	-5.950231E-05	-0.0001430726	-1.052856E-11	9.765532	-0.9325215	49.98491	1.458	-1	0	0	-1	-1.217538	18.95018	-12.80852	0.5756498	-67.10798	2.552768	0	-1	0.5
1.478	2.762118E-05	-8.904672	-6.187364	9.094946E-10	-0.003662636	0.03591858	2.4747E-13	-5.418701	1.353795E-13	-3.440115	0	9.140264E-12	0.03127443	4.642288E-14	-0.03127443	4.642288E-14	-9.140264E-12	-2.929221E-15	49.985	0.008750141	5.329071E-15	-1.326879E-05	-4.449976E-05	5.329251E-15	-1.741175E-05	-4.304788E-05	15.96835	4.643586E-05	5.773159E-12	-2.537854E-05	-7.974449E-05	5.77316E-12	-3.279566E-05	-7.699155E-05	5.730978E-12	9.766129	-0.9264672	49.985	1.478	-1	0	0	-1	-1.21773	18.95525	-12.81586	0.5757744	-67.14984	2.552238	0	-1	0.5
1.498	-4.763637E-05	-8.505939	-6.160041	0	-0.003471626	0.03592991	1.755378E-13	-5.38239	2.468423E-13	-3.404278	0	5.886634E-12	0.03190012	1.272322E-12	-0.03190012	1.272322E-12	-5.886634E-12	-1.821906E-15	49.98511	0.008696258	1.776357E-15	-1.356262E-05	-4.53901E-05	1.776607E-15	-1.776051E-05	-4.391776E-05	15.96888	4.737305E-05	-3.552713E-12	-6.170012E-06	-1.653097E-05	-3.552713E-12	-7.69345E-06	-1.587932E-05	-3.582636E-12	9.766739	-0.9202167	49.98511	1.498	-1	0	0	-1	-1.217904	18.96089	-12.82385	0.5759113	-67.1957	2.551625	0	-1	0.5
1.518	-0.0001267285	-8.108138	-6.132965	-9.094946E-10	-0.003431347	0.03593195	4.830539E-13	-5.345902	9.859225E-15	-3.367673	0	1.216665E-12	0.03167553	7.993511E-13	-0.03167553	7.993511E-13	-1.216665E-12	-1.051143E-15	49.98521	0.008642033	3.552714E-15	-1.349556E-05	-4.507042E-05	3.55287E-15	-1.7636E-05	-4.361703E-05	15.96949	4.704756E-05	3.552713E-12	1.105945E-05	4.132744E-05	3.552713E-12	1.486176E-05	4.011729E-05	3.470366E-12	9.767345	-0.9139407	49.98521	1.518	-1	0	0	-1	-1.218035	18.96485	-12.82912	0.5759904	-67.22817	2.551238	0	-1	0.5
1.538	-0.0001799956	-7.722022	-6.106917	0	-0.003546507	0.03592591	2.344438E-13	-5.310157	3.334371E-14	-3.331292	0	4.046151E-12	0.03069982	5.372156E-13	-0.03069982	5.372156E-13	-4.046151E-12	-4.055244E-15	49.98531	0.008588865	0	-1.310813E-05	-4.368275E-05	9.536943E-20	-1.709459E-05	-4.228216E-05	15.97017	4.560708E-05	3.552713E-12	2.561137E-05	9.103677E-05	3.552713E-12	3.392664E-05	8.827582E-05	3.512745E-12	9.767933	-0.9077988	49.98531	1.538	-1	0	0	-1	-1.218113	18.96525	-12.82905	0.5759584	-67.23296	2.551326	0	-1	0.5
1.558	-0.0001883759	-7.355069	-6.082513	-1.082299E-07	-0.003759672	0.03591633	-7.964666E-14	-5.275939	6.249608E-14	-3.295993	0	-1.146072E-11	0.02907661	1.450011E-13	-0.02907661	1.450011E-13	1.146072E-11	-9.315594E-16	49.98541	0.008537903	-1.421085E-14	-1.243921E-05	-4.137261E-05	-1.421083E-14	-1.619082E-05	-4.005351E-05	15.97088	4.320216E-05	-1.421085E-11	3.923196E-05	0.0001342269	-1.421085E-11	5.140823E-05	0.0001300507	-1.419727E-11	9.768491	-0.9019235	49.98541	1.558	-1	0	0	-1	-1.218192	18.96248	-12.82424	0.575821	-67.21397	2.551888	0	-1	0.5
1.578	-0.0001487692	-7.012056	-6.059519	9.094946E-10	-0.003978425	0.03590744	1.208955E-12	-5.243938	-5.536416E-14	-3.262524	0	8.460713E-12	0.02690198	1.36222E-13	-0.02690198	1.36222E-13	-8.460713E-12	-8.404898E-16	49.9855	0.008490235	1.421085E-14	-1.153047E-05	-3.827806E-05	1.421113E-14	-1.498068E-05	-3.7064E-05	15.9716	3.997701E-05	1.065814E-11	5.110632E-05	0.0001727603	1.065814E-11	6.668207E-05	0.0001673663	1.045201E-11	9.769009	-0.8964301	49.9855	1.578	-1	0	0	-1	-1.218196	18.95697	-12.81592	0.575632	-67.17288	2.55272	0	-1	0.5
1.598	-7.795639E-05	-6.689263	-6.037758	0	-0.004102259	0.03590826	6.790784E-13	-5.214811	-1.108491E-13	-3.231511	0	2.830361E-12	0.02410594	-2.586064E-13	-0.02410594	-2.586064E-13	-2.830361E-12	-1.909822E-15	49.98558	0.008446768	3.552714E-15	-1.034979E-05	-3.429991E-05	3.552806E-15	-1.342447E-05	-3.321725E-05	15.97234	3.582739E-05	1.776357E-12	6.565823E-05	0.0002207234	1.776356E-12	8.544802E-05	0.0002138422	1.660568E-12	9.769482	-0.8914171	49.98558	1.598	-1	0	0	-1	-1.218297	18.95215	-12.80868	0.5754473	-67.13937	2.553548	0	-1	0.5
1.618	1.237518E-05	-6.403492	-6.018781	0	-0.004086556	0.03590965	2.342987E-13	-5.18932	-1.748029E-13	-3.203667	0	4.132499E-12	0.02061762	-3.753945E-13	-0.02061762	-3.753945E-13	-4.132499E-12	-1.136693E-15	49.98566	0.008408681	5.107026E-15	-8.86526E-06	-2.933643E-05	5.106984E-15	-1.148231E-05	-2.841435E-05	15.97308	3.064668E-05	7.064661E-12	8.114147E-05	0.0002703163	7.064661E-12	0.0001052582	0.0002618694	7.02471E-12	9.769897	-0.8870226	49.98566	1.618	-1	0	0	-1	-1.218365	18.94884	-12.80395	0.5753341	-67.11607	2.55409	0	-1	0.5
1.638	6.262678E-05	-6.166253	-6.003199	9.094946E-10	-0.00392175	0.03592854	-4.851618E-13	-5.16825	-5.829612E-15	-3.179789	0	-9.051992E-12	0.01647512	-1.007537E-12	-0.01647512	-1.007537E-12	9.051992E-12	-4.633227E-15	49.98572	0.00837718	3.552714E-15	-7.09272E-06	-2.344232E-05	3.552634E-15	-9.175585E-06	-2.27081E-05	15.97382	2.449182E-05	5.32907E-12	9.441282E-05	0.0003124587	5.329071E-12	0.0001221755	0.0003026836	5.411801E-12	9.77024	-0.8833891	49.98572	1.638	-1	0	0	-1	-1.218453	18.94859	-12.80346	0.5753118	-67.11523	2.554231	0	-1	0.5
1.658	7.896042E-05	-5.990922	-5.991643	9.003997E-08	-0.003671033	0.0359453	-8.619886E-14	-5.152241	-1.459525E-13	-3.160649	0	-1.52211E-12	0.01188224	-1.689107E-12	-0.01188224	-1.689107E-12	1.52211E-12	-4.231377E-15	49.98576	0.008353233	1.421085E-14	-5.120412E-06	-1.6907E-05	1.42108E-14	-6.618012E-06	-1.637886E-05	15.97454	1.766537E-05	3.552713E-12	0.0001009321	0.0003348104	3.552715E-12	0.0001305911	0.0003243937	3.567414E-12	9.770494	-0.8806375	49.98576	1.658	-1	0	0	-1	-1.218561	18.9514	-12.80738	0.5753824	-67.1375	2.553954	0	-1	0.5
1.678	5.356847E-05	-5.882037	-5.985012	0	-0.003427825	0.03595712	2.34253E-13	-5.141609	-7.048235E-14	-3.146776	0	9.681104E-12	0.007148688	-8.711318E-13	-0.007148688	-8.711318E-13	-9.681104E-12	-7.726153E-16	49.98579	0.008337349	1.24345E-14	-3.082445E-06	-1.017167E-05	1.24345E-14	-3.981603E-06	-9.854502E-06	15.97518	1.062847E-05	1.332268E-11	0.0001015142	0.0003353925	1.332268E-11	0.0001311628	0.0003249455	1.328273E-11	9.770658	-0.8788238	49.98579	1.678	-1	0	0	-1	-1.218646	18.95602	-12.814	0.5755168	-67.17287	2.553383	0	-1	0.5
1.698	-7.819295E-06	-5.836265	-5.98241	1.818989E-09	-0.003280446	0.03596126	-6.977083E-13	-5.136338	1.693064E-13	-3.138338	0	-3.47292E-12	0.002547583	1.681943E-12	-0.002547583	1.681943E-12	3.47292E-12	-4.334705E-15	49.98581	0.008329511	3.108624E-15	-1.098961E-06	-3.62494E-06	3.108618E-15	-1.419074E-06	-3.511999E-06	15.97573	3.787863E-06	-9.769962E-12	9.662471E-05	0.0003188615	-9.769961E-12	0.0001247831	0.0003089307	-9.650981E-12	9.770733	-0.8779409	49.98581	1.698	-1	0	0	-1	-1.218713	18.96068	-12.82065	0.5756472	-67.20903	2.552791	0	-1	0.5
1.718	-8.850753E-05	-5.847659	-5.983801	9.094946E-10	-0.003285069	0.03596128	1.140043E-12	-5.136158	-1.515527E-13	-3.135204	0	1.021904E-11	-0.001731992	-9.184916E-13	0.001731992	-9.184916E-13	-1.021904E-11	-2.781981E-16	49.98581	0.008329198	1.776357E-14	7.471535E-07	2.464512E-06	1.776356E-14	9.647837E-07	2.387729E-06	15.97617	2.575279E-06	1.598721E-11	8.835922E-05	0.0002913875	1.598721E-11	0.0001140903	0.0002823074	1.57928E-11	9.770725	-0.8779369	49.98581	1.718	-1	0	0	-1	-1.21875	18.96366	-12.82468	0.5757203	-67.2322	2.552428	0	-1	0.5
1.738	-0.0001459726	-5.909499	-5.988332	-9.094946E-10	-0.003441109	0.03595078	-4.132124E-13	-5.140604	-1.166791E-13	-3.136997	0	-2.943958E-12	-0.005569133	2.648041E-13	0.005569133	2.648041E-13	2.943958E-12	-4.663227E-15	49.9858	0.008335873	1.421085E-14	2.401881E-06	7.924391E-06	1.421089E-14	3.102247E-06	7.677309E-06	15.9765	8.280399E-06	3.552713E-12	7.799826E-05	0.0002571614	3.552715E-12	0.0001007262	0.0002491384	3.623179E-12	9.770644	-0.8787283	49.9858	1.738	-1	0	0	-1	-1.218723	18.96348	-12.82415	0.5757067	-67.23035	2.552453	0	-1	0.5
1.758	-0.0001599005	-6.014789	-5.995539	9.003997E-08	-0.003685191	0.03593618	8.228758E-13	-5.14913	8.514494E-14	-3.143214	0	6.309155E-12	-0.008891161	3.44777E-13	0.008891161	3.44777E-13	-6.309155E-12	-1.963134E-15	49.98577	0.008348614	7.105427E-15	3.832858E-06	1.265085E-05	7.105338E-15	4.952783E-06	1.225581E-05	15.97671	1.321873E-05	3.552713E-12	6.635673E-05	0.0002187444	3.552712E-12	8.572089E-05	0.0002119062	3.41239E-12	9.770498	-0.8802195	49.98577	1.758	-1	0	0	-1	-1.218662	18.96041	-12.81949	0.5756093	-67.20638	2.552854	0	-1	0.5
1.778	-0.0001298778	-6.156232	-6.005159	9.094946E-10	-0.003922329	0.03592439	2.026315E-12	-5.161118	-1.273974E-13	-3.15327	0	1.030358E-11	-0.0116603	-9.302375E-13	0.0116603	-9.302375E-13	-1.030358E-11	2.103803E-15	49.98574	0.008366555	7.105427E-15	5.023088E-06	1.659105E-05	7.105235E-15	6.495199E-06	1.607192E-05	15.97682	1.733477E-05	-1.776357E-12	5.401671E-05	0.0001788139	-1.776359E-12	6.988322E-05	0.0001732298	-2.121891E-12	9.770298	-0.8823023	49.98574	1.778	-1	0	0	-1	-1.218569	18.95558	-12.81257	0.5754747	-67.16874	2.553445	0	-1	0.5
1.798	-5.422096E-05	-6.32645	-6.016897	9.094946E-10	-0.004061759	0.03591442	-5.113356E-13	-5.175918	-3.160992E-15	-3.166532	0	6.510339E-12	-0.01386106	-5.89852E-13	0.01386106	-5.89852E-13	-6.510339E-12	-3.770502E-15	49.98569	0.008388698	1.776357E-15	5.96582E-06	1.972285E-05	1.776427E-15	7.720771E-06	1.910423E-05	15.97682	2.060538E-05	3.552713E-12	4.144385E-05	0.0001385342	3.552714E-12	5.377259E-05	0.0001342305	3.639906E-12	9.770053	-0.884865	49.98569	1.798	-1	0	0	-1	-1.218499	18.95119	-12.80654	0.57536	-67.13496	2.553972	0	-1	0.5
1.818	2.183054E-05	-6.518025	-6.029702	0	-0.004047364	0.03591613	-3.347437E-13	-5.192882	-1.904558E-14	-3.182341	0	-1.134772E-11	-0.01549661	1.17969E-13	0.01549661	1.17969E-13	1.134772E-11	-3.513518E-15	49.98565	0.00841403	-9.769963E-15	6.663846E-06	2.204976E-05	-9.769905E-15	8.632193E-06	2.135612E-05	15.97673	2.303473E-05	4.218847E-12	2.945307E-05	9.848735E-05	4.218847E-12	3.824617E-05	9.541737E-05	4.275926E-12	9.769775	-0.8877965	49.98565	1.818	-1	0	0	-1	-1.218463	18.94888	-12.80346	0.5753062	-67.11691	2.554242	0	-1	0.5
1.838	7.564492E-05	-6.724141	-6.043542	9.094946E-10	-0.003892443	0.03592353	-4.524587E-13	-5.21138	-8.252432E-15	-3.200057	0	4.332851E-12	-0.01658996	-1.308589E-12	0.01658996	-1.308589E-12	-4.332851E-12	-3.793712E-15	49.9856	0.008441657	-5.329071E-15	7.126015E-06	2.36053E-05	-5.328994E-15	9.240637E-06	2.286047E-05	15.97655	2.465746E-05	1.154632E-11	1.781154E-05	6.065238E-05	1.154632E-11	2.324699E-05	5.878384E-05	1.162347E-11	9.769473	-0.8909873	49.9856	1.838	-1	0	0	-1	-1.218434	18.94935	-12.80428	0.5753399	-67.11897	2.554129	0	-1	0.5
1.858	7.651195E-05	-6.938437	-6.058018	-1.027729E-07	-0.003664388	0.03593557	2.539528E-13	-5.230798	-7.249793E-14	-3.219057	0	-1.737851E-13	-0.01715958	1.842582E-12	0.01715958	1.842582E-12	1.737851E-13	-1.03684E-16	49.98554	0.00847061	8.881784E-15	7.362338E-06	2.441625E-05	8.881772E-15	9.557656E-06	2.364336E-05	15.97631	2.55021E-05	1.154632E-11	6.752088E-06	2.468005E-05	1.154632E-11	8.973997E-06	2.396169E-05	1.150302E-11	9.769156	-0.8943331	49.98554	1.858	-1	0	0	-1	-1.218393	18.95221	-12.80879	0.5754595	-67.13874	2.553637	0	-1	0.5
1.878	2.213838E-05	-7.154417	-6.072532	-1.064109E-07	-0.003456096	0.03594707	1.307104E-12	-5.250557	-1.689183E-13	-3.238729	0	1.279276E-11	-0.01724179	-1.175221E-12	0.01724179	-1.175221E-12	-1.279276E-11	5.332492E-16	49.98549	0.008500114	0	7.389346E-06	2.45329E-05	-1.467571E-19	9.603378E-06	2.375375E-05	15.97601	2.562158E-05	1.021405E-11	-3.143213E-06	-8.847564E-06	1.021405E-11	-3.939676E-06	-8.5228E-06	9.991192E-12	9.768834	-0.8977343	49.98549	1.878	-1	0	0	-1	-1.218414	18.95727	-12.81634	0.5756262	-67.17683	2.552906	0	-1	0.5
1.898	-6.497119E-05	-7.366764	-6.086628	0	-0.003360885	0.03595064	-4.038465E-14	-5.270127	-4.556007E-14	-3.258519	0	-1.498603E-12	-0.0168837	-7.751344E-13	0.0168837	-7.751344E-13	1.498603E-12	-2.378065E-15	49.98543	0.008529246	-1.24345E-14	7.227762E-06	2.402347E-05	-1.243447E-14	9.403797E-06	2.325803E-05	15.97567	2.50872E-05	-8.881783E-12	-1.199078E-05	-3.87663E-05	-8.881783E-12	-1.550083E-05	-3.750105E-05	-8.874898E-12	9.768515	-0.9010999	49.98543	1.898	-1	0	0	-1	-1.218384	18.96184	-12.82322	0.5757851	-67.21051	2.552191	0	-1	0.5
1.918	-0.0001364729	-7.570593	-6.100273	0	-0.003425325	0.03593793	-1.09358E-12	-5.289037	-1.047591E-13	-3.27792	0	3.690033E-13	-0.01613336	-9.478516E-13	0.01613336	-9.478516E-13	-3.690033E-13	-5.24663E-15	49.98537	0.008557439	-7.105427E-15	6.89947E-06	2.29557E-05	-7.105214E-15	8.986153E-06	2.222197E-05	15.9753	2.397013E-05	-1.776357E-12	-1.955777E-05	-6.484333E-05	-1.776357E-12	-2.545176E-05	-6.276441E-05	-1.589915E-12	9.768207	-0.9043492	49.98537	1.918	-1	0	0	-1	-1.218356	18.96465	-12.82717	0.5758703	-67.23124	2.551768	0	-1	0.5
1.938	-0.0001934649	-7.761436	-6.11294	0	-0.003626474	0.03592655	-6.094931E-13	-5.306874	-4.517668E-14	-3.296481	0	-2.291498E-12	-0.01505134	-7.007169E-13	0.01505134	-7.007169E-13	2.291498E-12	-2.439512E-15	49.98532	0.008584023	-7.105427E-15	6.429618E-06	2.141623E-05	-7.105321E-15	8.382846E-06	2.072975E-05	15.9749	2.236056E-05	3.552713E-12	-2.619345E-05	-8.614733E-05	3.552713E-12	-3.404894E-05	-8.335544E-05	3.656621E-12	9.767918	-0.9074108	49.98532	1.938	-1	0	0	-1	-1.218247	18.96398	-12.82608	0.5758635	-67.22392	2.551763	0	-1	0.5
1.958	-0.0001841603	-7.935658	-6.124372	1.182343E-07	-0.003893213	0.03590601	-1.119787E-12	-5.323286	-1.020439E-13	-3.313802	0	-1.318737E-11	-0.01370267	1.228493E-12	0.01370267	1.228493E-12	1.318737E-11	-1.731367E-15	49.98528	0.008608446	-1.421085E-14	5.84824E-06	1.949724E-05	-1.421067E-14	7.631878E-06	1.887058E-05	15.9745	2.035545E-05	-3.552713E-12	-3.073364E-05	-0.0001030276	-3.552714E-12	-4.01595E-05	-9.973188E-05	-3.361815E-12	9.767651	-0.910225	49.98528	1.958	-1	0	0	-1	-1.21814	18.96053	-12.82089	0.5757635	-67.19621	2.552166	0	-1	0.5
1.978	-0.0001293269	-8.090527	-6.134735	9.094946E-10	-0.004117915	0.03589519	-1.492712E-12	-5.338027	-6.713339E-14	-3.329595	0	-1.310188E-11	-0.01215609	3.104232E-13	0.01215609	3.104232E-13	1.310188E-11	-4.064175E-15	49.98524	0.00863038	-1.776357E-14	5.183509E-06	1.729699E-05	-1.776337E-14	6.770192E-06	1.673974E-05	15.97411	1.805698E-05	-1.776357E-12	-3.469176E-05	-0.0001147855	-1.776358E-12	-4.521997E-05	-0.0001110603	-1.521889E-12	9.767411	-0.9127495	49.98524	1.978	-1	0	0	-1	-1.218047	18.95565	-12.81383	0.5756243	-67.15815	2.552772	0	-1	0.5
1.998	-4.054431E-05	-8.224582	-6.143577	9.094946E-10	-0.004219754	0.03588764	3.718104E-13	-5.350911	-3.23296E-14	-3.343624	0	-3.225949E-12	-0.0104773	3.022217E-13	0.0104773	3.022217E-13	3.225949E-12	-6.934341E-16	49.9852	0.008649454	-1.065814E-14	4.464062E-06	1.490815E-05	-1.065817E-14	5.834872E-06	1.442688E-05	15.97373	1.556215E-05	-1.24345E-11	-3.690365E-05	-0.0001223525	-1.24345E-11	-4.815286E-05	-0.0001183778	-1.249788E-11	9.767202	-0.9149531	49.9852	1.998	-1	0	0	-1	-1.217966	18.95111	-12.80761	0.5755093	-67.12289	2.553307	0	-1	0.5
2.018	3.174665E-05	-8.336385	-6.150939	-9.094946E-10	-0.004157288	0.03589574	-5.833639E-13	-5.361822	5.675179E-14	-3.355731	0	-3.622069E-12	-0.008726314	3.398626E-13	0.008726314	3.398626E-13	3.622069E-12	-1.225108E-15	49.98517	0.008665681	-8.881784E-15	3.715511E-06	1.241663E-05	-8.881747E-15	4.859524E-06	1.20151E-05	15.97337	1.296062E-05	-4.440892E-13	-3.795139E-05	-0.0001259614	-4.440896E-13	-4.955578E-05	-0.0001218638	-3.446449E-13	9.767027	-0.9168164	49.98517	2.018	-1	0	0	-1	-1.217921	18.94879	-12.80463	0.5754612	-67.10463	2.553557	0	-1	0.5
2.038	7.133243E-05	-8.426226	-6.156952	-1.255103E-07	-0.003961645	0.03590708	-9.955498E-13	-5.370699	9.532216E-14	-3.365826	0	-9.677563E-12	-0.006954212	9.096852E-13	0.006954212	9.096852E-13	9.677563E-12	-1.703599E-15	49.98514	0.008678868	1.776357E-15	2.959045E-06	9.895302E-06	1.776408E-15	3.872246E-06	9.574897E-06	15.97305	1.032826E-05	1.154632E-11	-3.795139E-05	-0.0001256121	1.154632E-11	-4.954197E-05	-0.0001215085	1.171602E-11	9.766885	-0.9183294	49.98514	2.038	-1	0	0	-1	-1.217921	18.9497	-12.80617	0.575505	-67.11082	2.553404	0	-1	0.5
2.058	5.144272E-05	-8.493759	-6.161166	0	-0.003713014	0.0359221	1.418656E-12	-5.377558	-2.66909E-14	-3.373887	0	1.247916E-11	-0.005204083	-2.610521E-13	0.005204083	-2.610521E-13	-1.247916E-11	2.03842E-15	49.98512	0.008689076	1.598721E-14	2.213987E-06	7.404946E-06	1.598714E-14	2.898222E-06	7.164864E-06	15.97276	7.72884E-06	1.332268E-11	-3.678724E-05	-0.000123051	1.332268E-11	-4.815746E-05	-0.0001190618	1.308085E-11	9.766775	-0.9194961	49.98512	2.058	-1	0	0	-1	-1.217968	18.95354	-12.81205	0.5756326	-67.14037	2.552867	0	-1	0.5
2.078	-1.528446E-05	-8.540195	-6.164378	9.094946E-10	-0.003512876	0.03593124	-1.84278E-13	-5.382452	-1.89108E-13	-3.379946	0	-1.202638E-11	-0.003512757	2.195776E-13	0.003512757	2.195776E-13	1.202638E-11	-3.005458E-15	49.98511	0.008696362	-8.881784E-15	1.493841E-06	4.99771E-06	-8.881761E-15	1.956057E-06	4.835546E-06	15.9725	5.216193E-06	1.221245E-12	-3.539025E-05	-0.0001180451	1.221245E-12	-4.630724E-05	-0.0001142049	1.252657E-12	9.7667	-0.9203256	49.98511	2.078	-1	0	0	-1	-1.218	18.9588	-12.81998	0.5758066	-67.18027	2.55211	0	-1	0.5
2.098	-0.0001043262	-8.566399	-6.165873	-9.094946E-10	-0.003442932	0.03593167	4.11103E-13	-5.385458	-2.45006E-13	-3.384057	0	5.573897E-12	-0.001912435	-1.438975E-12	0.001912435	-1.438975E-12	-5.573897E-12	-4.332885E-16	49.9851	0.008700818	-3.552714E-15	8.128118E-07	2.721092E-06	-3.55271E-15	1.064614E-06	2.632793E-06	15.97229	2.839895E-06	-1.776357E-12	-3.317836E-05	-0.0001103617	-1.776357E-12	-4.338998E-05	-0.0001067606	-1.846434E-12	9.766654	-0.9208307	49.9851	2.098	-1	0	0	-1	-1.218021	18.96342	-12.82676	0.5759489	-67.21558	2.551458	0	-1	0.5
2.118	-0.0001789781	-8.573798	-6.166072	0	-0.003533769	0.03592268	-3.609305E-13	-5.386704	3.589135E-14	-3.386325	0	-4.583984E-12	-0.0004320033	4.322381E-13	0.0004320033	4.322381E-13	4.583984E-12	-1.835503E-15	49.9851	0.008702651	0	1.839362E-07	6.144401E-07	1.13204E-21	2.408059E-07	5.944592E-07	15.97212	6.413807E-07	7.105427E-12	-3.026798E-05	-0.0001010485	7.105427E-12	-3.962047E-05	-9.776076E-05	7.166951E-12	9.766638	-0.9210339	49.9851	2.118	-1	0	0	-1	-1.218017	18.96566	-12.82973	0.5760046	-67.23254	2.551158	0	-1	0.5
2.138	-0.0002109786	-8.564157	-6.165184	1.273292E-07	-0.003750145	0.03590753	-6.651012E-14	-5.386342	8.251487E-15	-3.386889	0	-1.896332E-12	0.0009016061	-7.347274E-13	-0.0009016061	-7.347274E-13	1.896332E-12	-3.994073E-15	49.9851	0.008702129	0	-3.832392E-07	-1.282431E-06	-3.979607E-22	-5.019301E-07	-1.240793E-06	15.97198	1.33847E-06	0	-2.677552E-05	-8.952338E-05	-2.78067E-20	-3.506094E-05	-8.661463E-05	1.133734E-14	9.766648	-0.920961	49.9851	2.138	-1	0	0	-1	-1.217972	18.96434	-12.82739	0.5759531	-67.22162	2.551344	0	-1	0.5
2.158	-0.0001857358	-8.539992	-6.163373	0	-0.004007466	0.03589199	-1.584403E-12	-5.38456	3.591458E-13	-3.385915	0	-1.095019E-11	0.002065907	1.945704E-12	-0.002065907	1.945704E-12	1.095019E-11	-4.824569E-15	49.9851	0.008699507	-2.131628E-14	-8.7847E-07	-2.93972E-06	-2.13163E-14	-1.150457E-06	-2.844312E-06	15.97189	3.068169E-06	-1.065814E-11	-2.316665E-05	-7.729977E-05	-1.065814E-11	-3.031823E-05	-7.478471E-05	-1.038806E-11	9.766682	-0.9206455	49.9851	2.158	-1	0	0	-1	-1.217865	18.95971	-12.82048	0.5758184	-67.18472	2.55192	0	-1	0.5
